date,fly_time,fly_time_s,x,y,z,z_max,vx,vy,vz,vx_max,vy_max,vz_max,latitude,longitude,altitude,pitch,roll,yaw,cx,cy,cz,scx,scy,scz,d,dx,dy,dz,gc_pow_x,gc_pow_y,gc_pow_z,gpc_pow_x,gpc_pow_y,gpc_pow_z,gfc_pow_x,gfc_pow_y,gfc_pow_z
22/04/2022,12:51:21,59.793658,0.017381372046656907,-1.5672655310481787,1.8344345092773438,1.8344345092773438,2.266327072675267e-07,-0.12006888538599014,-0.053354907780885696,2.266327072675267e-07,0,0,47.64145389798928,-122.1401649999972,123.83443450927734,9.906443912117916e-07,-1.0169873056580494,-8.701746563116275e-07,0.0,0.0,0.0,-0.3824673444993595,1.8073920246261523,2.364171172506136,1.913516087631034,-0.2673813720466569,1.0672655310481787,1.5655654907226575,0.0,0.0,0.0,-0.06985746878622898,0.27883942681244994,0.4090279048380054,-0.3126098757131305,1.5285525978137025,1.9551432676681304
22/04/2022,12:51:21,59.983658,0.0175934589933604,-1.5863856906071305,1.8203048706054688,1.8344345092773438,2.49368923732618e-07,-0.09267942607402802,-0.0831175297498703,2.49368923732618e-07,0,0,47.64145372344452,-122.14016499999664,123.82005310058594,5.945984094911839e-07,-0.7845748096394585,-8.486521951849505e-07,0.0,0.0,0.0,-0.3768171721076037,1.7429559180515466,2.4156283386000448,1.9357884259093947,-0.2675934589933604,1.0863856906071305,1.5796951293945325,0.0,0.0,0.0,-0.06911377457589143,0.28059062432074755,0.4080020994620662,-0.3077033975317122,1.462365293730799,2.0076262391379784
22/04/2022,12:51:21,60.17266,0.017763697309419513,-1.6017316617071629,1.805816650390625,1.8344345092773438,2.671591516900662e-07,-0.07030505686998367,-0.06950729340314865,2.671591516900662e-07,0,0,47.64145358596964,-122.14016499999597,123.80561065673828,5.141680554619783e-07,-0.5923148858551749,-7.755443124281521e-07,0.0,0.0,0.0,-0.38011243498680536,1.727664711408814,2.4248817717594315,1.9562542278999955,-0.2677636973094195,1.1017316617071629,1.5941833496093762,0.0,0.0,0.0,-0.06843671192416942,0.2815874336499803,0.40745130033609805,-0.31167572306263597,1.4460772777588335,2.0174304714233333
22/04/2022,12:51:21,60.366658,0.01789645676035434,-1.6136977998539805,1.7934951782226562,1.8344345092773438,2.828586787018139e-07,-0.052918024361133575,-0.056892041116952896,2.828586787018139e-07,0,0,47.641453480198955,-122.14016499999526,123.79349517822266,4.3134640063951085e-07,-0.4453653858583399,-7.184642217114076e-07,0.0,0.0,0.0,-0.3830887659805684,1.7170957215554443,2.431154151252026,1.9730557628557304,-0.26789645676035434,1.1136977998539805,1.606504821777345,0.0,0.0,0.0,-0.06788845346471852,0.28222553658774396,0.407109258379028,-0.3152003125158499,1.4348701849677004,2.0240448928729977
22/04/2022,12:51:21,60.555656,0.01799375656992197,-1.6224665408954024,1.78369140625,1.8344345092773438,2.9547160806941974e-07,-0.04019610211253166,-0.046883903443813324,2.9547160806941974e-07,0,0,47.641453400214665,-122.14016499999452,123.78355407714844,3.5134268454442393e-07,-0.33845314453298625,-6.947563036630653e-07,0.0,0.0,0.0,-0.38540239342697385,1.7095908882594772,2.435652887416845,1.9860023311215562,-0.26799375656992197,1.1224665408954024,1.6163085937500012,0.0,0.0,0.0,-0.06747061807753764,0.2825943121022259,0.40692492698386906,-0.31793177534943623,1.4269965761572514,2.0287279604329758
22/04/2022,12:51:22,60.751658,0.01806869695428759,-1.6292185988277197,1.7754898071289062,1.8344345092773438,3.0565263386961306e-07,-0.030401594936847687,-0.038588933646678925,3.0565263386961306e-07,0,0,47.64145333972448,-122.14016499999377,123.77537536621094,2.7007230727643464e-07,-0.2562396152473751,-6.727638148146175e-07,0.0,0.0,0.0,-0.38727124420615466,1.7039600752522683,2.4390475963509988,1.996504154007021,-0.2680686969542876,1.1292185988277197,1.624510192871095,0.0,0.0,0.0,-0.06713451963667458,0.28279895809701766,0.40683866741024266,-0.32013672456948006,1.4211611171552507,2.032208928940756
22/04/2022,12:51:22,60.944659,0.018126159440726042,-1.6343946708366275,1.7686309814453125,1.8344345092773438,3.13273261554059e-07,-0.022891871631145477,-0.031751226633787155,3.13273261554059e-07,0,0,47.64145329335292,-122.14016499999295,123.76853942871094,1.8779505005871234e-07,-0.19316289525722682,-7.082332062161037e-07,0.0,0.0,0.0,-0.3887624811107449,1.699748101880986,2.441593750299123,2.005020643609203,-0.26812615944072604,1.1343946708366275,1.6313690185546887,0.0,0.0,0.0,-0.06686369217241585,0.2828885336330534,0.4068210133012805,-0.3218987889383291,1.4168595682479326,2.0347727369978426
22/04/2022,12:51:22,61.102658,0.01816234306897968,-1.6376527026295662,1.763946533203125,1.8344345092773438,3.1745861406307085e-07,-0.01816243678331375,-0.02715327963232994,3.1745861406307085e-07,0,0,47.64145326465647,-122.1401649999923,123.76394653320312,1.2069052478784483e-07,-0.1533923144122554,-7.321933867358436e-07,0.0,0.0,0.0,-0.3897316398124543,1.697154779195791,2.443162149577062,2.0106803973428193,-0.2681623430689797,1.1376527026295662,1.6360534667968762,0.0,0.0,0.0,-0.06668449365821719,0.28290248946042523,0.4068408553659482,-0.32304714615423713,1.4142522897353658,2.0363212942111137
22/04/2022,12:51:22,61.292212,0.01819623401388526,-1.6407031444832683,1.7591781616210938,1.8344345092773438,3.20084240001961e-07,-0.013732703402638435,-0.022565485909581184,3.20084240001961e-07,0,0,47.64145323683939,-122.14016499999148,123.75910949707031,3.9733168450297e-08,-0.11609005467430489,-7.876666822072332e-07,0.0,0.0,0.0,-0.39066138030512293,1.6947694444093873,2.444604813692745,2.0162909485176947,-0.26819623401388526,1.1407031444832683,1.6408218383789075,0.0,0.0,0.0,-0.06650738231064483,0.2828719068783632,0.40689149014326315,-0.3241539979944781,1.411897537531024,2.037713323549482
22/04/2022,12:51:22,61.492207,0.018221871694549918,-1.6430093916133046,1.7552032470703125,1.8344345092773438,3.200537719294516e-07,-0.010382214561104774,-0.018846336752176285,3.20084240001961e-07,0,0,47.6414532164578,-122.14016499999066,123.75520324707031,-4.126429308771569e-08,-0.08783627430493458,-8.228729105676503e-07,0.0,0.0,0.0,-0.391377586220782,1.6929867316696228,2.445683845529254,2.0208339368240016,-0.2682218716945499,1.1430093916133046,1.6447967529296887,0.0,0.0,0.0,-0.06636427464788269,0.2828068744390764,0.40696063584135184,-0.3250133115728993,1.4101798572305464,2.038723209687902
22/04/2022,12:51:22,61.68421,0.01824153831694275,-1.644777218811214,1.7518234252929688,1.8344345092773438,3.173038578552223e-07,-0.007814095355570316,-0.01579064130783081,3.20084240001961e-07,0,0,47.641453200341076,-122.14016499998982,123.75177764892578,-1.2354183593073324e-07,-0.06615578109789348,-8.552429634559294e-07,0.0,0.0,0.0,-0.39193132326097385,1.691621024191247,2.4465125371022145,2.0245874703259386,-0.26824153831694275,1.144777218811214,1.6481765747070325,0.0,0.0,0.0,-0.06624617105650281,0.28271947713537693,0.4070413105458491,-0.32568515220447103,1.4089015470558701,2.0394712265563655
22/04/2022,12:51:23,61.88421,0.018256546230986714,-1.6461248071864247,1.7489471435546875,1.8344345092773438,3.117075948466663e-07,-0.005855004768818617,-0.013289623893797398,3.20084240001961e-07,0,0,47.64145318842575,-122.14016499998901,123.74894714355469,-2.0703049716093676e-07,-0.049598068896494464,-9.352145473804699e-07,0.0,0.0,0.0,-0.3923536455666923,1.6905653951289454,2.44715602374372,2.02769306923413,-0.2682565462309867,1.1461248071864247,1.6510528564453137,0.0,0.0,0.0,-0.06614849400701388,0.2826191233901144,0.40712766012351065,-0.3262051515596784,1.407946271738831,2.0400283636202095
22/04/2022,12:51:23,62.08221,0.018267662613652647,-1.6471216548234224,1.746551513671875,1.8344345092773438,3.034345752439549e-07,-0.004405964631587267,-0.011305343359708786,3.20084240001961e-07,0,0,47.64145317933741,-122.1401649999882,123.74651336669922,-2.892752974087879e-07,-0.03733959073309572,-9.871111815942936e-07,0.0,0.0,0.0,-0.3926603273937423,1.6897534451678913,2.4476555451278608,2.030208739689048,-0.26826766261365265,1.1471216548234224,1.6534484863281262,0.0,0.0,0.0,-0.06606934953643945,0.28251478704124083,0.4072136944102563,-0.32659097785730284,1.4072386581266505,2.0404418507176043
22/04/2022,12:51:23,62.271212,0.01827592495828867,-1.6478615067899227,1.7445297241210938,1.8344345092773438,2.926110767020873e-07,-0.003329924074932933,-0.009726027958095074,3.20084240001961e-07,0,0,47.64145317270964,-122.14016499998743,123.7445068359375,-3.7023663828033624e-07,-0.028229709925397268,-1.0679687361312184e-06,0.0,0.0,0.0,-0.39287840025844234,1.6891046082567258,2.448060491040909,2.032274549612046,-0.26827592495828867,1.1478615067899227,1.6554702758789075,0.0,0.0,0.0,-0.06600430262378656,0.28240997874161605,0.40729767716124265,-0.32687409763465575,1.4066946295151097,2.0407628138796667
22/04/2022,12:51:23,62.46845,0.018282178440131247,-1.6484205601736903,1.7427902221679688,1.8344345092773438,2.791303757021524e-07,-0.002516522305086255,-0.008447758853435516,3.20084240001961e-07,0,0,47.64145316776892,-122.14016499998672,123.74279022216797,-4.5120504409161423e-07,-0.021342173865182328,-1.1367150493935602e-06,0.0,0.0,0.0,-0.39303263222063095,1.6885661076644032,2.4484019837158644,2.034008200091713,-0.26828217844013125,1.1484205601736903,1.6572097778320325,0.0,0.0,0.0,-0.06594965764317666,0.2823070217119972,0.4073785971412806,-0.3270829745774543,1.406259085952406,2.041023386574584
22/04/2022,12:51:23,62.660211,0.018286916543729603,-1.6488429671153426,1.7412643432617188,1.8344345092773438,2.629921596053464e-07,-0.001901719137094915,-0.0074128215201199055,3.20084240001961e-07,0,0,47.64145316391605,-122.14016499998601,123.74124145507812,-5.321724913751353e-07,-0.01613200656832502,-1.2096259242855438e-06,0.0,0.0,0.0,-0.3931343511484763,1.6880938719490368,2.448707966002693,2.0354906071053014,-0.2682869165437296,1.1488429671153426,1.6587356567382825,0.0,0.0,0.0,-0.06590286250233432,0.2822054875949774,0.40745717056211467,-0.32723148864614193,1.4058883843540595,2.0412507954405785
22/04/2022,12:51:24,62.85821,0.018290558946318924,-1.6491669230163097,1.7399063110351562,1.8344345092773438,2.438812032323767e-07,-0.001430837088264525,-0.006563534028828144,3.20084240001961e-07,0,0,47.64145316101415,-122.14016499998534,123.73988342285156,-6.144051478197767e-07,-0.012140048524497057,-1.2859916488526444e-06,-4.48895768512588e-08,1.9999999999999996,0.0,-0.3931975169637589,3.6876686699432573,2.448988897307226,2.0367806698600144,-0.2682905589463189,1.1491669230163097,1.660093688964845,-4.48895768512588e-08,1.9999999999999996,0.0,-0.06586208147301842,0.2821065556948721,0.40753288608013644,-0.3273353906011636,1.4055621142483856,2.041456011227089
22/04/2022,12:51:24,63.047209,0.018206382635980844,-1.6415727538987994,1.7513885498046875,1.8344345092773438,2.1648145320796175e-07,0.1497640162706375,0.20057129859924316,3.20084240001961e-07,0.1497640162706375,0.20057129859924316,47.64145323335452,-122.14016499998476,123.75198364257812,-7.007970682342652e-07,-8.369376064177244,-1.2620399051994684e-06,-1.1013375818643912e-07,4.999999999999999,0.0,-0.4957042960581471,6.6303072375252885,2.40473216055403,2.0231269682958266,-0.26820638263598084,1.1415727538987994,1.6486114501953137,-1.1013375818643912e-07,4.999999999999999,0.0,-0.06628527283775465,0.2821314717145644,0.4074424281243134,-0.42941891308663427,1.3481757658107254,1.9972897324297167
22/04/2022,12:51:24,63.247209,0.017307234928011894,-1.5604928256943822,1.842987060546875,1.842987060546875,1.6449207862478943e-07,0.8915048837661743,0.9380348920822144,3.20084240001961e-07,0.8915048837661743,0.9380348920822144,47.641453982712335,-122.14016499998425,123.84577178955078,-8.178136313203192e-07,-22.162090727934718,-1.1962921815346912e-06,-1.0439618691823037e-07,4.999999999999999,0.0,-0.070230198338739,5.278625121366343,0.4090767129330071,1.9027315850688398,-0.2673072349280119,1.0604928256943822,1.5570129394531262,-1.0439618691823037e-07,4.999999999999999,0.0,-0.07023009394255209,0.2786251213663434,0.4090767129330071,-0.0,-0.0,-0.0
22/04/2022,12:51:24,63.429211,0.014344116323627532,-1.2933051092550159,2.0890960693359375,2.0890960693359375,1.0261354077556462e-07,1.94489586353302,1.523546576499939,3.20084240001961e-07,1.94489586353302,1.523546576499939,47.64145641529664,-122.14016499998392,124.09367370605469,-8.917263576066412e-07,-23.896683468151725,-1.2994422645226765e-06,-9.071818382196721e-08,3.999999999999999,0.0,-0.5275430175886222,4.243439020769606,-2.0394871315120144,1.55488903901067,-0.26434411632362753,0.7933051092550159,1.3109039306640637,-9.071818382196721e-08,3.999999999999999,0.0,-0.08350492018658408,0.2506009241032174,0.4141076776165705,-0.4440380066838543,-0.007161903333610865,-2.453594809128585
22/04/2022,12:51:24,63.620209,0.009806110407225788,-0.8841101052239537,2.3100204467773438,2.3100204467773438,7.421002834462342e-08,2.354769706726074,0.7449655532836914,3.20084240001961e-07,2.354769706726074,1.523546576499939,47.64146010829171,-122.14016499998371,124.31226348876953,-9.72381872972686e-07,-17.019115149677532,-1.4739514829351273e-06,0.0,0.0,0.0,-0.09777260982599077,0.14455182516460702,0.4101910667478384,1.1845232012854592,-0.2598061104072258,0.3841101052239537,1.0899795532226575,0.0,0.0,0.0,-0.09777260982599077,0.14455182516460702,0.4101910667478384,-0.0,-0.0,-0.0
22/04/2022,12:51:25,63.815208,0.004549336154013872,-0.4101038798689842,2.3854293823242188,2.3854293823242188,5.159548877031739e-08,2.4983103275299072,0.07134076952934265,3.20084240001961e-07,2.4983103275299072,1.523546576499939,47.641464309949164,-122.14016499998357,124.38542938232422,-7.357116166258702e-07,4.08560004443576,-1.8487881207713545e-06,0.0,0.0,0.0,-0.10108383122405121,-0.0016303843745814732,0.4007174056707419,1.046361372540855,-0.2559326937904167,-0.004127946674038985,1.0145706176757825,0.0,0.0,0.0,-0.10108383122405121,-0.0016303843745814732,0.4007174056707419,-0.0,-0.0,0.0
22/04/2022,12:51:25,64.004208,-0.00043597992043942213,0.03942465875297785,2.4351043701171875,2.4351043701171875,3.968258965869609e-08,2.133666753768921,0.4228619337081909,3.20084240001961e-07,2.4983103275299072,1.523546576499939,47.6414683547368,-122.14016499998344,124.43510437011719,-4.834745924467007e-07,12.254291894655724,-2.01787741720599e-06,0.0,0.0,0.0,0.0,0.0,0.0,0.9988527112305234,-0.2581972489020847,-0.004164471756485266,0.9648956298828137,0.0,0.0,0.0,-0.0,-0.0,0.0,-0.0,-0.0,0.0
22/04/2022,12:51:25,64.196208,-0.004463789868168533,0.40261434856802225,2.5186767578125,2.5186767578125,4.293022470847063e-08,1.7101731300354004,0.4189913868904114,3.20084240001961e-07,2.4983103275299072,1.523546576499939,47.64147166883507,-122.14016499998334,124.51994323730469,-2.09716172212884e-07,12.628977863601454,-2.0340695817248864e-06,-1.4200484566305257e-07,3.9999999999999973,0.0,-1.4200484566305257e-07,3.9999999999999973,0.0,0.9188918408895002,-0.2600268612114376,-0.004193981632442556,0.8813232421875012,-1.4200484566305257e-07,3.9999999999999973,0.0,-0.0,-0.0,0.0,-0.0,-0.0,0.0
22/04/2022,12:51:25,64.38321,-0.007823345251381397,0.7055472861975431,2.5545501708984375,2.5545501708984375,4.368406791854795e-08,1.6019726991653442,0.03781680762767792,3.20084240001961e-07,2.4983103275299072,1.523546576499939,47.641474391534814,-122.14016499998323,124.55465698242188,-8.272194075691955e-08,-5.325882807827405,-2.0135323484373908e-06,-3.5142769075646165e-08,0.9999999999999993,0.0,-3.5142769075646165e-08,0.9999999999999993,0.0,0.8849933005986194,-0.26155292395264956,-0.004218595547623494,0.8454498291015637,-3.5142769075646165e-08,0.9999999999999993,0.0,-0.0,-0.0,0.0,-0.0,-0.0,0.0
22/04/2022,12:51:25,64.576218,-0.011451137834228575,1.0326672354713082,2.555023193359375,2.555023193359375,3.702619721934752e-08,1.7132498025894165,-0.05082561448216438,3.20084240001961e-07,2.4983103275299072,1.523546576499939,47.641477337953845,-122.14016499998313,124.55487060546875,-1.1462140031972709e-07,0.45523438339751,-2.0307854765732058e-06,0.0,0.0,0.0,0.0,0.0,0.0,0.8850302269690562,-0.2632008308880225,-0.004245174691742237,0.8449768066406262,0.0,0.0,0.0,-0.0,-0.0,0.0,-0.0,-0.0,0.0
22/04/2022,12:51:26,64.773213,-0.014931130106560886,1.3464599745348096,2.559814453125,2.559814453125,3.7038478950535136e-08,1.56050443649292,0.1326555460691452,3.20084240001961e-07,2.4983103275299072,1.523546576499939,47.64148015734896,-122.14016499998303,124.5602035522461,-1.9232042234274115e-07,7.460649298527606,-2.0568885488724563e-06,-3.589947752439266e-08,0.9999999999999993,0.0,-3.589947752439266e-08,0.9999999999999993,0.0,0.880930921141045,-0.2647816005959787,-0.004270670977354563,0.8401855468750012,-3.589947752439266e-08,0.9999999999999993,0.0,-0.0,-0.0,0.0,-0.0,-0.0,0.0
22/04/2022,12:51:26,64.962209,-0.018013551481999457,1.624403609894216,2.5764389038085938,2.5764389038085938,3.729514830297376e-08,1.3547857999801636,0.020671414211392403,3.20084240001961e-07,2.4983103275299072,1.523546576499939,47.64148261613005,-122.14016499998293,124.5764389038086,-2.674286000530595e-07,4.658945335570491,-2.040349415002827e-06,-1.7805407591469756e-07,4.9999999999999964,0.0,-1.7805407591469756e-07,4.9999999999999964,0.0,0.8655195257826377,-0.2661817768313746,-0.004293254465022489,0.8235610961914075,-1.7805407591469756e-07,4.9999999999999964,0.0,-0.0,-0.0,0.0,-0.0,-0.0,0.0
22/04/2022,12:51:26,65.148209,-0.020884039462544024,1.8832369474694133,2.5918807983398438,2.5918807983398438,1.8057201955912205e-08,1.5583900213241577,0.46945396065711975,3.20084240001961e-07,2.4983103275299072,1.523546576499939,47.64148498692467,-122.14016499998286,124.59326171875,-3.461136434873476e-07,-13.33025780516872,-1.875822507411426e-06,-1.3095711574938044e-07,3.999999999999998,0.0,-1.3095711574938044e-07,3.999999999999998,0.0,0.8512484047758189,-0.26748568089703106,-0.004314285175758492,0.8081192016601575,-1.3095711574938044e-07,3.999999999999998,0.0,-0.0,-0.0,0.0,-0.0,-0.0,-0.0
22/04/2022,12:51:26,65.337209,-0.024706620955839753,2.2279203459620476,2.7043991088867188,2.7043991088867188,-1.1533792587670177e-08,2.069042444229126,0.5473805069923401,3.20084240001961e-07,2.4983103275299072,1.523546576499939,47.64148810214617,-122.14016499998286,124.70603942871094,-4.105743348840527e-07,-14.689618006574534,-1.8300855135354836e-06,0.0,0.0,0.0,0.0,0.0,0.0,0.7458954158409126,-0.2692220573460075,-0.0043422912475166164,0.6956008911132825,0.0,0.0,0.0,-0.0,-0.0,0.0,-0.0,-0.0,-0.0
22/04/2022,12:51:26,65.49321,-0.028549578855745494,2.5744408862665296,2.7566375732421875,2.7566375732421875,-2.442278734804404e-08,2.2258260250091553,0.0007096263580024242,3.20084240001961e-07,2.4983103275299072,1.523546576499939,47.641491224409066,-122.14016499998287,124.75664520263672,-4.866058149983124e-07,1.272504728165591,-1.932856011494301e-06,0.0,0.0,0.0,0.0,0.0,0.0,0.6981101632164167,-0.27096768630092044,-0.004370446553241258,0.6433624267578137,0.0,0.0,0.0,-0.0,-0.0,0.0,-0.0,-0.0,0.0
22/04/2022,12:51:26,65.692207,-0.03300381964072585,2.9760806364938617,2.776611328125,2.776611328125,-3.6120340496381687e-08,1.9657750129699707,0.2565534710884094,3.20084240001961e-07,2.4983103275299072,1.523546576499939,47.64149483136529,-122.14016499998296,124.77737426757812,-6.240937725038209e-07,10.333402533986835,-1.9622069796813855e-06,0.0,0.0,0.0,0.0,0.0,0.0,0.6805563153112018,-0.27299097965244973,-0.004403080316975672,0.6233886718750012,0.0,0.0,0.0,-0.0,-0.0,0.0,-0.0,-0.0,0.0
22/04/2022,12:51:27,65.88721,-0.0367316136835143,3.3122162725776434,2.8331298828125,2.8331298828125,-4.6490811200783355e-08,1.5879136323928833,0.3008158504962921,3.20084240001961e-07,2.4983103275299072,1.523546576499939,47.64149784567539,-122.14016499998309,124.83403015136719,-7.58306340803913e-07,11.308246365088902,-1.9339676257251934e-06,0.0,0.0,0.0,0.0,0.0,0.0,0.6299308025462981,-0.2746842876203862,-0.004430391735812833,0.5668701171875012,0.0,0.0,0.0,-0.0,-0.0,0.0,-0.0,-0.0,-0.0
22/04/2022,12:51:27,66.067209,-0.03966204379685223,3.5764530012384057,2.882049560546875,2.882049560546875,-6.077290493067267e-08,1.2559539079666138,0.21661129593849182,3.20084240001961e-07,2.4983103275299072,1.523546576499939,47.64150018036579,-122.14016499998321,124.88204956054688,-8.904210532945269e-07,9.906926205951303,-1.9054254762864162e-06,0.0,0.0,0.0,0.0,0.0,0.0,0.5869216084732545,-0.27601539394582086,-0.004451861192674933,0.5179504394531262,0.0,0.0,0.0,-0.0,-0.0,0.0,-0.0,-0.0,0.0
22/04/2022,12:51:27,66.25721,-0.04196285596117377,3.78391688875854,2.9143524169921875,2.9143524169921875,-8.095422288079135e-08,0.9787794947624207,0.13153299689292908,3.20084240001961e-07,2.4983103275299072,1.523546576499939,47.641502073523114,-122.14016499998338,124.91474914550781,-1.0147379689837988e-06,8.040348523974233,-1.8245152128924398e-06,0.0,0.0,0.0,0.0,0.0,0.0,0.5591386821588249,-0.27706050163544277,-0.0044687177683142565,0.48564758300781374,0.0,0.0,0.0,-0.0,-0.0,0.0,-0.0,-0.0,0.0
22/04/2022,12:51:27,66.445208,-0.04377246822696179,3.947088433429599,2.9332656860351562,2.9332656860351562,-1.0783485748788735e-07,0.7523319721221924,0.07115674018859863,3.20084240001961e-07,2.4983103275299072,1.523546576499939,47.64150351528556,-122.14016499998361,124.93326568603516,-1.135384187911032e-06,6.288510403530763,-1.6948134338501176e-06,0.0,0.0,0.0,0.0,0.0,0.0,0.5432123688303337,-0.27788247464452376,-0.004481975397492732,0.466734313964845,0.0,0.0,0.0,-0.0,-0.0,0.0,-0.0,-0.0,0.0
22/04/2022,12:51:27,66.63221,-0.04514011088758707,4.070407108403742,2.9429244995117188,2.9429244995117188,-1.402453619903099e-07,0.5773984789848328,0.034730616956949234,3.20084240001961e-07,2.4983103275299072,1.523546576499939,47.64150464048499,-122.14016499998392,124.94303131103516,-1.2504199928115997e-06,4.862667147461731,-1.521245744524456e-06,0.0,0.0,0.0,0.0,0.0,0.0,0.5352592751586297,-0.2785036812663582,-0.004491994859135318,0.4570755004882825,0.0,0.0,0.0,-0.0,-0.0,0.0,-0.0,-0.0,0.0
22/04/2022,12:51:28,66.822209,-0.04620275110937655,4.166223099455237,2.9473495483398438,2.9473495483398438,-1.7361904269819206e-07,0.43983128666877747,0.013527410104870796,3.20084240001961e-07,2.4983103275299072,1.523546576499939,47.64150549890295,-122.14016499998432,124.94739532470703,-9.936348442513184e-07,3.717039804890817,-1.3834390728431195e-06,0.0,0.0,0.0,0.0,0.0,0.0,0.5317387087197986,-0.27898633469487155,-0.004499779591853326,0.4526504516601575,0.0,0.0,0.0,-0.0,-0.0,0.0,-0.0,-0.0,0.0
22/04/2022,12:51:28,67.006211,-0.04700033424887806,4.238138302229345,2.9487380981445312,2.9487380981445312,-1.9801686335085833e-07,0.335910826921463,0.002189661841839552,3.20084240001961e-07,2.4983103275299072,1.523546576499939,47.641506134106855,-122.14016499998476,124.94873809814453,-6.881236534474428e-07,2.843462764434315,-1.256558571635869e-06,0.0,0.0,0.0,0.0,0.0,0.0,0.5307478062272074,-0.27934857994422163,-0.004505622257164887,0.45126190185547,0.0,0.0,0.0,-0.0,-0.0,0.0,-0.0,-0.0,0.0
22/04/2022,12:51:28,67.197211,-0.04760917671956122,4.293034357018769,2.9485549926757812,2.9487380981445312,-2.0113040477554023e-07,0.2563103139400482,-0.003647914156317711,3.20084240001961e-07,2.4983103275299072,1.523546576499939,47.64150662805299,-122.14016499998527,124.94855499267578,6.603288480378867e-07,2.1715026281269605,-1.2150884090828093e-06,0.0,0.0,0.0,0.0,0.0,0.0,0.5310490787822711,-0.27962508578027834,-0.004510082028715168,0.45144500732422,0.0,0.0,0.0,-0.0,-0.0,0.0,-0.0,-0.0,0.0
22/04/2022,12:51:28,67.379207,-0.04808013699948788,4.335497704334557,2.9475784301757812,2.9487380981445312,-1.7372099136991892e-07,0.19462522864341736,-0.006409297231584787,3.20084240001961e-07,2.4983103275299072,1.523546576499939,47.641507010131555,-122.14016499998576,124.94757843017578,9.632303264475627e-07,1.6497258492999234,-1.2549865226218061e-06,0.0,0.0,0.0,0.0,0.0,0.0,0.5319920053692451,-0.27983896255987284,-0.004513531654191993,0.45242156982422,0.0,0.0,0.0,-0.0,-0.0,0.0,-0.0,-0.0,0.0
22/04/2022,12:51:28,67.577209,-0.04843276250176132,4.367291459813714,2.9462738037109375,2.9487380981445312,-1.3744352145295125e-07,0.1483948528766632,-0.007429315708577633,3.20084240001961e-07,2.4983103275299072,1.523546576499939,47.64150730021605,-122.14016499998614,124.94625091552734,1.26211202308899e-06,1.2582691042037628,-1.2641334594341175e-06,0.0,0.0,0.0,0.0,0.0,0.0,0.5331860381870351,-0.27999909790680877,-0.004516114482369105,0.45372619628906374,0.0,0.0,0.0,-0.0,-0.0,0.0,-0.0,-0.0,0.0
22/04/2022,12:51:29,67.762208,-0.04870912816841155,4.392209365963936,2.9448318481445312,2.9487380981445312,-9.137182388485598e-08,0.11214463412761688,-0.0075676338747143745,3.20084240001961e-07,2.4983103275299072,1.523546576499939,47.64150752344317,-122.14016499998644,124.94480895996094,1.232701167369605e-06,0.9511341817135188,-1.258790719814018e-06,0.0,0.0,0.0,0.0,0.0,0.0,0.5344794217706894,-0.28012460130309236,-0.004518138730695398,0.45516815185547,0.0,0.0,0.0,-0.0,-0.0,0.0,-0.0,-0.0,0.0
22/04/2022,12:51:29,67.953214,-0.04891230911016464,4.4105290453881025,2.9434432983398438,2.9487380981445312,-6.811947628193593e-08,0.0854945257306099,-0.0072733559645712376,3.20084240001961e-07,2.4983103275299072,1.523546576499939,47.641507687560996,-122.14016499998664,124.94342041015625,3.872096492719142e-07,0.7252058311601411,-1.347959009933562e-06,0.0,0.0,0.0,0.0,0.0,0.0,0.5357106923759759,-0.2802168750571104,-0.004519627017050887,0.4565567016601575,0.0,0.0,0.0,-0.0,-0.0,0.0,-0.0,-0.0,0.0
22/04/2022,12:51:29,68.133213,-0.04906721320003271,4.424495755694807,2.9421310424804688,2.9487380981445312,-4.8522124984629045e-08,0.06517798453569412,-0.006804177537560463,3.20084240001961e-07,2.4983103275299072,1.523546576499939,47.64150781268087,-122.14016499998677,124.94210815429688,8.267113278449269e-07,0.5529378588087278,-1.4439370144645093e-06,0.0,0.0,0.0,0.0,0.0,0.0,0.5368662277212688,-0.28028722218781593,-0.004520761648191041,0.4578689575195325,0.0,0.0,0.0,-0.0,-0.0,0.0,-0.0,-0.0,0.0
22/04/2022,12:51:29,68.320212,-0.04918529908172786,4.43514290265739,2.9409103393554688,2.9487380981445312,-2.974913826392367e-08,0.04968752712011337,-0.00628864299505949,3.20084240001961e-07,2.4983103275299072,1.523546576499939,47.641507906723504,-122.14016499998687,124.94091033935547,1.4391852744284615e-07,0.4215804638898711,-1.4930380138016382e-06,0.0,0.0,0.0,0.0,0.0,0.0,0.5379356412201032,-0.28034085053175456,-0.004521626621480479,0.4590896606445325,0.0,0.0,0.0,-0.0,-0.0,0.0,-0.0,-0.0,0.0
22/04/2022,12:51:29,68.511209,-0.049276588135398924,4.44337394554168,2.9397735595703125,2.9487380981445312,-3.582424312753574e-08,0.03771202266216278,-0.005783412605524063,3.20084240001961e-07,2.4983103275299072,1.523546576499939,47.64150798078514,-122.14016499998695,124.93977355957031,-5.608270377203282e-07,0.32001311606151933,-1.4544194521094556e-06,0.0,0.0,0.0,0.0,0.0,0.0,0.5389277011598105,-0.28038230944892345,-0.004522295313692304,0.46022644042968874,0.0,0.0,0.0,-0.0,-0.0,0.0,-0.0,-0.0,0.0
22/04/2022,12:51:30,68.700727,-0.049344943719916046,4.449536729604006,2.9387359619140625,2.9487380981445312,-6.414545339339384e-08,0.0287476796656847,-0.005333625711500645,3.20084240001961e-07,2.4983103275299072,1.523546576499939,47.641508037012045,-122.14016499998708,124.938720703125,-1.2544098370485367e-06,0.24397224731145645,-1.4193005166823126e-06,0.0,0.0,0.0,0.0,0.0,0.0,0.5398301703937258,-0.2804133455334437,-0.004522795895701037,0.46126403808593874,0.0,0.0,0.0,-0.0,-0.0,0.0,-0.0,-0.0,0.0
22/04/2022,12:51:30,68.891739,-0.04939703946001828,4.454232839867473,2.9377822875976562,2.9487380981445312,-1.0535969607872175e-07,0.02191377431154251,-0.004941345192492008,3.20084240001961e-07,2.4983103275299072,1.523546576499939,47.64150807908128,-122.14016499998728,124.9377670288086,-1.172884945799641e-06,0.18599323085867855,-1.3978180285370453e-06,0.0,0.0,0.0,0.0,0.0,0.0,0.5406575410261298,-0.2804369873569501,-0.00452317721543416,0.462217712402345,0.0,0.0,0.0,-0.0,-0.0,0.0,-0.0,-0.0,0.0
22/04/2022,12:51:30,69.075729,-0.049436758970841765,4.457812293432653,2.9368896484375,2.9487380981445312,-1.3797799169879e-07,0.016704164445400238,-0.004606704693287611,3.20084240001961e-07,2.4983103275299072,1.523546576499939,47.64150811159804,-122.14016499998759,124.9368667602539,-8.742498632033622e-07,0.1417886922258873,-1.4120850580629945e-06,0.0,0.0,0.0,0.0,0.0,0.0,0.5414302027264677,-0.28045499628320125,-0.004523467681987192,0.46311035156250124,0.0,0.0,0.0,-0.0,-0.0,0.0,-0.0,-0.0,0.0
22/04/2022,12:51:30,69.26173,-0.04946746036875993,4.460578053258359,2.9360504150390625,2.9487380981445312,-1.614113216419355e-07,0.012677253223955631,-0.004321181681007147,3.20084240001961e-07,2.4983103275299072,1.523546576499939,47.64150813592699,-122.14016499998796,124.93603515625,-5.708605996311108e-07,0.1076150115123025,-1.452322592461368e-06,0.0,0.0,0.0,0.0,0.0,0.0,0.542155406879224,-0.28046890029766064,-0.004523691940285346,0.46394958496093874,0.0,0.0,0.0,-0.0,-0.0,0.0,-0.0,-0.0,0.0
22/04/2022,12:51:30,69.451729,-0.04949014715384692,4.462620971724391,2.9352798461914062,2.9487380981445312,-1.747680329344803e-07,0.009705648757517338,-0.004091012291610241,3.20084240001961e-07,2.4983103275299072,1.523546576499939,47.641508154227445,-122.14016499998837,124.93526458740234,-2.771645270094103e-07,0.08239357455730842,-1.5240050875685299e-06,0.0,0.0,0.0,0.0,0.0,0.0,0.5428202708783229,-0.2804791611410987,-0.0045238574377606255,0.464720153808595,0.0,0.0,0.0,-0.0,-0.0,0.0,-0.0,-0.0,0.0
22/04/2022,12:51:30,69.63973,-0.049507765914313495,4.464206731878221,2.934539794921875,2.9487380981445312,-1.7893125914270058e-07,0.007398093584924936,-0.003897122573107481,3.20084240001961e-07,2.4983103275299072,1.523546576499939,47.64150816843725,-122.14016499998881,124.93452453613281,2.130399362452875e-08,0.06280670277909195,-1.6279072385899332e-06,0.0,0.0,0.0,0.0,0.0,0.0,0.5434580865261252,-0.2804871170876017,-0.004523985759478322,0.46546020507812624,0.0,0.0,0.0,-0.0,-0.0,0.0,-0.0,-0.0,0.0
22/04/2022,12:51:31,69.829728,-0.049521384411491454,4.465431614778936,2.9338150024414062,2.9487380981445312,-1.7343971592254093e-07,0.0056144967675209045,-0.0037348743062466383,3.20084240001961e-07,2.4983103275299072,1.523546576499939,47.64150817940646,-122.14016499998927,124.93380737304688,3.2456375764840903e-07,0.04766669559078637,-1.7533490556348162e-06,0.0,0.0,0.0,0.0,0.0,0.0,0.5440821485448766,-0.28049325316996643,-0.004524084728548594,0.466184997558595,0.0,0.0,0.0,-0.0,-0.0,0.0,-0.0,-0.0,0.0
22/04/2022,12:51:31,70.019729,-0.04953157901763916,4.466348106972873,2.933135986328125,2.9487380981445312,-1.5846612200220989e-07,0.004279586020857096,-0.003604218363761902,3.20084240001961e-07,2.4983103275299072,1.523546576499939,47.641508187617056,-122.14016499998966,124.93312072753906,6.230086767735622e-07,0.03633432214258167,-1.885089197900131e-06,0.0,0.0,0.0,0.0,0.0,0.0,0.5446664238224588,-0.2804978395028643,-0.004524158701658898,0.46686401367187624,0.0,0.0,0.0,-0.0,-0.0,0.0,-0.0,-0.0,0.0
22/04/2022,12:51:31,70.201732,-0.04953946964815259,4.467057190835476,2.932464599609375,2.9487380981445312,-1.3352612882044923e-07,0.0032477930653840303,-0.003495690645650029,3.20084240001961e-07,2.4983103275299072,1.523546576499939,47.64150819397126,-122.14016499999005,124.93244934082031,9.262571836189695e-07,0.02757542908515547,-2.0338706899796156e-06,0.0,0.0,0.0,0.0,0.0,0.0,0.5452438408776019,-0.28050138478655423,-0.004524215883654037,0.46753540039062624,0.0,0.0,0.0,-0.0,-0.0,0.0,-0.0,-0.0,0.0
22/04/2022,12:51:31,70.39373,-0.0495454577030614,4.4675950687378645,2.9318084716796875,2.9487380981445312,-9.878240092575652e-08,0.002464755903929472,-0.0034072301350533962,3.20084240001961e-07,2.4983103275299072,1.523546576499939,47.64150819879145,-122.14016499999033,124.93180084228516,1.229504864818673e-06,0.020927138125760494,-2.1874970211864738e-06,0.0,0.0,1.0,0.0,0.0,1.0,0.5458079426233907,-0.28050407148275147,-0.004524259217464355,0.46819152832031374,0.0,0.0,1.0,-0.0,-0.0,0.0,-0.0,-0.0,0.0
22/04/2022,12:51:31,70.582243,-0.04954971594270319,4.467977663502097,2.9976730346679688,2.9976730346679688,-9.672437073504625e-08,0.0016285066958516836,0.8951408863067627,3.20084240001961e-07,2.4983103275299072,1.523546576499939,47.64150820216559,-122.14016499999053,124.99767303466797,-9.617024503874695e-05,0.014669737331196569,-0.36629620567220345,0.0,0.0,5.0,-0.4755961706494367,-0.007670905978217059,2.647170053058004,0.490480441083506,-0.2805059836289672,-0.004524290058531832,0.4023269653320325,0.0,0.0,5.0,-0.0,-0.0,0.0,-0.4755961706494367,-0.007670905978217059,-2.352829946941996
22/04/2022,12:51:32,70.770245,-0.049552527838386595,4.468227418139577,3.24420166015625,3.24420166015625,-4.430871740623843e-07,0.0011006074491888285,1.8571659326553345,3.20084240001961e-07,2.4983103275299072,1.8571659326553345,47.64150820444214,-122.14016499999111,125.24974822998047,-0.00025811386937316127,0.007633525567997696,-1.8667907196085,0.0,0.0,0.0,-0.34843057183842885,-0.005619847932877571,-4.41966878304912,0.3209016690038464,-0.28050719971752813,-0.004524309672863325,0.15579833984375124,0.0,0.0,0.0,-0.0,-0.0,0.0,-0.34843057183842885,-0.005619847932877571,-4.41966878304912
22/04/2022,12:51:32,70.957243,-0.049554628203623,4.468407673761249,3.5606460571289062,3.5606460571289062,-5.872200858902943e-07,0.0009438450797460973,1.2822237014770508,3.20084240001961e-07,2.4983103275299072,1.8571659326553345,47.64150820606082,-122.14016499999246,125.56451416015625,-0.0004921631568310022,0.0075308116573729895,-3.727395873098017,0.0,0.0,0.0,-0.2767177559814094,-0.0044631896126034395,-2.68799131139418,0.3232837250349349,-0.2805080064911497,-0.004524322685341531,-0.160646057128905,0.0,0.0,0.0,-0.0,-0.0,-0.0,-0.2767177559814094,-0.0044631896126034395,-2.68799131139418
22/04/2022,12:51:32,71.145249,-0.04955662973225117,4.468578157946467,3.71783447265625,3.71783447265625,-5.641509801534994e-07,0.0008262869669124484,0.3319759666919708,3.20084240001961e-07,2.4983103275299072,1.8571659326553345,47.64150820756876,-122.14016499999391,125.71783447265625,-0.0005425974196704931,0.006683306754538153,-4.670108897784575,0.0,0.0,0.0,-0.5579894230187097,-0.00899982940352937,-1.9527967917842899,0.4239391264933657,-0.2805087545128498,-0.004524334750207082,-0.31783447265624876,0.0,0.0,0.0,-0.0,-0.0,-0.0,-0.5579894230187097,-0.00899982940352937,-1.9527967917842899
22/04/2022,12:51:32,71.334245,-0.04955826874356717,4.468717151321471,3.7313156127929688,3.7313156127929688,-4.7255971935555863e-07,0.0006750828470103443,-0.02772509679198265,3.20084240001961e-07,2.4983103275299072,1.8571659326553345,47.64150820883895,-122.14016499999522,125.73123168945312,-0.0004840916397679132,0.005446814481115369,-5.089830035550522,0.0,0.0,0.0,0.0,0.0,0.0,0.4341382319435739,-0.2805093571733833,-0.0045243444705382885,-0.3313156127929675,0.0,0.0,0.0,-0.0,-0.0,-0.0,-0.0,-0.0,-0.0
22/04/2022,12:51:32,71.519242,-0.049559579347260296,4.468828271143138,3.7253875732421875,3.7313156127929688,-3.655076454833761e-07,0.0005198104772716761,-0.03116724267601967,3.20084240001961e-07,2.4983103275299072,1.8571659326553345,47.641508209832296,-122.14016499999626,125.72529602050781,-0.00039486918760060975,0.00428168052618896,-5.292151263043301,-2.452645614374835,4.794218339863955,0.0,-2.452645614374835,4.794218339863955,0.0,0.4296316005496877,-0.28050983869961144,-0.004524352237091023,-0.32538757324218626,-2.452645614374835,4.794218339863955,0.0,-0.0,-0.0,-0.0,-0.0,-0.0,-0.0
22/04/2022,12:51:33,71.709243,-0.05961260828189552,4.48434429243207,3.7485809326171875,3.7485809326171875,-0.20912587642669678,0.3540501594543457,0.5296082496643066,3.20084240001961e-07,2.4983103275299072,1.8571659326553345,47.641508359763144,-122.14016513974364,125.7501449584961,-8.108197553343313,-18.535276961656002,-4.011389531628842,-2.344874192853159,4.84784127418496,0.0,-2.114113077303995,4.8515632276615595,-2.3884428850181387,0.4413744760565127,-0.2707096176580447,-0.004366284155775446,-0.34858093261718626,-2.344874192853159,4.84784127418496,0.0,-0.0,-0.0,-0.0,0.23076111554916415,0.0037219534765991196,-2.3884428850181387
22/04/2022,12:51:33,71.901243,-0.14783127314876765,4.642201870679855,3.92620849609375,3.92620849609375,-0.7476260662078857,1.4388211965560913,1.3904398679733276,3.20084240001961e-07,2.4983103275299072,1.8571659326553345,47.64150981794355,-122.14016631233585,125.93035888671875,-9.44669549469979,-24.533838017627374,-3.2392228616726317,-2.2793295959016153,4.879001597995944,0.0,-0.7351460451244125,4.9039077842987995,-4.042062298022046,0.557809325912465,-0.18505932431684996,-0.002984827811562951,-0.5262084960937488,-2.2793295959016153,4.879001597995944,0.0,-0.0,-0.0,-0.0,1.5441835507772028,0.024906186302855283,-4.042062298022046
22/04/2022,12:51:33,72.081244,-0.32588130282238126,4.984707263298333,4.217735290527344,4.217735290527344,-1.1375435590744019,2.2994601726531982,1.5961557626724243,3.20084240001961e-07,2.4983103275299072,1.8571659326553345,47.641512940462064,-122.1401686476938,126.2225341796875,-7.999706166923146,-22.913585341071563,-3.6264210284125595,-2.3122490191149,4.8634868637225885,-5.0,2.9409796151900056,4.948216357824279,-14.628885942571085,0.8178320511084042,-0.012578445325165943,-0.00020287815040642698,-0.8177352905273425,-2.3122490191149,4.8634868637225885,-5.0,-0.0,-0.0,-0.0,5.2532286343049055,0.08472949410169045,-9.628885942571085
22/04/2022,12:51:33,72.258243,-0.5553143247961998,5.438884739764035,4.4384918212890625,4.4384918212890625,-1.301453948020935,2.678138017654419,0.664563000202179,3.20084240001961e-07,2.678138017654419,1.8571659326553345,47.64151705971849,-122.14017164147785,126.44051361083984,-9.750191334799444,-27.81977001960956,-2.851825417224944,-2.246289055803277,4.894301326826785,0.0,1.2995481781890854,4.9514922499556935,-3.417389360490036,1.0594125408497357,0.20947136817977163,0.003378570454511731,-1.0384918212890613,-2.246289055803277,4.894301326826785,0.0,0.08240858399919333,0.0013291707096641276,-0.40855531345805807,3.463428649993169,0.055861752419243994,-3.008834047031978
22/04/2022,12:51:33,72.433246,-0.8037209756439552,5.940926775336266,4.51446533203125,4.51446533203125,-1.53765070438385,3.245896577835083,0.2845299243927002,3.20084240001961e-07,3.245896577835083,1.8571659326553345,47.64152161652795,-122.14017488362833,126.51533508300781,-6.059456396052775,-19.048278848720372,-4.221970534913309,-2.2890551207176717,3.841904040227476,0.0,2.789761198352683,3.923820432470545,-2.834187213316305,1.201803615499202,0.4497180676994838,0.007253517220958905,-1.1144653320312488,-2.2890551207176717,3.841904040227476,0.0,0.168071430376,0.0027108295221933577,-0.41650490810194046,4.910744888694355,0.07920556272087567,-2.4176823052143646
22/04/2022,12:51:33,72.615247,-1.1042512845015153,6.556896316818893,4.509368896484375,4.51446533203125,-1.6708619594573975,3.5119168758392334,-0.27031242847442627,3.20084240001961e-07,3.5119168758392334,1.8571659326553345,47.641527195449655,-122.14017879873967,126.5085678100586,-4.448935369533999,-8.265027362683124,-5.289610528481663,-2.268052954893636,2.802844232881707,0.0,4.479543239203604,2.9116764295606945,-1.3210577459805393,1.333714326984471,0.740237806497023,0.011939319459629338,-1.1093688964843738,-2.268052954893636,2.802844232881707,0.0,0.26109302878939183,0.004211177883699846,-0.39129112656179277,6.486503165307848,0.10462101879528721,-0.9297666194187464
22/04/2022,12:51:34,72.809243,-1.4405282920924947,7.227307794615626,4.445159912109375,4.51446533203125,-1.8063011169433594,3.5878217220306396,-0.33061859011650085,3.20084240001961e-07,3.5878217220306396,1.8571659326553345,47.64153326262102,-122.14018318176562,126.44416046142578,-3.890863955521948,0.661136031578313,-5.984469661813565,-2.5103948275359906,4.7642331817282555,0.0,8.866521559157459,4.947731833126535,-1.2692223721123947,1.4927137730469924,1.0656170797236362,0.017187372253606448,-1.0451599121093738,-2.5103948275359906,4.7642331817282555,0.0,0.347620209597247,0.0056067775741489535,-0.3409467759322384,11.029296177096201,0.17789187382413027,-0.9282755961801563
22/04/2022,12:51:34,72.995244,-1.7952585188904777,7.887476873584092,4.3930816650390625,4.51446533203125,-1.9304817914962769,3.6041147708892822,-0.1994934380054474,3.20084240001961e-07,3.6041147708892822,1.8571659326553345,47.64153923777857,-122.1401878115002,126.3924789428711,-3.4070228691840256,-4.550716032560845,-5.6771470470345236,-2.385881629674828,3.782534712224091,0.0,16.598114778472056,4.088728202678066,-2.428357427875,1.7244501318999048,1.4096099298966926,0.022735644030591473,-0.9930816650390613,-2.385881629674828,3.782534712224091,0.0,0.4070026633754711,0.006564559086701047,-0.28673668796435575,18.576993744771414,0.2996289313672741,-2.1416207399106444
22/04/2022,12:51:34,73.183243,-2.1661548046395183,8.551868684589863,4.356964111328125,4.51446533203125,-2.033512592315674,3.7000794410705566,-0.20790131390094757,3.20084240001961e-07,3.7000794410705566,1.8571659326553345,47.64154525474128,-122.1401926549827,126.35633850097656,-2.7214891503633774,-2.489119020874119,-5.792046203597913,-2.292544016544676,2.782847809745478,-1.0,26.72790287423056,3.2509195337902366,-3.943517727334182,2.0120688104993043,1.7696965437164465,0.028543492640588752,-0.9569641113281238,-2.292544016544676,2.782847809745478,-1.0,0.4397705378341677,0.0070930731908738975,-0.23780609360459712,28.58067635294107,0.4609786508538844,-2.7057116337295852
22/04/2022,12:51:34,73.362247,-2.5512443371117115,9.224378583021462,4.272956848144531,4.51446533203125,-2.078298330307007,3.685370683670044,-0.8861237168312073,3.20084240001961e-07,3.7000794410705566,1.8571659326553345,47.64155124385737,-122.1401976007675,126.27295684814453,-2.3636296970326525,2.8292219413252275,-6.032212218449984,-2.304188671098674,2.773213761681657,-5.0,38.51650694495868,3.431612078069676,0.682074872077334,2.3150177126495626,2.1438418100676433,0.0345780937107687,-0.87295684814453,-2.304188671098674,2.773213761681657,-5.0,0.46592421074447166,0.0075149066249108895,-0.1897209619551586,40.35477140531288,0.6508834097631082,5.8717958340324925
22/04/2022,12:51:34,73.545245,-2.935537477605976,9.875124000944197,4.042350769042969,4.51446533203125,-2.106400489807129,3.5908362865448,-1.698350429534912,3.20084240001961e-07,3.7000794410705566,1.8571659326553345,47.6415572335855,-122.14020270471948,126.03727722167969,-2.7327157266853144,5.926635819806985,-6.170288865996453,-2.310865119743844,2.767652868108873,0.0,64.0889980364818,3.838618402886695,27.314743938586055,2.5985150058751096,2.517541840275379,0.04060551355282627,-0.6423507690429675,-2.310865119743844,2.767652868108873,0.0,0.5051912564055376,0.008148246071056572,-0.128899542750155,65.89467189982011,1.0628172887067655,27.44364348133621
22/04/2022,12:51:35,73.728244,-3.334331890568137,10.50524937082082,3.7683639526367188,4.51446533203125,-2.1754214763641357,3.325456380844116,-0.9228024482727051,3.20084240001961e-07,3.7000794410705566,1.8571659326553345,47.641562935326284,-122.14020792326133,125.76556396484375,-1.7610552008501406,4.4662062284363095,-6.115200191133502,-2.414730871454952,3.76418315421054,0.0,73.51823527697489,4.988908414669087,15.499565263706756,2.9297001025070504,2.906071866411711,0.046872126877607556,-0.3683639526367175,-2.414730871454952,3.76418315421054,0.0,0.5756772835743867,0.009285117477006104,-0.07297092755055311,75.35728886485546,1.2154401429815405,15.57253619125731
22/04/2022,12:51:35,73.902243,-3.7236665514064953,11.064744799397886,3.6763229370117188,4.51446533203125,-2.2191712856292725,3.2090518474578857,-0.30902862548828125,3.20084240001961e-07,3.7000794410705566,1.8571659326553345,47.64156791812192,-122.14021293656545,125.67632293701172,-1.2012596014595591,-0.579126422013782,-5.985566809479104,-2.5104860566105742,4.764185109708048,0.0,89.7634655582748,6.252474651883587,4.045879278529371,3.298306091468401,3.28628349702052,0.05300457253258806,-0.2763229370117175,-2.5104860566105742,4.764185109708048,0.0,0.7162220681459381,0.011551968841063307,-0.060222614878516774,91.55772954673944,1.4767375733344756,4.106101893407888
22/04/2022,12:51:35,74.091776,-4.147437238250859,11.662646003067493,3.6375961303710938,4.51446533203125,-2.262962579727173,3.3257460594177246,-0.0912666991353035,3.20084240001961e-07,3.7000794410705566,1.8571659326553345,47.64157342914521,-122.14021858010891,125.63731384277344,-0.8487132104470182,-6.78019013744305,-5.8698117183358445,-2.2963189636812738,2.779733659370581,0.0,115.73870581098865,4.683524381542654,-0.857849989261554,3.708403366631327,3.700302910701201,0.05968230501130911,-0.2375961303710925,-2.2963189636812738,2.779733659370581,0.0,0.9964404517931443,0.01607162019021185,-0.06398135536596124,117.03858432287677,1.8877191019818604,-0.7938686338955927
22/04/2022,12:51:35,74.265778,-4.557866441784427,12.257510944269598,3.608978271484375,4.51446533203125,-2.2890286445617676,3.422137975692749,-0.205923929810524,3.20084240001961e-07,3.7000794410705566,1.8571659326553345,47.64157882458791,-122.14022395705189,125.60835266113281,-0.6184027330358194,-0.251074790435316,-5.947885125627835,-1.0982403873127151,0.8909927337948483,0.0,144.64060333442626,3.2416192454358113,3.3439625128509194,4.106887027186162,4.101033270136442,0.06614569790542468,-0.20897827148437376,-1.0982403873127151,0.8909927337948483,0.0,1.4331957278851264,0.023116060127178827,-0.07303202539058112,144.30564799385385,2.327510451513784,3.4169945382415006
22/04/2022,12:51:35,74.452778,-4.980485475389287,12.866001336835325,3.597381591796875,4.51446533203125,-2.2036075592041016,3.195849895477295,0.2208230197429657,3.20084240001961e-07,3.7000794410705566,1.8571659326553345,47.64158424894497,-122.14022940165063,125.59738159179688,3.5129644308165027,10.722451866042512,-5.739453989108691,0.0,0.0,0.0,164.22643849282696,2.6488135240777995,-11.842716627499302,4.518630699518061,4.513730581147628,0.07280210614754168,-0.19738159179687376,0.0,0.0,0.0,2.095418743128922,0.03379707650207906,-0.09163087596039748,162.13101974969803,2.6150164475757203,-11.751085751538904
22/04/2022,12:51:35,74.630827,-5.352950755273923,13.380529181100428,3.6909637451171875,4.51446533203125,-1.8734793663024902,2.5992302894592285,0.8934776782989502,3.20084240001961e-07,3.7000794410705566,1.8571659326553345,47.64158898536917,-122.14023435908884,125.69363403320312,8.562420902452756,17.07005374220374,-5.153375462112265,0.0,0.0,-5.0,157.41095428555028,2.5388863594443447,-42.76796881440548,4.887105988384322,4.877802313145574,0.07867423085718528,-0.29096374511718626,0.0,0.0,-5.0,2.9009796536936676,0.04678999441441316,-0.17304512367643313,154.5099746318566,2.4920963650299317,-37.59492369072905
22/04/2022,12:51:36,74.810825,-5.671263134805486,13.806875930167735,3.814544677734375,4.51446533203125,-1.6232256889343262,2.2157692909240723,0.23605284094810486,3.20084240001961e-07,3.7000794410705566,1.8571659326553345,47.64159284245995,-122.14023852351826,125.81526947021484,13.422780011065706,24.051680289207308,-3.4055258201150864,0.0,0.0,0.0,137.2832533704982,2.2142460221047466,-14.455449362857356,5.206361886350769,5.189157134596069,0.08369608281606489,-0.41454467773437376,0.0,0.0,0.0,3.7838372091576513,0.06102963240576803,-0.30227829602845324,133.49941616134055,2.1532163896989784,-14.153171066828904
22/04/2022,12:51:36,74.975825,-5.91097344388254,14.121116137132049,3.8421783447265625,4.51446533203125,-1.2015401124954224,1.5807297229766846,0.26511135697364807,3.20084240001961e-07,3.7000794410705566,1.8571659326553345,47.64159567643248,-122.14024165136513,125.84297943115234,9.896582657583249,17.63015545454813,-4.125935572721629,0.0,0.0,0.0,105.68703464230235,1.7046295910048341,-13.018972104990999,5.442435904414504,5.423738028031806,0.08747964561341526,-0.44217834472656126,0.0,0.0,0.0,4.563679283616409,0.073607730380909,-0.3720607708305355,101.12335535868594,1.631021860623925,-12.646911334160464
22/04/2022,12:51:36,75.149819,-6.100487251766026,14.360884763300419,3.8671493530273438,4.51446533203125,-0.9492558240890503,1.216342806816101,0.014500721357762814,3.20084240001961e-07,3.7000794410705566,1.8571659326553345,47.641597842613066,-122.14024412868069,125.86719512939453,7.090622467521918,11.977969549810956,-4.666834063225332,0.0,0.0,0.0,90.0982329640992,1.453197305872548,-6.074387833491485,5.629482021798685,5.609336317415859,0.0904731664099323,-0.4671493530273425,0.0,0.0,0.0,5.262268164919625,0.08487529298257374,-0.4382452806522165,84.83596479917956,1.3683220128899742,-5.636142552839269
22/04/2022,12:51:36,75.331825,-6.257565461099148,14.55527560878545,3.855743408203125,4.51446533203125,-0.7418625354766846,0.9336148500442505,-0.120869942009449,3.20084240001961e-07,3.7000794410705566,1.8571659326553345,47.641599574312025,-122.14024615299579,125.85574340820312,5.3416839125622895,8.568722867266901,-4.890736600477721,0.0,0.0,-2.0,79.49046234135328,1.282104231312134,-4.648397180613555,5.78197788931598,5.7632391533733225,0.09295547021569739,-0.45574340820312376,0.0,0.0,-2.0,5.8903458852828585,0.09500557879488342,-0.4657947098521463,73.60011645607042,1.1870986525172507,-2.1826024707614096
22/04/2022,12:51:36,75.512818,-6.380458769039251,14.70541871059686,3.7852096557617188,4.51446533203125,-0.6363608241081238,0.7954650521278381,-0.8232052326202393,3.20084240001961e-07,3.7000794410705566,1.8571659326553345,47.641600937370605,-122.14024776680975,125.78520965576172,5.0644268491559,7.379719327787523,-3.2191006837219645,0.0,0.0,0.0,79.7772422005157,1.2867297129115522,12.55873661233732,5.897039611762771,5.883679466353674,0.09489805590892963,-0.3852096557617175,0.0,0.0,0.0,6.403860672185418,0.10328807535782869,-0.4192663756048097,73.37338152833028,1.1834416375537236,12.97800298794213
22/04/2022,12:51:36,75.688818,-6.479623353108764,14.82577833160758,3.6623458862304688,4.51446533203125,-0.4589281678199768,0.5689399242401123,-0.41880056262016296,3.20084240001961e-07,3.7000794410705566,1.8571659326553345,47.641602030107705,-122.1402490691393,125.66234588623047,3.992602596421284,4.951110429338065,0.5606532414264576,0.0,0.0,0.0,68.11690197833133,1.0986597093279262,4.824370153066523,5.9874056523323995,5.98087748056968,0.0964657658156387,-0.2623458862304675,0.0,0.0,0.0,6.83227978889402,0.11019806111119239,-0.2996918933743456,61.284622189437314,0.9884616482167339,5.124062046440868
22/04/2022,12:51:37,75.86982,-6.551999504095875,14.913070960901678,3.5974884033203125,4.51446533203125,-0.34994637966156006,0.4323700964450836,-0.3333151340484619,3.20084240001961e-07,3.7000794410705566,1.8571659326553345,47.64160282267721,-122.14025001973773,125.59748840332031,3.0908253389576146,3.464232535822246,3.009677754069578,0.0,0.0,0.0,63.271835195482005,1.020513470894855,3.672724294886076,6.055835384962677,6.051827228652442,0.09761011659116647,-0.19748840332031126,0.0,0.0,0.0,7.167021607977196,0.1155971227093073,-0.2338803803288273,56.10481358750481,0.9049163481855477,3.9066046752149033
22/04/2022,12:51:37,76.058829,-6.609291670145467,14.982012011110783,3.5406875610351562,4.51446533203125,-0.2680651545524597,0.3307596445083618,-0.28631284832954407,3.20084240001961e-07,3.7000794410705566,1.8571659326553345,47.6416034486375,-122.14025077224449,125.54068756103516,2.3855975960965945,2.5440503262131524,4.243298597247276,0.0,0.0,0.0,60.03835495952106,0.9683605638632233,3.2534942830399642,6.110407091083853,6.1079928310403915,0.09851601340387361,-0.140687561035155,0.0,0.0,0.0,7.441774837382183,0.1200286264093856,-0.17140903413040748,52.596580122138874,0.8483319374538377,3.4249033171703718
22/04/2022,12:51:37,76.241826,-6.653251260286197,15.034869944676757,3.4922561645507812,4.51446533203125,-0.20596402883529663,0.25401583313941956,-0.2422437071800232,3.20084240001961e-07,3.7000794410705566,1.8571659326553345,47.641603935424556,-122.14025135789598,125.49152374267578,1.8471736810180526,1.9245814960836147,4.828389132000321,2.989353827735112,-0.25251473740246616,0.0,60.68942858473314,0.6781316296458773,2.8795756632750384,6.152580416360427,6.151088662671048,0.099211107462434,-0.09225616455078,2.989353827735112,-0.25251473740246616,0.0,7.6588207510085535,0.12352936695174804,-0.11486965417324212,50.04125400598948,0.8071170000965954,2.9944453174482804
22/04/2022,12:51:37,76.421829,-6.675290171406232,15.074356596916914,3.4789505004882812,4.51446533203125,0.09818259626626968,0.15853548049926758,0.3016583025455475,0.09818259626626968,3.7000794410705566,1.8571659326553345,47.641604290320934,-122.14025163345539,125.4798355102539,13.168913513098397,1.4183286954143801,5.0689152313206804,4.980445733912058,-0.4417695004832101,0.0,47.277705737144196,0.2404443705366529,-4.044617543758515,6.17379277695767,6.172485126105776,0.0995562117113824,-0.07895050048828,4.980445733912058,-0.4417695004832101,0.0,7.769329022272457,0.12531175842374795,-0.0993752762841438,34.52793098095968,0.5569021125961151,-3.945242267474371
22/04/2022,12:51:37,76.60983,-6.592031555250287,15.093484587036073,3.5934982299804688,4.51446533203125,0.9661800861358643,0.02579978108406067,1.0582195520401,0.9661800861358643,3.7000794410705566,1.8571659326553345,47.64160445053463,-122.14025048775436,125.59664916992188,23.582690620699914,1.0743791477006992,5.112727936028844,0.0,0.0,0.0,18.678882055267707,0.30127229121399135,-6.529239898613633,6.092805062158597,6.0889397279547115,0.09820870528958991,-0.1934982299804675,0.0,0.0,0.0,7.351212923958741,0.11856795038642863,-0.23361155678139,11.327669131308966,0.18270434082756273,-6.295628341832243
22/04/2022,12:51:38,76.80183,-6.351952129742131,15.093355299904943,3.76812744140625,4.51446533203125,1.3894683122634888,-0.03377830609679222,0.4757932424545288,1.3894683122634888,3.7000794410705566,1.8571659326553345,47.641604424690264,-122.14024733005702,125.76812744140625,4.751002864140962,0.8183472307913957,5.115873859091127,0.0,0.0,-1.0,9.654754493314874,0.15572184666636296,-2.8584382995300297,5.861257459221486,5.8489248265629765,0.09433749720262341,-0.36812744140624876,0.0,0.0,-1.0,6.24370308864459,0.10070488852652007,-0.392974522853235,3.411051404670284,0.05501695813984288,-1.4654637766767944
22/04/2022,12:51:38,76.979829,-6.096445712377317,15.088867659680545,3.7763214111328125,4.51446533203125,1.3716171979904175,-0.04400887340307236,-0.4137231707572937,1.3894683122634888,3.7000794410705566,1.8571659326553345,47.64160435763987,-122.14024387447805,125.77510833740234,-5.095180056396889,0.6819956512460378,5.14777225937144,0.0,0.0,-5.0,7.995293422389147,0.12895634552240437,-4.903296777325126,5.606927823860631,5.593557223271317,0.09021866489147357,-0.37632141113281126,0.0,0.0,-5.0,5.180204706378184,0.08355168881255202,-0.3485120232525261,2.8150887160109628,0.04540465670985236,0.4452152459274005
22/04/2022,12:51:38,77.16583,-5.854862695094198,15.083407467231154,3.6230697631835938,4.51446533203125,1.2450355291366577,-0.04407791420817375,-1.283804178237915,1.3894683122634888,3.7000794410705566,1.8571659326553345,47.64160428440113,-122.14024066432364,125.6192398071289,-9.912921199774578,0.7544002617062165,5.151440779240741,0.0,0.0,0.0,8.12104968200747,0.13098467229043748,2.965457705875096,5.357467213116872,5.352125081137521,0.08632459808286086,-0.2230697631835925,0.0,0.0,0.0,4.280461350284263,0.06903969919813137,-0.1784041824974488,3.8405883317232083,0.06194497309230612,3.1438618883725447
22/04/2022,12:51:38,77.347828,-5.656215165159665,15.078112593851984,3.420623779296875,4.51446533203125,0.8454405665397644,-0.03493211418390274,-0.5417574048042297,1.3894683122634888,3.7000794410705566,1.8571659326553345,47.64160421719369,-122.14023803660059,125.41897583007812,-7.297471062936688,0.45294224749797507,5.206607630773932,0.0,0.0,0.0,8.0752912954214,0.13024663379711457,1.34686454200431,5.154326156409041,5.153614594032492,0.08312281603278038,-0.020623779296873757,0.0,0.0,0.0,3.6379807824670296,0.05867710939462828,-0.014558502847835402,4.43731051295437,0.07156952440248629,1.3614230448521454
22/04/2022,12:51:38,77.535828,-5.521941720158793,15.073858817107975,3.355316162109375,4.51446533203125,0.6154065132141113,-0.027223413810133934,-0.27755266427993774,1.3894683122634888,3.7000794410705566,1.8571659326553345,47.64160416573598,-122.1402362590127,125.35447692871094,-5.208085028449517,0.2792408570072701,5.230673361192267,0.0,0.0,-5.0,8.787049795357959,0.14172660960253958,-4.095448835397423,5.020296374291336,5.019444662062343,0.08095878487197083,0.04468383789062624,0.0,0.0,-5.0,3.2546195430278937,0.05249386359722251,0.028973103968152922,5.532430252330066,0.08923274600531708,0.8755780606344232
22/04/2022,12:51:39,77.720828,-5.42221177846659,15.070520828478038,3.2608261108398438,4.51446533203125,0.5159863829612732,-0.023236824199557304,-0.9520546197891235,1.3894683122634888,3.7000794410705566,1.8571659326553345,47.64160412587246,-122.14023493588468,125.25799560546875,-5.798349718794466,0.2890854103831512,5.232097149957385,0.0,0.0,0.0,11.275044896999788,0.1818555628548329,4.435606941197035,4.922402237263622,4.91979448246032,0.07935152391064904,0.1391738891601575,0.0,0.0,0.0,2.9942714629147718,0.0482947010147536,0.08470362048268427,8.280773434085015,0.1335608618400793,4.350903320714351
22/04/2022,12:51:39,77.902827,-5.344211382325739,15.067838189192116,3.1106338500976562,4.51446533203125,0.3290579915046692,-0.015295186080038548,-0.5121967196464539,1.3894683122634888,3.7000794410705566,1.8571659326553345,47.64160409417706,-122.14023390538864,125.10909271240234,-3.5679003946909433,0.17116440646289643,5.24328784791906,0.0,0.0,0.0,11.678879843059125,0.18836902972674807,2.951880802152008,4.851125314996598,4.8418576296307485,0.07809447789726676,0.289366149902345,0.0,0.0,0.0,2.812272789231721,0.04535923853599354,0.1680711437104301,8.866607053827405,0.14300979119075455,2.783809658441578
22/04/2022,12:51:39,78.077828,-5.293811047100462,15.06604263652116,3.0309066772460938,4.51446533203125,0.23531296849250793,-0.01111362874507904,-0.3939049243927002,1.3894683122634888,3.7000794410705566,1.8571659326553345,47.641604073098875,-122.14023323849047,125.02972412109375,-2.2281102245159246,0.10269464495351288,5.247757048454387,0.0,0.0,0.0,12.429924195216483,0.20048264830993695,2.812526082846916,4.8063154806666954,4.79149935541999,0.07728224766806235,0.3690933227539075,0.0,0.0,0.0,2.701733323631893,0.04357634392954553,0.20811684519716403,9.72819087158459,0.15690630438039144,2.604409237649752
22/04/2022,12:51:39,78.267829,-5.25637629290577,15.0646897489205,2.96502685546875,4.51446533203125,0.17488671839237213,-0.008321326225996017,-0.32597726583480835,1.3894683122634888,3.7000794410705566,1.8571659326553345,47.64160405727069,-122.14023274276884,124.96404266357422,-1.529780548374847,0.0687382952391818,5.249414764175361,0.0,0.0,-5.0,12.980727079071896,0.2093665657914856,-2.204323275866523,4.774569250310267,4.754096152274827,0.07667897019797998,0.43497314453125124,0.0,0.0,-5.0,2.6246257588197217,0.04233267352934974,0.24013854220959793,10.356101320252174,0.16703389226213586,2.555538181923879
22/04/2022,12:51:39,78.446827,-5.227275753975846,15.063631056807935,2.8589553833007812,4.51446533203125,0.1448732614517212,-0.006905358284711838,-1.0070980787277222,1.3894683122634888,3.7000794410705566,1.8571659326553345,47.6416040450641,-122.14023236254734,124.85895538330078,-1.662264181859772,0.07369972851965848,5.249551251610315,0.0,0.0,-1.0,17.893397256286164,0.28860318155299536,8.11839822032306,4.75650645255344,4.725020252993774,0.0762100040805418,0.54104461669922,0.0,0.0,-1.0,2.577309505131471,0.041569508147280186,0.2951181918078755,15.316087751154692,0.2470336734057152,8.823280028515185
22/04/2022,12:51:39,78.63983,-5.202896878472529,15.062742997892201,2.608123779296875,4.51446533203125,0.11365718394517899,-0.005427921190857887,-1.5143792629241943,1.3894683122634888,3.7000794410705566,1.8571659326553345,47.64160403449894,-122.14023203358407,124.60357666015625,-1.0845897772742872,0.04805798794033089,5.250309530326399,0.0,0.0,-3.0,26.750504123800916,0.4314597439322624,18.07529870348011,4.767498272552505,4.700662037705874,0.07581712964041465,0.7918762207031262,0.0,0.0,-3.0,2.582914745218032,0.04165991524545066,0.4351192981829113,24.167589378582885,0.38979982868681173,20.6401794052972
