date,fly_time,fly_time_s,x,y,z,z_max,vx,vy,vz,vx_max,vy_max,vz_max,latitude,longitude,altitude,pitch,roll,yaw,cx,cy,cz,scx,scy,scz,d,dx,dy,dz,gc_pow_x,gc_pow_y,gc_pow_z,gpc_pow_x,gpc_pow_y,gpc_pow_z,gfc_pow_x,gfc_pow_y,gfc_pow_z
21/04/2022,17:20:14,29.072912,0.0,0.0,0.13928985595703125,0.13928985595703125,0.0,0.0,-0.0,0,0,0,47.641468,-122.140165,122.13928985595703,0.0,0.0,0.0,0,0,0,0,0,0,0,0,0,0,0,0,0,0,0,0,0,0,0
21/04/2022,17:20:18,32.65491,0.0,0.0,1.6776351928710938,1.6776351928710938,0.0,0.0,-0.01903216354548931,0,0,0,47.641468,-122.140165,123.6776351928711,0.0,0.0,0.0,0,0,0,0,0,0,0,0,0,0,0,0,0,0,0,0,0,0,0
21/04/2022,17:20:18,32.809911,0.0,0.0,1.6729812622070312,1.6776351928710938,0.0,0.0,-0.03342888131737709,0,0,0,47.641468,-122.140165,123.67288208007812,0.0,0.0,0.0,0,0,0,0,0,0,0,0,0,0,0,0,0,0,0,0,0,0,0
21/04/2022,17:20:18,32.95791,0.0,0.0,1.6683197021484375,1.6776351928710938,0.0,0.0,-0.02961129881441593,0,0,0,47.641468,-122.140165,123.66822814941406,0.0,0.0,0.0,0,0,0,0,0,0,0,0,0,0,0,0,0,0,0,0,0,0,0
21/04/2022,17:20:18,33.112913,0.0,0.0,1.6640167236328125,1.6776351928710938,0.0,0.0,-0.02544677071273327,0,0,0,47.641468,-122.140165,123.66401672363281,0.0,0.0,0.0,0,0,0,0,0,0,0,0,0,0,0,0,0,0,0,0,0,0,0
21/04/2022,17:20:18,33.26691,0.0,0.0,1.6603927612304688,1.6776351928710938,0.0,0.0,-0.021968195214867592,0,0,0,47.641468,-122.140165,123.66039276123047,0.0,0.0,0.0,0,0,0,0,0,0,0,0,0,0,0,0,0,0,0,0,0,0,0
21/04/2022,17:20:18,33.421908,0.0,0.0,1.6573104858398438,1.6776351928710938,0.0,0.0,-0.019081182777881622,0,0,0,47.641468,-122.140165,123.6572494506836,0.0,0.0,0.0,0,0,0,0,0,0,0,0,0,0,0,0,0,0,0,0,0,0,0
21/04/2022,17:20:19,33.571909,0.0,0.0,1.6545257568359375,1.6776351928710938,0.0,0.0,-0.01654406264424324,0,0,0,47.641468,-122.140165,123.65452575683594,0.0,0.0,0.0,0,0,0,0,0,0,0,0,0,0,0,0,0,0,0,0,0,0,0
21/04/2022,17:20:19,33.723913,0.0,0.0,1.6521987915039062,1.6776351928710938,0.0,0.0,-0.014483402483165264,0,0,0,47.641468,-122.140165,123.65215301513672,0.0,0.0,0.0,0,0,0,0,0,0,0,0,0,0,0,0,0,0,0,0,0,0,0
21/04/2022,17:20:19,33.879912,0.0,0.0,1.6500778198242188,1.6776351928710938,0.0,0.0,-0.012672649696469307,0,0,0,47.641468,-122.140165,123.65003967285156,0.0,0.0,0.0,0,0,0,0,0,0,0,0,0,0,0,0,0,0,0,0,0,0,0
21/04/2022,17:20:19,34.035919,0.0,0.0,1.64825439453125,1.6776351928710938,0.0,0.0,-0.011174939572811127,0,0,0,47.641468,-122.140165,123.6482162475586,0.0,0.0,0.0,0,0,0,0,0,0,0,0,0,0,0,0,0,0,0,0,0,0,0
21/04/2022,17:20:19,34.189912,0.0,0.0,1.646636962890625,1.6776351928710938,0.0,0.0,-0.009909428656101227,0,0,0,47.641468,-122.140165,123.6466064453125,0.0,0.0,0.0,0,0,0,0,0,0,0,0,0,0,0,0,0,0,0,0,0,0,0
21/04/2022,17:20:19,34.339912,0.0,0.0,1.64520263671875,1.6776351928710938,0.0,0.0,-0.00884045846760273,0,0,0,47.641468,-122.140165,123.64517211914062,0.0,0.0,0.0,0,0,0,0,0,0,0,0,0,0,0,0,0,0,0,0,0,0,0
21/04/2022,17:20:19,34.494911,0.0,0.0,1.6439208984375,1.6776351928710938,0.0,0.0,-0.007937371730804443,0,0,0,47.641468,-122.140165,123.6439208984375,0.0,0.0,0.0,0,0,0,0,0,0,0,0,0,0,0,0,0,0,0,0,0,0,0
21/04/2022,17:20:20,34.655909,0.0,0.0,1.6427383422851562,1.6776351928710938,0.0,0.0,-0.007160444278270006,0,0,0,47.641468,-122.140165,123.64271545410156,0.0,0.0,0.0,0,0,0,0,0,0,0,0,0,0,0,0,0,0,0,0,0,0,0
21/04/2022,17:20:20,34.80391,0.0,0.0,1.641693115234375,1.6776351928710938,0.0,0.0,-0.006517929956316948,0,0,0,47.641468,-122.140165,123.64169311523438,0.0,0.0,0.0,0,0,0,0,0,0,0,0,0,0,0,0,0,0,0,0,0,0,0
21/04/2022,17:20:20,34.958912,0.0,0.0,1.6407394409179688,1.6776351928710938,0.0,0.0,-0.0059752389788627625,0,0,0,47.641468,-122.140165,123.64073944091797,0.0,0.0,0.0,0,0,0,0,0,0,0,0,0,0,0,0,0,0,0,0,0,0,0
21/04/2022,17:20:20,35.109913,0.0,0.0,1.6398773193359375,1.6776351928710938,0.0,0.0,-0.00552497711032629,0,0,0,47.641468,-122.140165,123.63985443115234,0.0,0.0,0.0,0,0,0,0,0,0,0,0,0,0,0,0,0,0,0,0,0,0,0
21/04/2022,17:20:20,35.268913,0.0,0.0,1.6390228271484375,1.6776351928710938,0.0,0.0,-0.005122427828609943,0,0,0,47.641468,-122.140165,123.63902282714844,0.0,0.0,0.0,0,0,0,0,0,0,0,0,0,0,0,0,0,0,0,0,0,0,0
21/04/2022,17:20:20,35.421914,0.0,0.0,1.6382827758789062,1.6776351928710938,0.0,0.0,-0.0048019541427493095,0,0,0,47.641468,-122.140165,123.63826751708984,0.0,0.0,0.0,0,0,0,0,0,0,0,0,0,0,0,0,0,0,0,0,0,0,0
21/04/2022,17:20:20,35.567912,0.0,0.0,1.6375656127929688,1.6776351928710938,0.0,0.0,-0.004525358788669109,0,0,0,47.641468,-122.140165,123.63756561279297,0.0,0.0,0.0,0,0,0,0,0,0,0,0,0,0,0,0,0,0,0,0,0,0,0
21/04/2022,17:20:21,35.723909,0.0,0.0,1.6369094848632812,1.6776351928710938,0.0,0.0,-0.004296049475669861,0,0,0,47.641468,-122.140165,123.63689422607422,0.0,0.0,0.0,0,0,0,0,0,0,0,0,0,0,0,0,0,0,0,0,0,0,0
21/04/2022,17:20:21,35.876912,0.0,0.0,1.636260986328125,1.6776351928710938,0.0,0.0,-0.004098096862435341,0,0,0,47.641468,-122.140165,123.63626098632812,0.0,0.0,0.0,0,0,0,0,0,0,0,0,0,0,0,0,0,0,0,0,0,0,0
21/04/2022,17:20:21,36.034911,0.0,0.0,1.6356353759765625,1.6776351928710938,0.0,0.0,-0.00392787205055356,0,0,0,47.641468,-122.140165,123.63562774658203,0.0,0.0,0.0,0,0,0,0,0,0,0,0,0,0,0,0,0,0,0,0,0,0,0
21/04/2022,17:20:21,36.185911,0.0,0.0,1.6350326538085938,1.6776351928710938,0.0,0.0,-0.003784517291933298,0,0,0,47.641468,-122.140165,123.6350326538086,0.0,0.0,0.0,0,0,0,0,0,0,0,0,0,0,0,0,0,0,0,0,0,0,0
21/04/2022,17:20:21,36.339914,0.0,0.0,1.6344680786132812,1.6776351928710938,0.0,0.0,-0.0036659168545156717,0,0,0,47.641468,-122.140165,123.63446807861328,0.0,0.0,0.0,0,0,0,0,0,0,0,0,0,0,0,0,0,0,0,0,0,0,0
21/04/2022,17:20:21,36.49191,0.0,0.0,1.6339263916015625,1.6776351928710938,0.0,0.0,-0.003567525651305914,0,0,0,47.641468,-122.140165,123.6339111328125,0.0,0.0,0.0,0,0,0,0,0,0,0,0,0,0,0,0,0,0,0,0,0,0,0
21/04/2022,17:20:22,36.64291,0.0,0.0,1.6333847045898438,1.6776351928710938,0.0,0.0,-0.003482380649074912,0,0,0,47.641468,-122.140165,123.63338470458984,0.0,0.0,0.0,0,0,0,0,0,0,0,0,0,0,0,0,0,0,0,0,0,0,0
21/04/2022,17:20:22,36.801913,0.0,0.0,1.6328582763671875,1.6776351928710938,0.0,0.0,-0.003410633886232972,0,0,0,47.641468,-122.140165,123.63284301757812,0.0,0.0,0.0,0,0,0,0,0,0,0,0,0,0,0,0,0,0,0,0,0,0,0
21/04/2022,17:20:22,36.954909,0.0,0.0,1.6323318481445312,1.6776351928710938,0.0,0.0,-0.003348954487591982,0,0,0,47.641468,-122.140165,123.63233184814453,0.0,0.0,0.0,0,0,0,0,0,0,0,0,0,0,0,0,0,0,0,0,0,0,0
21/04/2022,17:20:22,37.105916,0.0,0.0,1.6318283081054688,1.6776351928710938,0.0,0.0,-0.0032988397870212793,0,0,0,47.641468,-122.140165,123.63182067871094,0.0,0.0,0.0,0,0,0,0,0,0,0,0,0,0,0,0,0,0,0,0,0,0,0
21/04/2022,17:20:22,37.266912,0.0,0.0,1.631317138671875,1.6776351928710938,0.0,0.0,-0.003254909534007311,0,0,0,47.641468,-122.140165,123.63131713867188,0.0,0.0,0.0,0,0,0,0,0,0,0,0,0,0,0,0,0,0,0,0,0,0,0
21/04/2022,17:20:22,37.415913,0.0,0.0,1.6308212280273438,1.6776351928710938,0.0,0.0,-0.0032184706069529057,0,0,0,47.641468,-122.140165,123.63081359863281,0.0,0.0,0.0,0,0,0,0,0,0,0,0,0,0,0,0,0,0,0,0,0,0,0
21/04/2022,17:20:23,37.56991,0.0,0.0,1.6303329467773438,1.6776351928710938,0.0,0.0,-0.0031877276487648487,0,0,0,47.641468,-122.140165,123.63033294677734,0.0,0.0,0.0,0,0,0,0,0,0,0,0,0,0,0,0,0,0,0,0,0,0,0
21/04/2022,17:20:23,37.726911,0.0,0.0,1.6298446655273438,1.6776351928710938,0.0,0.0,-0.0031617365311831236,0,0,0,47.641468,-122.140165,123.62984466552734,0.0,0.0,0.0,0,0,0,0,0,0,0,0,0,0,0,0,0,0,0,0,0,0,0
21/04/2022,17:20:23,37.87391,0.0,0.0,1.6293792724609375,1.6776351928710938,0.0,0.0,-0.0031401077285408974,0,0,0,47.641468,-122.140165,123.62936401367188,0.0,0.0,0.0,0,0,0,0,0,0,0,0,0,0,0,0,0,0,0,0,0,0,0
21/04/2022,17:20:23,38.03391,0.0,0.0,1.6288833618164062,1.6776351928710938,0.0,0.0,-0.003121304092928767,0,0,0,47.641468,-122.140165,123.62887573242188,0.0,0.0,0.0,0,0,0,0,0,0,0,0,0,0,0,0,0,0,0,0,0,0,0
21/04/2022,17:20:23,38.185921,0.0,0.0,1.6284103393554688,1.6776351928710938,0.0,0.0,-0.003105668118223548,0,0,0,47.641468,-122.140165,123.62840270996094,0.0,0.0,0.0,0,0,0,0,0,0,0,0,0,0,0,0,0,0,0,0,0,0,0
21/04/2022,17:20:23,38.340912,0.0,0.0,1.6279373168945312,1.6776351928710938,0.0,0.0,-0.003092403756454587,0,0,0,47.641468,-122.140165,123.6279296875,0.0,0.0,0.0,0,0,0,0,0,0,0,0,0,0,0,0,0,0,0,0,0,0,0
21/04/2022,17:20:23,38.492914,0.0,0.0,1.6274642944335938,1.6776351928710938,0.0,0.0,-0.003081155940890312,0,0,0,47.641468,-122.140165,123.62745666503906,0.0,0.0,0.0,0,0,0,0,0,0,0,0,0,0,0,0,0,0,0,0,0,0,0
21/04/2022,17:20:51,65.821299,0.0,0.0,1.5999374389648438,1.6776351928710938,0.0,0.0,1.9556387996999547e-05,0,0,1.9556387996999547e-05,47.641468,-122.140165,123.59993743896484,0.0,0.0,0.0,0.0,0.0,0.0,-0.4251280291890827,-0.00685690369659823,2.9660887847795916,1.8184623168030312,-0.25799739921976594,-0.004161248374512427,1.8000625610351575,0.0,0.0,0.0,-0.0708534596506629,-0.0011427977363010345,0.4943486268570191,-0.3542745695384198,-0.005714105960297195,2.4717401579225724
21/04/2022,17:20:51,66.035301,0.0,0.0,1.5878143310546875,1.6776351928710938,0.0,0.0,-0.08420464396476746,0,0,1.9556387996999547e-05,47.641468,-122.140165,123.58781433105469,0.0,0.0,0.0,0.0,0.0,0.0,-0.3933320416219589,-0.006344065187451063,2.9735752327215565,1.830463567712554,-0.25799739921976594,-0.004161248374512427,1.8121856689453137,0.0,0.0,0.0,-0.07040455863829262,-0.0011355573973918366,0.49452487729945743,-0.32292748298366625,-0.005208507790059226,2.4790503554220993
21/04/2022,17:20:51,66.196301,0.0,0.0,1.5749893188476562,1.6776351928710938,0.0,0.0,-0.07298976927995682,0,0,1.9556387996999547e-05,47.641468,-122.140165,123.57476806640625,0.0,0.0,0.0,0.0,0.0,0.0,-0.3944082936663247,-0.006361424091392447,2.973541582366678,1.843161403760491,-0.25799739921976594,-0.004161248374512427,1.825010681152345,0.0,0.0,0.0,-0.06993373707032213,-0.0011279635011342479,0.49469420045401563,-0.32447455659600255,-0.005233460590258199,2.4788473819126624
21/04/2022,17:20:51,66.3953,0.0,0.0,1.5626068115234375,1.6776351928710938,0.0,0.0,-0.06009446084499359,0,0,1.9556387996999547e-05,47.641468,-122.140165,123.56243133544922,0.0,0.0,0.0,0.0,0.0,0.0,-0.39614140816260035,-0.006389377551009798,2.973395173299621,1.8554227828320613,-0.25799739921976594,-0.004161248374512427,1.8373931884765637,0.0,0.0,0.0,-0.06948321054851891,-0.00112069694433097,0.4948421114376511,-0.32665819761408144,-0.005268680606678827,2.4785530618619696
21/04/2022,17:20:52,66.574304,0.0,0.0,1.5522689819335938,1.6776351928710938,0.0,0.0,-0.04936397075653076,0,0,1.9556387996999547e-05,47.641468,-122.140165,123.55211639404297,0.0,0.0,0.0,0.0,0.0,0.0,-0.39760082759780757,-0.0064129165741583,2.9732493024926736,1.8656607111468366,-0.25799739921976594,-0.004161248374512427,1.8477310180664075,0.0,0.0,0.0,-0.06911018131547755,-0.0011146803437980448,0.4949547013535093,-0.32849064628233005,-0.005298236230360256,2.478294601139164
21/04/2022,17:20:52,66.728301,0.0,0.0,1.545257568359375,1.6776351928710938,0.0,0.0,-0.042172692716121674,0,0,1.9556387996999547e-05,47.641468,-122.140165,123.54513549804688,0.0,0.0,0.0,0.0,0.0,0.0,-0.3985741412808098,-0.006428615181948658,2.9731398097362725,1.872604993510479,-0.25799739921976594,-0.004161248374512427,1.8547424316406262,0.0,0.0,0.0,-0.0688588130746826,-0.0011106260173336098,0.4950257746328456,-0.3297153282061272,-0.0053179891646150486,2.478114035103427
21/04/2022,17:20:52,66.886298,0.0,0.0,1.539154052734375,1.6776351928710938,0.0,0.0,-0.035988181829452515,0,0,1.9556387996999547e-05,47.641468,-122.140165,123.53904724121094,0.0,0.0,0.0,0.0,0.0,0.0,-0.39940382129306173,-0.006441997117630141,2.9730380379380654,1.8786504766579395,-0.25799739921976594,-0.004161248374512427,1.8608459472656262,0.0,0.0,0.0,-0.06864107942019035,-0.001107114184196638,0.4950843490720483,-0.33076274187287136,-0.005334882933433503,2.477953688866017
21/04/2022,17:20:52,67.075306,0.0,0.0,1.5329437255859375,1.6776351928710938,0.0,0.0,-0.029789170250296593,0,0,1.9556387996999547e-05,47.641468,-122.140165,123.53285217285156,0.0,0.0,0.0,0.0,0.0,0.0,-0.4002234857501651,-0.00645521751209955,2.9729293355722284,1.884802139700908,-0.25799739921976594,-0.004161248374512427,1.8670562744140637,0.0,0.0,0.0,-0.06842058157441709,-0.0011035577673293273,0.4951409452727063,-0.331802904175748,-0.005351659744770223,2.477788390299522
21/04/2022,17:20:52,67.263299,0.0,0.0,1.527862548828125,1.6776351928710938,0.0,0.0,-0.024827614426612854,0,0,1.9556387996999547e-05,47.641468,-122.140165,123.52778625488281,0.0,0.0,0.0,0.0,0.0,0.0,-0.4008617713057492,-0.0064655124404154225,2.972838871109918,1.889835603980549,-0.25799739921976594,-0.004161248374512427,1.8721374511718762,0.0,0.0,0.0,-0.06824096534762188,-0.0011006607314132753,0.4951850961202144,-0.3326208059581273,-0.005364851709002147,2.4776537749897036
21/04/2022,17:20:52,67.448304,0.0,0.0,1.5235595703125,1.6776351928710938,0.0,0.0,-0.020726900547742844,0,0,1.9556387996999547e-05,47.641468,-122.140165,123.5235595703125,0.0,0.0,0.0,0.0,0.0,0.0,-0.40137126758128516,-0.006473730122278908,2.9727628092431067,1.8940983765786854,-0.25799739921976594,-0.004161248374512427,1.8764404296875012,0.0,0.0,0.0,-0.06808941857305298,-0.001098216428597648,0.4952210302537156,-0.3332818490082322,-0.00537551369368126,2.477541778989391
21/04/2022,17:20:53,67.6353,0.0,0.0,1.5200119018554688,1.6776351928710938,0.0,0.0,-0.017444878816604614,0,0,1.9556387996999547e-05,47.641468,-122.140165,123.52001190185547,0.0,0.0,0.0,0.0,0.0,0.0,-0.40175971743510974,-0.006479995442501885,2.972702480786809,1.8976130330384258,-0.25799739921976594,-0.004161248374512427,1.8799880981445325,0.0,0.0,0.0,-0.06796486200334904,-0.0010962074516669392,0.495249688736175,-0.3337948554317607,-0.0053837879908349455,2.477452792050634
21/04/2022,17:20:53,67.789302,0.0,0.0,1.5175552368164062,1.6776351928710938,0.0,0.0,-0.015246916562318802,0,0,1.9556387996999547e-05,47.641468,-122.140165,123.51750946044922,0.0,0.0,0.0,0.0,0.0,0.0,-0.4020041934084358,-0.006483938603361982,2.9726635014743,1.9000469100602593,-0.25799739921976594,-0.004161248374512427,1.882444763183595,0.0,0.0,0.0,-0.06787881682187617,-0.0010948196261593125,0.49526903621457075,-0.3341253765865596,-0.0053891189772026695,2.4773944652597293
21/04/2022,17:20:53,67.978302,0.0,0.0,1.514892578125,1.6776351928710938,0.0,0.0,-0.012947688810527325,0,0,1.9556387996999547e-05,47.641468,-122.140165,123.51485443115234,0.0,0.0,0.0,0.0,0.0,0.0,-0.40224160411612153,-0.006487767808324654,2.9726249035935584,1.9026849360838518,-0.25799739921976594,-0.004161248374512427,1.8851074218750012,0.0,0.0,0.0,-0.06778574857389769,-0.0010933185253854658,0.4952895576484457,-0.33445585554222385,-0.0053944492829391885,2.4773353459451126
21/04/2022,17:20:53,68.166304,0.0,0.0,1.5126571655273438,1.6776351928710938,0.0,0.0,-0.011107714846730232,0,0,1.9556387996999547e-05,47.641468,-122.140165,123.51258850097656,0.0,0.0,0.0,0.0,0.0,0.0,-0.4024105909147599,-0.006490493401851082,2.972597067322484,1.9048997214623877,-0.25799739921976594,-0.004161248374512427,1.8873428344726575,0.0,0.0,0.0,-0.06770776854202316,-0.0010920607829358769,0.4953064340275351,-0.33470282237273674,-0.0053984326189152046,2.477290633294949
21/04/2022,17:20:53,68.354301,0.0,0.0,1.5106735229492188,1.6776351928710938,0.0,0.0,-0.009565123356878757,0,0,1.9556387996999547e-05,47.641468,-122.140165,123.5106430053711,0.0,0.0,0.0,0.0,0.0,0.0,-0.40253004251109414,-0.006492420040501634,2.9725773346706643,1.906865100335448,-0.25799739921976594,-0.004161248374512427,1.8893264770507825,0.0,0.0,0.0,-0.06763868977905788,-0.0010909466093396623,0.4953211461009476,-0.3348913527320363,-0.005401473431161972,2.477256188569717
21/04/2022,17:20:53,68.5083,0.0,0.0,1.50933837890625,1.6776351928710938,0.0,0.0,-0.008586203679442406,0,0,1.9556387996999547e-05,47.641468,-122.140165,123.50931549072266,0.0,0.0,0.0,0.0,0.0,0.0,-0.4025902634056406,-0.006493391345252382,2.9725674932791923,1.9081879727817825,-0.25799739921976594,-0.004161248374512427,1.8906616210937512,0.0,0.0,0.0,-0.06759225736279496,-0.001090197699399938,0.4953309113401996,-0.33499800604284563,-0.005403193645852444,2.4772365819389925
21/04/2022,17:20:54,68.694302,0.0,0.0,1.5077896118164062,1.6776351928710938,0.0,0.0,-0.007524690590798855,0,0,1.9556387996999547e-05,47.641468,-122.140165,123.50776672363281,0.0,0.0,0.0,0.0,0.0,0.0,-0.40263487255833763,-0.006494110847715236,2.9725605160165087,1.9097225262173845,-0.25799739921976594,-0.004161248374512427,1.892210388183595,0.0,0.0,0.0,-0.06753845929671379,-0.0010893299886566932,0.4953421029422758,-0.3350964132616238,-0.005404780859058543,2.4772184130742327
21/04/2022,17:20:54,68.843308,0.0,0.0,1.5067367553710938,1.6776351928710938,0.0,0.0,-0.006850810255855322,0,0,1.9556387996999547e-05,47.641468,-122.140165,123.5067138671875,0.0,0.0,0.0,0.0,0.0,0.0,-0.4026488940124797,-0.0064943370002014,2.9725586785435056,1.910765733274222,-0.25799739921976594,-0.004161248374512427,1.8932632446289075,0.0,0.0,0.0,-0.0675019262406238,-0.0010887407458165324,0.495349628637782,-0.33514696777185593,-0.005405596254384868,2.4772090499057238
21/04/2022,17:20:54,68.997302,0.0,0.0,1.5057144165039062,1.6776351928710938,0.0,0.0,-0.006245647557079792,0,0,1.9556387996999547e-05,47.641468,-122.140165,123.50569152832031,0.0,0.0,0.0,0.0,0.0,0.0,-0.4026456826885211,-0.006494285204653678,2.9725599428528655,1.9117787125693544,-0.25799739921976594,-0.004161248374512427,1.894285583496095,0.0,0.0,0.0,-0.06746648238759982,-0.0010881690707677583,0.4953568731410388,-0.33517920030092124,-0.0054061161338859205,2.477203069711827
21/04/2022,17:20:54,69.157302,0.0,0.0,1.5047607421875,1.6776351928710938,0.0,0.0,-0.00573613028973341,0,0,1.9556387996999547e-05,47.641468,-122.140165,123.5047607421875,0.0,0.0,0.0,0.0,0.0,0.0,-0.4026238543057977,-0.006493933133964594,2.972564563980338,1.9127236649202304,-0.25799739921976594,-0.004161248374512427,1.8952392578125012,0.0,0.0,0.0,-0.06743344601621155,-0.0010876362260679477,0.49536357562519506,-0.3351904082895862,-0.005406296907896646,2.4772009883551434
21/04/2022,17:20:54,69.344303,0.0,0.0,1.503753662109375,1.6776351928710938,0.0,0.0,-0.00523275975137949,0,0,1.9556387996999547e-05,47.641468,-122.140165,123.50373840332031,0.0,0.0,0.0,0.0,0.0,0.0,-0.4025889380110046,-0.006493369967919542,2.972571595080566,1.913721543996359,-0.25799739921976594,-0.004161248374512427,1.8962463378906262,0.0,0.0,0.0,-0.06739858785507546,-0.0010870739976625266,0.4953705959272903,-0.33519035015592913,-0.0054062959702570156,2.4772009991532755
21/04/2022,17:20:54,69.527304,0.0,0.0,1.5028076171875,1.6776351928710938,0.0,0.0,-0.004816714208573103,0,0,1.9556387996999547e-05,47.641468,-122.140165,123.5028076171875,0.0,0.0,0.0,0.0,0.0,0.0,-0.40253667850016184,-0.0064925270725833695,2.972581764682453,1.914658954329458,-0.25799739921976594,-0.004161248374512427,1.8971923828125012,0.0,0.0,0.0,-0.06736586877301581,-0.0010865462705325322,0.4953771374603862,-0.335170809727146,-0.0054059808020508375,2.4772046272220667
21/04/2022,17:20:55,69.708301,0.0,0.0,1.501953125,1.6776351928710938,0.0,0.0,-0.00448833592236042,0,0,1.9556387996999547e-05,47.641468,-122.140165,123.501953125,0.0,0.0,0.0,0.0,0.0,0.0,-0.40247324525875705,-0.0064915039557865185,2.9725939168081004,1.9155056548309817,-0.25799739921976594,-0.004161248374512427,1.8980468750000012,0.0,0.0,0.0,-0.06733633811385922,-0.0010860699695783938,0.49538300198943347,-0.3351369071448978,-0.005405433986208125,2.477210914818667
21/04/2022,17:20:55,69.8643,0.0,0.0,1.5012969970703125,1.6776351928710938,0.0,0.0,-0.004264602437615395,0,0,1.9556387996999547e-05,47.641468,-122.140165,123.50128936767578,0.0,0.0,0.0,0.0,0.0,0.0,-0.4024148145312308,-0.006490561524697383,2.9726050159768795,1.9161558045541116,-0.25799739921976594,-0.004161248374512427,1.8987030029296887,0.0,0.0,0.0,-0.06731367701202566,-0.0010857044679359168,0.4953874770346153,-0.3351011375192051,-0.005404857056761467,2.477217538942264
21/04/2022,17:20:55,70.022298,0.0,0.0,1.5006637573242188,1.6776351928710938,0.0,0.0,-0.004071505274623632,0,0,1.9556387996999547e-05,47.641468,-122.140165,123.50064849853516,0.0,0.0,0.0,0.0,0.0,0.0,-0.40235061416388435,-0.006489526034901475,2.9726171402280905,1.9167832784991516,-0.25799739921976594,-0.004161248374512427,1.8993362426757825,0.0,0.0,0.0,-0.06729181814252423,-0.0010853519055246035,0.49539177301850934,-0.33505879602136013,-0.0054041741293768715,2.477225367209581
21/04/2022,17:20:55,70.212301,0.0,0.0,1.4999008178710938,1.6776351928710938,0.0,0.0,-0.0038709756918251514,0,0,1.9556387996999547e-05,47.641468,-122.140165,123.4999008178711,0.0,0.0,0.0,0.0,2.0,0.0,-0.40226228626220867,1.993511898608674,2.972633725378585,1.9175392762389878,-0.25799739921976594,-0.004161248374512427,1.9000991821289075,0.0,2.0,0.0,-0.0672654974695459,-0.001084927378541082,0.49539691917013035,-0.33499678879266276,-0.005403174012784978,2.4772368062084547
21/04/2022,17:20:55,70.393303,-7.298868149518967e-05,0.006581421010196209,1.51007080078125,1.6776351928710938,1.811651349770127e-11,0.13641251623630524,0.19033490121364594,1.811651349770127e-11,0.13641251623630524,0.19033490121364594,47.64146806283124,-122.140165,123.51063537597656,2.2808979118700586e-10,-8.102903681125749,1.0130143436535327e-08,3.5360871333366936e-10,2.0,0.0,-0.48711336072756006,1.9921433328857874,2.907835591154444,1.9074667664801683,-0.25803055386501034,-0.004161783126855112,1.8899291992187512,3.5360871333366936e-10,2.0,0.0,-0.06762625450202685,-0.0010907460403552997,0.49532441450341874,-0.41948710657914196,-0.006765921073857259,2.412511176651025
21/04/2022,17:20:56,70.586302,-0.0006880899891257286,0.06204531155526638,1.5597076416015625,1.6776351928710938,1.1742148919857698e-10,0.46690407395362854,0.290667325258255,1.1742148919857698e-10,0.46690407395362854,0.290667325258255,47.64146857078566,-122.140165,123.56057739257812,2.917910356791855e-09,-10.33083082643199,6.492453158838403e-09,2.2662936830647305e-10,2.0,0.0,-0.5616947638431632,1.9909404070311325,2.761781905732722,1.8583372560273401,-0.2583099587511644,-0.004166289657276834,1.8402923583984387,2.2662936830647305e-10,2.0,0.0,-0.06946077366283114,-0.0011203350590779186,0.4948633478869907,-0.4922339904069614,-0.007939257909789596,2.2669185578457314
21/04/2022,17:20:56,70.781304,-0.001966527197510004,0.17732243612408638,1.60919189453125,1.6776351928710938,2.7568025640078986e-10,0.778044581413269,0.2294447422027588,2.7568025640078986e-10,0.778044581413269,0.290667325258255,47.64146961642496,-122.140165,123.6098861694336,8.685816739920339e-09,-9.43596099167954,-1.4968877022262438e-08,-5.225123787292082e-10,2.0,0.0,-0.565658489365892,1.9908764759863968,2.8121246635026895,1.8094296035917699,-0.2588906789317204,-0.00417565611180204,1.7908081054687512,-5.225123787292082e-10,2.0,0.0,-0.07144028262671302,-0.0011522626230115272,0.4941693448091956,-0.49421820621666657,-0.00797126139059166,2.317955318693494
21/04/2022,17:20:56,70.973304,-0.0038413979345932603,0.3463801685720682,1.6446075439453125,1.6776351928710938,5.215332610220003e-10,1.0428895950317383,0.15080924332141876,5.215332610220003e-10,1.0428895950317383,0.290667325258255,47.64147114472852,-122.140165,123.64506530761719,1.5949376215239122e-08,-7.793733490901464,-4.30375650544058e-08,-1.5022944244812675e-09,2.0,0.0,-0.5538927510136756,1.991066245975622,2.876371243187039,1.7745101579859381,-0.2597423242629107,-0.00418939232682114,1.7553924560546887,-1.5022944244812675e-09,2.0,0.0,-0.07301922857443176,-0.0011777294931359958,0.49347907912285227,-0.4808735209369494,-0.007756024531241809,2.382892164064187
21/04/2022,17:20:56,71.129303,-0.005922463722527027,0.5340305780991912,1.6649703979492188,1.6776351928710938,8.539250972994239e-10,1.2359501123428345,0.09702998399734497,8.539250972994239e-10,1.2359501123428345,0.290667325258255,47.64147283839006,-122.140165,123.6652603149414,2.1502571455062693e-08,-6.34821535858781,-6.526530227711565e-08,-2.2781888240900414e-09,2.0,0.0,-0.5450352204229875,1.9912091093847613,2.9077246695664134,1.754509458650926,-0.26068763206573625,-0.004204639226866869,1.7350296020507825,-2.2781888240900414e-09,2.0,0.0,-0.07407092479545585,-0.0011946923354106223,0.4929855941112932,-0.47096429334934276,-0.007596198279828137,2.4147390754551203
21/04/2022,17:20:56,71.290301,-0.008185385842807591,0.7380790263414383,1.6772842407226562,1.6776351928710938,1.2857753750594725e-09,1.3849164247512817,0.06173914670944214,1.2857753750594725e-09,1.3849164247512817,0.290667325258255,47.64147467840883,-122.140165,123.6774673461914,2.3940244179796067e-08,-5.154017302702509,-5.978747260910118e-08,-2.0869764969494806e-09,2.0,0.0,-0.5403999357683855,1.9912838720373967,2.9227620916540595,1.7424874269990533,-0.2617155465418509,-0.004221218492610701,1.722715759277345,-2.0869764969494806e-09,2.0,0.0,-0.07484177868263263,-0.001207125462623165,0.49263833689872577,-0.46555815499877645,-0.007509002499980193,2.430123754755334
21/04/2022,17:20:56,71.476317,-0.011234890553168952,1.0130538865923882,1.6862335205078125,1.6862335205078125,1.9583783483767547e-09,1.527855634689331,0.034412529319524765,1.9583783483767547e-09,1.527855634689331,0.290667325258255,47.64147715644994,-122.140165,123.68633270263672,2.5452288741747425e-08,-3.969807672310208,-3.195356750849359e-08,-1.1153899215629886e-09,2.0,0.0,-0.5387755305836497,1.991310072105349,2.931475599184382,1.733849925420224,-0.26310075986536974,-0.00424356064299003,1.7137664794921887,-1.1153899215629886e-09,2.0,0.0,-0.07558575568612849,-0.0012191250917118058,0.4923449650554321,-0.4631897737821312,-0.0074708028029393195,2.43913063412895
21/04/2022,17:20:57,71.666297,-0.014548176201060414,1.3118141125887632,1.6911239624023438,1.6911239624023438,2.756685324456498e-09,1.637259840965271,0.018289275467395782,2.756685324456498e-09,1.637259840965271,0.290667325258255,47.64147980349867,-122.14016499999998,123.69112396240234,2.599144879014305e-08,-3.0480119036345443,6.121067236983485e-09,2.1366555404262767e-10,2.0,0.0,-0.539924158452162,1.991291545827969,2.9353088723779965,1.7292460072463482,-0.26460579601134643,-0.004267835419538235,1.7088760375976575,2.1366555404262767e-10,2.0,0.0,-0.07620529315474661,-0.0012291176315282833,0.4921487033665247,-0.463718865511081,-0.0074793365405028235,2.4431601690114717
21/04/2022,17:20:57,71.850299,-0.018005577148869634,1.6235690880566835,1.6936264038085938,1.6936264038085938,3.6207861153769727e-09,1.7192915678024292,0.009119364432990551,3.6207861153769727e-09,1.7192915678024292,0.290667325258255,47.641482654940745,-122.14016499999998,123.69365692138672,2.6179383387101302e-08,-2.3515773487338563,4.884863245845296e-08,1.7051389429931526e-09,2.0,0.0,-0.5425429707714385,1.9912493068955375,2.9368743363225547,1.727014504795893,-0.26617629256157593,-0.004293166009058158,1.7063735961914075,1.7051389429931526e-09,2.0,0.0,-0.07674901330992101,-0.0012378873114504778,0.49201410307980714,-0.4657939591666565,-0.007512805793012043,2.4448602332427476
21/04/2022,17:20:57,72.040305,-0.02161147922743112,1.9487144378945231,1.694793701171875,1.694793701171875,4.536405029398338e-09,1.7817002534866333,0.0037617068737745285,4.536405029398338e-09,1.7817002534866333,0.290667325258255,47.6414855822333,-122.14016499999998,123.69480895996094,2.771331642039763e-08,-1.8198240095989462,6.267731775288235e-08,2.187851122212981e-09,2.0,0.0,-0.5458139585050981,1.9911965490210806,2.937421144067156,1.726114610846426,-0.2678142442130599,-0.00431958458408177,1.7052062988281262,2.187851122212981e-09,2.0,0.0,-0.07725842556189494,-0.0012461036380951255,0.49191391702406995,-0.4685555351310542,-0.007557347340824375,2.445507227043086
21/04/2022,17:20:57,72.224302,-0.025330243282951415,2.284036746248603,1.6951904296875,1.6951904296875,5.495379706843551e-09,1.8290859460830688,0.0006900397129356861,5.495379706843551e-09,1.8290859460830688,0.290667325258255,47.641488600692675,-122.14016499999995,123.6951904296875,2.8751790072756733e-08,-1.4153782458892041,8.923656918660054e-08,3.114943890979795e-09,2.0,0.0,-0.5493641158235424,1.9911392884042174,2.937440041707989,1.7259857136229928,-0.2695034650423272,-0.004346830081328079,1.7048095703125012,3.114943890979795e-09,2.0,0.0,-0.07775108096483327,-0.0012540496929812457,0.49183333101179977,-0.471613037973653,-0.007606661902801484,2.445606710696189
21/04/2022,17:20:57,72.414301,-0.029196592047810555,2.6326666278764606,1.6951446533203125,1.6951904296875,6.51034159915298e-09,1.8655250072479248,-0.0010751101654022932,6.51034159915298e-09,1.8655250072479248,0.290667325258255,47.64149173859189,-122.14016499999995,123.69514465332031,3.117409046230939e-08,-1.1040897828957976,5.9300826927657785e-08,2.0699893580858832e-09,2.0,0.0,-0.5530334034352621,1.9910801063628183,2.937184755119486,1.7263060944918909,-0.2712597220017053,-0.0043751568064793744,1.7048553466796887,2.0699893580858832e-09,2.0,0.0,-0.07824436572199985,-0.0012620058987420073,0.4917623754251057,-0.4747890397832516,-0.007657887738439664,2.44542237969438
21/04/2022,17:20:58,72.595302,-0.033003984368406236,2.9759805388748646,1.694854736328125,1.6951904296875,7.546769431598932e-09,1.892259955406189,-0.0020342213101685047,7.546769431598932e-09,1.892259955406189,0.290667325258255,47.641494777408425,-122.14016499999993,123.69485473632812,3.408477953378526e-08,-0.8756043415515589,4.979777691757226e-09,1.7382703347705377e-10,2.0,0.0,-0.5565415642666267,1.9910235231541862,2.9368052993130536,1.72686503841488,-0.2729892009097758,-0.004403051627577259,1.7051452636718762,1.7382703347705377e-10,2.0,0.0,-0.07871972507922274,-0.0012696729851488203,0.49169918051356193,-0.477821839361231,-0.007706803860665008,2.4451061187994916
21/04/2022,17:20:58,72.750311,-0.03616085695102811,3.2606368716806173,1.6945114135742188,1.6951904296875,8.444400734219926e-09,1.9093350172042847,-0.0024944916367530823,8.444400734219926e-09,1.9093350172042847,0.290667325258255,47.641497390154,-122.1401649999999,123.69450378417969,3.586014888816878e-08,-0.7296402126482223,-8.697164439911093e-10,-3.035883101276342e-11,2.0,0.0,-0.5593541611299684,1.9909781586919406,2.9364452673986317,1.7274313285241207,-0.27442318645629293,-0.004426180426714499,1.7054885864257825,-3.035883101276342e-11,2.0,0.0,-0.07910929971915963,-0.0012759564470832478,0.49164944658439663,-0.4802448613804499,-0.007745884860976073,2.444795820814235
21/04/2022,17:20:58,72.9293,-0.04004627594258636,3.6109864432364702,1.6940231323242188,1.6951904296875,9.599543382421416e-09,1.925595760345459,-0.0028196924831718206,9.599543382421416e-09,1.925595760345459,0.290667325258255,47.64150054298443,-122.14016499999987,123.69401550292969,3.8150844104892654e-08,-0.5906115212571578,-1.9034023853407715e-08,-6.644127722902063e-10,2.0,0.0,-0.5627000901823438,1.9909241921045475,2.9359763312895804,1.7281946614465333,-0.27618810786927417,-0.004454646901118409,1.7059768676757825,-6.644127722902063e-10,2.0,0.0,-0.07958562666992938,-0.0012836391398378829,0.4915897326131211,-0.4831144628480017,-0.007792168755614701,2.4443865986764592
21/04/2022,17:20:58,73.1143,-0.043960653711110353,3.963947215117514,1.6934890747070312,1.6951904296875,1.0823531404469122e-08,1.9379658699035645,-0.0029902674723416567,1.0823531404469122e-08,1.9379658699035645,0.290667325258255,47.64150371920256,-122.14016499999985,123.6934814453125,4.051251243165526e-08,-0.4848389078441571,-4.448099868465265e-08,-1.5526797632449113e-09,2.0,0.0,-0.5659540645218739,1.9908717086617878,2.9354935343845563,1.7290068933826448,-0.27796618321762745,-0.004483325535768579,1.70651092529297,-1.5526797632449113e-09,2.0,0.0,-0.08006325009595153,-0.0012913427434832025,0.49153033445163447,-0.48589081287324265,-0.007836948594728936,2.443963199932922
21/04/2022,17:20:58,73.292301,-0.047832380631007254,4.313062129542232,1.6929473876953125,1.6951904296875,1.2097396862031928e-08,1.9472401142120361,-0.003072281600907445,1.2097396862031928e-08,1.9472401142120361,0.290667325258255,47.6415068607381,-122.14016499999983,123.69293975830078,4.281722787120012e-08,-0.40553017389290463,-6.637698502243163e-08,-2.316993872376788e-09,2.0,0.0,-0.5690766132307974,1.9908213449852625,2.935013535539634,1.7298251320709466,-0.2797248844957156,-0.004511691685415542,1.7070526123046887,-2.316993872376788e-09,2.0,0.0,-0.08053460821720035,-0.0012989452938260353,0.4914715170441412,-0.4885420026966032,-0.007879709720911274,2.443542018495493
21/04/2022,17:20:58,73.478301,-0.05185021320357919,4.675351415760815,1.6923675537109375,1.6951904296875,1.3486411098995177e-08,1.9545302391052246,-0.003107097465544939,1.3486411098995177e-08,1.9545302391052246,0.290667325258255,47.641510120755974,-122.1401649999998,123.6923599243164,4.4879732635401735e-08,-0.3431844666317956,-4.079041004401049e-08,-1.4238539170130964e-09,2.0,0.0,-0.5722296177753002,1.990770490058846,2.9345195618471465,1.730693378199573,-0.28154995272369626,-0.0045411282697376265,1.7076324462890637,-1.4238539170130964e-09,2.0,0.0,-0.08102247450404612,-0.0013068141049041393,0.4914105117166051,-0.49120714184740016,-0.007922695836249754,2.4431090501305412
21/04/2022,17:20:59,73.660301,-0.05575101950671524,5.027088392525911,1.6918106079101562,1.6951904296875,1.4892042266012595e-08,1.9598950147628784,-0.003114496124908328,1.4892042266012595e-08,1.9598950147628784,0.290667325258255,47.64151328577692,-122.14016499999977,123.69180297851562,4.63037109688501e-08,-0.29730542965010326,7.761923432425038e-08,2.70942240367033e-09,2.0,0.0,-0.5752264044927995,1.990722154722542,2.9340422303756775,1.731532026631604,-0.28332186251047936,-0.004569707459847194,1.708189392089845,2.70942240367033e-09,2.0,0.0,-0.08149586939171062,-0.0013144495063181299,0.49135064396560835,-0.49373053781051124,-0.007963395771139858,2.442691586410069
21/04/2022,17:20:59,73.809303,-0.05894376605283469,5.31497940979898,1.6913604736328125,1.6951904296875,1.6077446929330108e-08,1.9633221626281738,-0.0031101698987185955,1.6077446929330108e-08,1.9633221626281738,0.290667325258255,47.64151582335514,-122.14016499999974,123.69136047363281,4.734790580644745e-08,-0.2679943204728547,1.9635658465921609e-07,6.854137820548617e-09,2.0,0.0,-0.5776409871911004,1.9906832097734617,2.933653325704156,1.7322139881053489,-0.28477214218476987,-0.004593099067497164,1.7086395263671887,6.854137820548617e-09,2.0,0.0,-0.08188320319889413,-0.0013206968257888667,0.4913011380179494,-0.495757790846344,-0.007996093400749575,2.4423521876862067
21/04/2022,17:20:59,73.989302,-0.06285999738611281,5.668107409030199,1.6907958984375,1.6951904296875,1.7572357791095783e-08,1.9666110277175903,-0.0030985733028501272,1.7572357791095783e-08,1.9666110277175903,0.290667325258255,47.64151905374509,-122.1401649999997,123.69078826904297,4.888751119779377e-08,-0.23986091395938147,2.8623039935561266e-07,9.991325776107394e-09,2.0,0.0,-0.5805586047820954,1.9906361513746198,2.933181674766486,1.7330642031652221,-0.2865510609642795,-0.004621791305877032,1.7092041015625012,9.991325776107394e-09,2.0,0.0,-0.0823573054178426,-0.0013283436357721021,0.4912403525574785,-0.49820130935557866,-0.008035504989608148,2.4419413222090074
21/04/2022,17:20:59,74.1783,-0.06691280065570027,6.0335501208901405,1.6902236938476562,1.6951904296875,1.9170624199205122e-08,1.9691962003707886,-0.0030833599157631397,1.9170624199205122e-08,1.9691962003707886,0.290667325258255,47.64152234200996,-122.14016499999964,123.69021606445312,5.06824637347011e-08,-0.21774809966374023,3.3277639409652305e-07,1.1616087499797095e-08,2.0,0.0,-0.5835435695544197,1.9905880067553101,2.9326944547766174,1.7339338535005646,-0.2883920160662359,-0.004651484130101302,1.709776306152345,1.1616087499797095e-08,2.0,0.0,-0.08284792256369349,-0.0013362568155436511,0.4911766176661903,-0.5006956586068136,-0.008075736429146075,2.441517837110427
21/04/2022,17:20:59,74.360303,-0.07090479286853224,6.393509453162551,1.6896591186523438,1.6951904296875,2.0794919564082193e-08,1.9711259603500366,-0.0030675146263092756,2.0794919564082193e-08,1.9711259603500366,0.290667325258255,47.641525580919925,-122.1401649999996,123.68965148925781,5.229791367929436e-08,-0.2012445288140106,4.174600291466335e-07,1.4572104008160497e-08,2.0,0.0,-0.5864531996661256,1.9905410771897036,2.9322168036107743,1.7347930664924203,-0.2902053478047959,-0.004680731416207173,1.7103408813476575,1.4572104008160497e-08,2.0,0.0,-0.08333059963509312,-0.0013440419295985024,0.49111338678355887,-0.5031226146031366,-0.008114880880697787,2.4411034168272154
21/04/2022,17:20:59,74.540302,-0.0748347092885524,6.747871386818588,1.6891098022460938,1.6951904296875,2.244132346618244e-08,1.9725723266601562,-0.0030528216157108545,2.244132346618244e-08,1.9725723266601562,0.290667325258255,47.64152876945236,-122.14016499999954,123.68910217285156,5.383664987431531e-08,-0.18887373011734043,5.167383048905766e-07,1.8037569583029755e-08,2.0,0.0,-0.5892957694532985,1.9904952292340148,2.9317468319869846,1.7356341463548375,-0.2919904820487794,-0.004709523904012691,1.7108901977539075,1.8037569583029755e-08,2.0,0.0,-0.08380553564365745,-0.001351702187800961,0.4910504905646071,-0.5054902518472106,-0.00815306857818426,2.4406963414223775
21/04/2022,17:21:00,74.724301,-0.0788327312329784,7.108374387025833,1.6885528564453125,1.6951904296875,2.4160698330888408e-08,1.9736934900283813,-0.0030393742490559816,2.4160698330888408e-08,1.9736934900283813,0.290667325258255,47.64153201323463,-122.1401649999995,123.68853759765625,5.5282939348395785e-08,-0.17928344653098524,6.529454583766408e-07,2.2792096169231943e-08,1.9999999999999998,0.0,-0.5921685979772604,1.990448893213395,2.9312690716289227,1.7364895829393847,-0.2938065521810228,-0.0047388153577596626,1.7114471435546887,2.2792096169231943e-08,1.9999999999999998,0.0,-0.08428825775728234,-0.0013594880283436166,0.4909859800710725,-0.5078803630120742,-0.008191618758261056,2.44028309155785
21/04/2022,17:21:00,74.911823,-0.08289833669550717,7.4749713987112045,1.68798828125,1.6951904296875,2.595588632914314e-08,1.9745581150054932,-0.0030272281728684902,2.595588632914314e-08,1.9745581150054932,0.290667325258255,47.6415352586258,-122.14016499999944,123.68798828125,5.687835112411413e-08,-0.17189124519848747,7.51949787610059e-07,2.6247999206935186e-08,1.9999999999999998,0.0,-0.5950741509596704,1.9904020293998739,2.9307829286463485,1.737359419091953,-0.2956533213166619,-0.0047686019567230176,1.7120117187500012,2.6247999206935186e-08,1.9999999999999998,0.0,-0.08477867325327294,-0.0013673979556987146,0.490919843089552,-0.5102955039543967,-0.008230572644427111,2.4398630855567967
21/04/2022,17:21:00,75.090823,-0.0868998896330595,7.835792928002775,1.68743896484375,1.6951904296875,2.7770431287876818e-08,1.975203514099121,-0.0030167344957590103,2.7770431287876818e-08,1.975203514099121,0.290667325258255,47.64153855847215,-122.14016499999937,123.68742370605469,5.8518479045317016e-08,-0.1663669048389249,8.254580718188342e-07,2.8813922380804947e-08,1.9999999999999998,0.0,-0.5979227104093248,1.990356084851236,2.930302799869563,1.738210951979255,-0.2974709976038209,-0.004797919316191113,1.7125610351562512,2.8813922380804947e-08,1.9999999999999998,0.0,-0.08526111077682073,-0.0013751792060778837,0.49085409100953786,-0.5126616284464264,-0.008268735942685788,2.4394487088600254
21/04/2022,17:21:00,75.271826,-0.09083697444293648,8.190801326185465,1.6868896484375,1.6951904296875,2.960358891357373e-08,1.9756872653961182,-0.0030077635310590267,2.960358891357373e-08,1.9756872653961182,0.290667325258255,47.64154169955171,-122.14016499999929,123.6868896484375,5.999836226777285e-08,-0.1622274638713621,9.449085617651943e-07,3.298353106617369e-08,1.9999999999999998,0.0,-0.6007119648431198,1.990311096809245,2.929831020982725,1.739059100911537,-0.2992593894576986,-0.00482676434609175,1.7131103515625012,3.298353106617369e-08,1.9999999999999998,0.0,-0.08573485821157356,-0.0013828202937350106,0.49078918913169484,-0.5149771396150774,-0.008306082897019937,2.4390418318510303
21/04/2022,17:21:00,75.453825,-0.09477488626725972,8.545884291641414,1.6863479614257812,1.6951904296875,3.147753702137379e-08,1.976056694984436,-0.0030000994447618723,3.147753702137379e-08,1.976056694984436,0.290667325258255,47.641544947782904,-122.14016499999921,123.68634033203125,6.127957137702475e-08,-0.15906730102220895,1.1341837706837168e-06,3.959048224223039e-08,1.9999999999999996,0.0,-0.6034952587507468,1.990266204865462,2.929356583736494,1.7399013992413852,-0.30104815689737874,-0.004855615433827509,1.71365203857422,3.959048224223039e-08,1.9999999999999996,0.0,-0.08620853691035026,-0.001390460272747247,0.490723598979818,-0.5172867614308788,-0.00834333486179021,2.438632984756676
21/04/2022,17:21:01,75.628823,-0.09871348075103015,8.901028791442513,1.6858139038085938,1.6951904296875,3.3391398090998337e-08,1.9763392210006714,-0.0029938824009150267,3.3391398090998337e-08,1.9763392210006714,0.290667325258255,47.64154809006752,-122.14016499999913,123.6858139038086,6.259312356617346e-08,-0.1566545258380616,1.3122909406103828e-06,4.5807595315489083e-08,1.9999999999999996,0.0,-0.6062736438021269,1.9902213921030667,2.928879331204326,1.7407378380408367,-0.3028372340864697,-0.004884471517524247,1.7141860961914075,4.5807595315489083e-08,1.9999999999999996,0.0,-0.08668213307997054,-0.0013980989206448414,0.4906573254181544,-0.5195915565297516,-0.008380508976288115,2.4382220057861717
21/04/2022,17:21:01,75.813823,-0.10265255719423294,9.256216726265848,1.685272216796875,1.6951904296875,3.534361070478553e-08,1.9765549898147583,-0.0029884411487728357,3.534361070478553e-08,1.9765549898147583,0.290667325258255,47.641551339262755,-122.14016499999906,123.68526458740234,6.379329806111972e-08,-0.1548097559472882,1.532105376362644e-06,5.3480566610070075e-08,1.9999999999999993,0.0,-0.6090433898456775,1.9901767186560242,2.9284015805014625,1.7415834272248247,-0.3046265298241485,-0.0049133311261968515,1.7147277832031262,5.3480566610070075e-08,1.9999999999999993,0.0,-0.0871549267379841,-0.001405724624806455,0.490590804441509,-0.5218885165882601,-0.00841755671916863,2.4378107760599534
21/04/2022,17:21:01,75.995832,-0.10659194702748209,9.611432895995677,1.6847381591796875,1.6951904296875,3.73282560417465e-08,1.976719856262207,-0.0029838827904313803,3.73282560417465e-08,1.976719856262207,0.290667325258255,47.64155453544234,-122.14016499999899,123.68473052978516,6.47833177550333e-08,-0.15340059870695186,1.8296838547318177e-06,6.386801507130368e-08,1.999999999999999,0.0,-0.6118098470710892,1.9901320982106552,2.927920617650133,1.7424231268574102,-0.3064159675365645,-0.0049421930247852686,1.7152618408203137,6.386801507130368e-08,1.999999999999999,0.0,-0.08762759309416514,-0.0014133482757129041,0.4905236102600148,-0.5241823178449392,-0.008454553513630874,2.4373970073901186
21/04/2022,17:21:01,76.146821,-0.10987506795208901,9.907473154366016,1.684295654296875,1.6951904296875,3.900740352946741e-08,1.976826786994934,-0.0029807493556290865,3.900740352946741e-08,1.976826786994934,0.290667325258255,47.64155719917939,-122.1401649999989,123.68428039550781,6.574956238246066e-08,-0.1524821092352733,2.0251490173897962e-06,7.069103639395967e-08,1.9999999999999987,0.0,-0.6141121045254115,1.990094964915862,2.9275178542149467,1.743121617043442,-0.3079073015248018,-0.0049662467987872105,1.7157043457031262,7.069103639395967e-08,1.9999999999999987,0.0,-0.08802124349515243,-0.0014196974757282894,0.4904671933109765,-0.5260909317212955,-0.00848533760840849,2.4370506609039704
21/04/2022,17:21:01,76.325821,-0.11374942574184388,10.256825518794358,1.6837615966796875,1.6951904296875,4.101647377297013e-08,1.9769257307052612,-0.002977550495415926,4.101647377297013e-08,1.9769257307052612,0.290667325258255,47.64156034259089,-122.1401649999988,123.68375396728516,6.658523730445962e-08,-0.1516367334000611,2.3704210574942215e-06,8.274330422375992e-08,1.9999999999999982,0.0,-0.6168207937249316,1.990051276185995,2.927042733397084,1.7439589958032675,-0.30966720145997456,-0.004994632281613676,1.7162384033203137,8.274330422375992e-08,1.9999999999999982,0.0,-0.08848477290039053,-0.0014271737564582499,0.4904005482167775,-0.5283361035678453,-0.008521550057545074,2.4366421851803066
21/04/2022,17:21:01,76.50582,-0.11768944037612528,10.612098153680563,1.6832275390625,1.6951904296875,4.307835510530822e-08,1.9770028591156006,-0.002974833594635129,4.307835510530822e-08,1.9770028591156006,0.290667325258255,47.6415634860024,-122.1401649999987,123.6832275390625,6.701113522117799e-08,-0.15097653783674828,2.8817814212064405e-06,1.0059314824570782e-07,1.9999999999999976,0.0,-0.619573749656613,1.9900068733830656,2.9265558598999166,1.7448032365627175,-0.3114569250253236,-0.005023498790732717,1.7167724609375012,1.0059314824570782e-07,1.9999999999999976,0.0,-0.08895606360981478,-0.0014347752195136244,0.4903320747365551,-0.5306177866399465,-0.008558351397418323,2.4362237851633615
21/04/2022,17:21:02,76.68482,-0.12156379059888422,10.961449794471264,1.6827011108398438,1.6951904296875,4.511866436018863e-08,1.9770606756210327,-0.0029725406784564257,4.511866436018863e-08,1.9770606756210327,0.290667325258255,47.64156668269659,-122.1401649999986,123.68269348144531,6.760742752015275e-08,-0.1504809075934295,3.317194638620443e-06,1.157919367468603e-07,1.9999999999999967,0.0,-0.6222762582662545,1.9899632842893793,2.926075138560365,1.7456362086965636,-0.313216820856985,-0.00505188420737035,1.7172988891601575,1.157919367468603e-07,1.9999999999999967,0.0,-0.08941893545076005,-0.0014422408943669902,0.4902643418042648,-0.5328574386074313,-0.008594474816250322,2.4358107967561002
21/04/2022,17:21:02,76.859824,-0.12550414283759892,11.316752835176885,1.6821670532226562,1.6951904296875,4.7218176035812576e-08,1.9771063327789307,-0.002970585133880377,4.7218176035812576e-08,1.9771063327789307,0.290667325258255,47.64156982637516,-122.1401649999985,123.68216705322266,6.857413827790342e-08,-0.15009416046416957,3.6229781690648435e-06,1.264657955561145e-07,1.999999999999996,0.0,-0.6250212433061589,1.9899190101649642,2.9255837384243772,1.7464836289997305,-0.31500669719459984,-0.005080753180561004,1.717832946777345,1.264657955561145e-07,1.999999999999996,0.0,-0.08988924117158133,-0.001449826470510216,0.4901949749657708,-0.5351321286003732,-0.008631163364521457,2.435388763458606
21/04/2022,17:21:02,77.040824,-0.1293791177449748,11.666160942055285,1.6816329956054688,1.6951904296875,4.931283470455128e-08,1.9771398305892944,-0.0029690100345760584,4.931283470455128e-08,1.9771398305892944,0.290667325258255,47.64157297029473,-122.14016499999838,123.68163299560547,6.96754544067488e-08,-0.14980490387163672,3.8661351274225155e-06,1.3495357460106672e-07,1.9999999999999953,0.0,-0.6277139319552111,1.989875579565985,2.9250997807993366,1.747327250624305,-0.31676687901059675,-0.005109143209850231,1.7183670043945325,1.3495357460106672e-07,1.9999999999999953,0.0,-0.09035081803379111,-0.001457271258610075,0.490126571989641,-0.5373632488749945,-0.008667149175400206,2.4349732088096956
21/04/2022,17:21:02,77.216826,-0.13325408671516925,12.015568328090012,1.6811065673828125,1.6951904296875,5.1444203563733026e-08,1.977165937423706,-0.002967693144455552,5.1444203563733026e-08,1.977165937423706,0.290667325258255,47.64157616749699,-122.14016499999825,123.68109893798828,7.100525478380874e-08,-0.14958094779459158,4.021974919789188e-06,1.4039340956591225e-07,1.9999999999999951,0.0,-0.6304054870112512,1.9898321672999217,2.9246122442943623,1.7481648983424598,-0.31852705513874385,-0.005137533147399509,1.7188934326171887,1.4039340956591225e-07,1.9999999999999951,0.0,-0.09081225038921396,-0.0014647137159551824,0.49005752659602236,-0.5395933770154469,-0.008703118984118276,2.4345547176983398
21/04/2022,17:21:02,77.365821,-0.13640660815872252,12.299832479096949,1.6806793212890625,1.6951904296875,5.3214609607721286e-08,1.9771831035614014,-0.0029666200280189514,5.3214609607721286e-08,1.9771831035614014,0.290667325258255,47.64157872525491,-122.14016499999815,123.68067169189453,7.273810173673942e-08,-0.149438700735406,3.899388250158745e-06,1.361143275577007e-07,1.9999999999999953,0.0,-0.6325930823006847,1.989796883573945,2.924213690034809,1.748846486341686,-0.3199590668249367,-0.0051606301100797225,1.7193206787109387,1.361143275577007e-07,1.9999999999999953,0.0,-0.09118733201576783,-0.0014707634196091865,0.4900010089633461,-0.5414058863992444,-0.008732353006441254,2.434212681071463
21/04/2022,17:21:02,77.518824,-0.1396904893917963,12.595941511914134,1.6802291870117188,1.6951904296875,5.5107722829461636e-08,1.977196216583252,-0.002965589053928852,5.5107722829461636e-08,1.977196216583252,0.290667325258255,47.64158138959771,-122.14016499999805,123.68022155761719,7.475549620379644e-08,-0.14931775805221634,3.690294519033228e-06,1.2881557945086067e-07,1.9999999999999958,0.0,-0.6348676810619321,1.9897601966148744,2.923797783258104,1.749562549519461,-0.3214507496792227,-0.005184689510954854,1.7197708129882825,1.2881557945086067e-07,1.9999999999999958,0.0,-0.09157744424102149,-0.0014770555522744398,0.4899419767753937,-0.5432903656364901,-0.008762747832846966,2.4338558064827103
21/04/2022,17:21:03,77.701823,-0.14363112964201719,12.95127061381936,1.6796951293945312,1.6951904296875,5.745415521118957e-08,1.977210521697998,-0.0029647592455148697,5.745415521118957e-08,1.977210521697998,0.290667325258255,47.641584586806495,-122.14016499999792,123.6796875,7.768929311167484e-08,-0.14920659377097864,3.2425197770983146e-06,1.1318529234279637e-07,1.999999999999997,0.0,-0.6375959192882571,1.9897161930246123,2.9232955167681993,1.7504172693611892,-0.32324075831284427,-0.005213560617951529,1.72030487060547,1.1318529234279637e-07,1.999999999999997,0.0,-0.09204539000170583,-0.0014846030645443338,0.48987056447708666,-0.5455506424718436,-0.00879920391084011,2.4334249522911127
21/04/2022,17:21:03,77.87682,-0.14757178421132267,13.306601163931191,1.6791610717773438,1.6951904296875,5.989389251226385e-08,1.9772192239761353,-0.002964045386761427,5.989389251226385e-08,1.9772192239761353,0.290667325258255,47.64158778400225,-122.14016499999776,123.67915344238281,8.078805188541571e-08,-0.1491167205249355,2.7313775262663955e-06,9.534306189665296e-08,1.9999999999999978,0.0,-0.6403206006154468,1.9896722468393722,2.922790868836399,1.7512735666693153,-0.3250307759832014,-0.005242431870696507,1.7208389282226575,9.534306189665296e-08,1.9999999999999978,0.0,-0.09251281612837267,-0.0014921421956188316,0.48979871174241224,-0.547807879830136,-0.008835610965006645,2.4329921570939868
21/04/2022,17:21:03,78.054822,-0.15144676831550896,13.656009997241199,1.6786346435546875,1.6951904296875,6.238462191276994e-08,1.9772262573242188,-0.0029636388644576073,6.238462191276994e-08,1.9772262573242188,0.290667325258255,47.641590927928334,-122.14016499999764,123.67862701416016,8.36064501409266e-08,-0.1490620521916898,2.31663328015595e-06,8.086575659999507e-08,1.9999999999999984,0.0,-0.6429960207724029,1.98962909513486,2.9222925535119186,1.7521183760465031,-0.32679096031837135,-0.005270821940619896,1.7213653564453137,8.086575659999507e-08,1.9999999999999984,0.0,-0.0929718801112512,-0.0014995464534075628,0.48972766379822635,-0.5500242215269083,-0.008871358411730904,2.4325648897136922
21/04/2022,17:21:03,78.231824,-0.1553217344917357,14.005417380481958,1.6781082153320312,1.6951904296875,6.495512394621983e-08,1.9772332906723022,-0.002963303355500102,6.495512394621983e-08,1.9772332906723022,0.290667325258255,47.6415940718414,-122.14016499999748,123.67809295654297,8.629525983232977e-08,-0.14901185284139365,1.951668132501301e-06,0.0,0.0,0.0,-0.6456682906421081,-0.010414004687778105,2.921791892793141,1.7529647032442457,-0.32855113919470724,-0.005299211922498159,1.72189178466797,0.0,0.0,0.0,-0.09343043586274781,-0.0015069425139161065,0.489656192775133,-0.5522378547793603,-0.008907062173861998,2.432135700018008
21/04/2022,17:21:03,78.408824,-0.15906712191645056,14.343140596523881,1.6867446899414062,1.6951904296875,6.57881926713344e-08,1.851251244544983,0.1755727231502533,6.57881926713344e-08,1.9772332906723022,0.290667325258255,47.64159710728706,-122.14016499999732,123.68726348876953,1.4872355278965694e-07,7.7767942586271275,1.4399599085422752e-06,0.0,0.0,0.0,-0.7551028736520813,-0.012179078607296936,2.7974229979761622,1.744803374759132,-0.3302524578251351,-0.005326652545567967,1.713255310058595,0.0,0.0,0.0,-0.094324300143606,-0.0015213596797359439,0.489327495555415,-0.6607785735084752,-0.010657718927560992,2.3080955024207475
21/04/2022,17:21:04,78.583828,-0.16241076588630676,14.644638539291918,1.7310028076171875,1.7310028076171875,6.432089350028036e-08,1.5446841716766357,0.2849675118923187,6.57881926713344e-08,1.9772332906723022,0.290667325258255,47.641599811872,-122.14016499999718,123.73185729980469,1.4483806579554365e-07,10.17139687816656,8.940894538165849e-07,0.0,0.0,0.0,-0.8209131870898646,-0.013240535275645114,2.572937313375334,1.701661673496402,-0.3317712887826101,-0.005351149819073697,1.6689971923828137,0.0,0.0,0.0,-0.09696678673983407,-0.0015639804312874536,0.4877977700150191,-0.7239464003500306,-0.01167655484435766,2.085139543360315
21/04/2022,17:21:04,78.764821,-0.16514933807775378,14.891577048227191,1.7782363891601562,1.7782363891601562,6.527182705440282e-08,1.2455295324325562,0.2354867309331894,6.57881926713344e-08,1.9772332906723022,0.290667325258255,47.64160202572206,-122.14016499999703,123.77894592285156,1.424517768110664e-07,9.505669389159761,3.5814408175038255e-07,0.0,0.0,0.0,-0.7948162061483377,-0.01281961622820137,2.6291610481131054,1.6556102291512964,-0.33301527215063725,-0.005371214066947516,1.621763610839845,0.0,0.0,0.0,-0.0997501677850931,-0.00160887367395364,0.4857770973814584,-0.6950660383632447,-0.01121074255424773,2.143383950731647
21/04/2022,17:21:04,78.935829,-0.16730515740346164,15.085968643426895,1.8129348754882812,1.8129348754882812,6.886125447636005e-08,0.9909064173698425,0.16157694160938263,6.886125447636005e-08,1.9772332906723022,0.290667325258255,47.64160376794869,-122.14016499999687,123.81341552734375,1.430454358196317e-07,8.022433503562867,-1.546374845775808e-07,0.0,0.0,0.0,-0.7526045018526905,-0.01213878228794806,2.731530204368961,1.621837564713975,-0.33399454638063997,-0.005387008812592242,1.58706512451172,0.0,0.0,0.0,-0.10185424275457697,-0.0016428103670096945,0.483987892051131,-0.6507502590981135,-0.010495971920938365,2.24754231231783
21/04/2022,17:21:04,79.110823,-0.16903710504993796,15.242139821872115,1.8360595703125,1.8360595703125,7.45877528629535e-08,0.7767148017883301,0.10110858827829361,7.45877528629535e-08,1.9772332906723022,0.290667325258255,47.64160514639398,-122.1401649999967,123.8360595703125,1.4239503062081954e-07,6.456481924490487,-6.969106087070784e-07,0.0,0.0,0.0,-0.715562905743681,-0.011541337189416277,2.799597816015862,1.5993802963949144,-0.33478128404268126,-0.005399698129723518,1.5639404296875012,0.0,0.0,0.0,-0.10331380748645658,-0.0016663517336534058,0.4826334331533936,-0.6122490982572244,-0.009874985455762871,2.3169643828624684
21/04/2022,17:21:04,79.28883,-0.17039006180129945,15.364137335680425,1.8501968383789062,1.8501968383789062,8.165763887291178e-08,0.6047744750976562,0.06016756594181061,8.165763887291178e-08,1.9772332906723022,0.290667325258255,47.64160626044509,-122.14016499999651,123.85037994384766,1.3596568647808637e-07,5.087356845313618,-1.3001539606909457e-06,0.0,0.0,0.0,-0.6889991997595843,-0.011112890318705743,2.8369790115517906,1.585688964698457,-0.3353958692452512,-0.005409610794279374,1.549803161621095,0.0,0.0,0.0,-0.10425289582905038,-0.001681498319823744,0.48173362399365505,-0.584746303930534,-0.009431391998881999,2.3552453875581354
21/04/2022,17:21:04,79.463822,-0.17142618482466787,15.45752816926688,1.8583526611328125,1.8583526611328125,-1.2280280316190328e-05,0.47113102674484253,0.03470649942755699,8.165763887291178e-08,1.9772332906723022,0.290667325258255,47.641607097139605,-122.14016500000237,123.85845947265625,-0.06946712074377724,3.9837743983069136,-0.9773607243295236,0.0,0.0,0.0,-0.6713139196253517,-0.01082764386492953,2.856999345390866,1.5778186793175004,-0.33586592770572776,-0.0054171923823496115,1.5416473388671887,0.0,0.0,0.0,-0.10483183522801015,-0.0016908360520644188,0.4811852184941633,-0.5664820843973415,-0.009136807812865112,2.375814126896703
21/04/2022,17:21:05,79.638821,-0.17223953548818827,15.53020594920963,1.8629684448242188,1.8629684448242188,-8.369431452592835e-05,0.3662644922733307,0.019079433754086494,8.165763887291178e-08,1.9772332906723022,0.290667325258255,47.64160773836875,-122.14016500009967,123.86296844482422,-0.22339818455728191,3.096980619461816,-4.061404292492937,0.0,0.0,0.0,-0.6592856707585167,-0.0106336398509423,2.8683148089750663,1.5733856689349195,-0.33622470596473375,-0.005422979128464789,1.5370315551757825,0.0,0.0,0.0,-0.1051883099220549,-0.0016965856439045308,0.48086219934940305,-0.5540973608364619,-0.008937054207037769,2.3874526096256634
21/04/2022,17:21:05,79.815821,-0.17287911847233772,15.58582061342895,1.8653945922851562,1.8653945922851562,-0.00019116794283036143,0.2856687605381012,0.009797357954084873,8.165763887291178e-08,1.9772332906723022,0.290667325258255,47.64160824649538,-122.1401650004109,123.86542510986328,-0.37526703751238294,2.395018739505951,-8.798014292178884,0.0,0.0,0.0,-0.6510974975758596,-0.01050157254154599,2.8748725488542326,1.5710707789174139,-0.33648206674250414,-0.005427130108753175,1.534605407714845,0.0,0.0,0.0,-0.10539671644531487,-0.0016999470394415362,0.4806864525595746,-0.5457007811305447,-0.008801625502104454,2.394186096294658
21/04/2022,17:21:05,79.988821,-0.17341990408021957,15.630516770295799,1.8666000366210938,1.8666000366210938,-0.00032311168615706265,0.22074660658836365,0.004086937289685011,8.165763887291178e-08,1.9772332906723022,0.290667325258255,47.64160864095662,-122.14016500100365,123.8666000366211,-0.5106746615722553,1.8030341129584078,-15.669363605983191,0.0,0.0,0.0,-0.6450951142606,-0.010404759907434722,2.8790096722964957,1.5699319505969471,-0.3366621400452472,-0.005430034516862747,1.5333999633789075,0.0,0.0,0.0,-0.10551610169023426,-0.0017018726079082332,0.4805957285424036,-0.5395790125703657,-0.00870288729952649,2.3984139437540923
21/04/2022,17:21:05,80.157822,-0.1738497018814087,15.663499593734741,1.86700439453125,1.86700439453125,-0.00043715458014048636,0.17278647422790527,0.000895604258403182,8.165763887291178e-08,1.9772332906723022,0.290667325258255,47.64160894241418,-122.14016500187324,123.86700439453125,-0.5726812193296128,1.3504657060152698,-22.836130118599378,0.0,0.0,0.0,-0.6409822768676903,-0.01033842382045091,2.8814927106064205,1.569558925648955,-0.3367642966916564,-0.005431682204708466,1.5329956054687512,0.0,0.0,0.0,-0.10556875940230243,-0.001702721925844945,0.4805629510859224,-0.5354135174653878,-0.008635701894605965,2.400929759520498
21/04/2022,17:21:05,80.323822,-0.1742221979657188,15.689717850647867,1.8669815063476562,1.86700439453125,-0.0005094342632219195,0.134640634059906,-0.0010120234219357371,8.165763887291178e-08,1.9772332906723022,0.290667325258255,47.64160917365323,-122.14016500294385,123.86698150634766,-0.5496724456427452,1.0022143117060773,-28.669138640985345,0.0,0.0,0.0,-0.6379532662104636,-0.010289568809847589,2.8831484420072053,1.5695920905861531,-0.3368146626163705,-0.005432494558331058,1.533018493652345,0.0,0.0,0.0,-0.1055827126780892,-0.0017029469786796426,0.48056177212762957,-0.5323705535323744,-0.008586621831167946,2.4025866698795757
21/04/2022,17:21:05,80.500821,-0.17453232302796096,15.709836245514452,1.8667144775390625,1.86700439453125,-0.0005158458952791989,0.10537079721689224,-0.002092574490234256,8.165763887291178e-08,1.9772332906723022,0.290667325258255,47.6416093575241,-122.14016500412276,123.86671447753906,-0.4682368449095778,0.7623278081494536,-31.606123942085887,0.0,0.0,1.0,-0.6358648191853519,-0.010255884180411342,3.884231341897785,1.5698559804485182,-0.3368290240578451,-0.005432726194481319,1.5332855224609387,0.0,0.0,1.0,-0.105572610368305,-0.0017027840381984509,0.4805789984960812,-0.5302922088170469,-0.008553100142212892,2.4036523434017036
