date,fly_time,fly_time_s,x,y,z,z_max,vx,vy,vz,vx_max,vy_max,vz_max,latitude,longitude,altitude,pitch,roll,yaw,cx,cy,cz,scx,scy,scz,d,dx,dy,dz,gc_pow_x,gc_pow_y,gc_pow_z,gpc_pow_x,gpc_pow_y,gpc_pow_z,gfc_pow_x,gfc_pow_y,gfc_pow_z
22/04/2022,13:02:34,18.782991,0.0,0.0,1.637176513671875,1.637176513671875,0.0,0.0,-0.0041184984147548676,0,0,0,47.641468,-122.140165,123.63716888427734,0.0,0.0,0.0,0.0,0.0,0.0,-0.4319653337670829,-0.006967182802695009,2.962981686482131,1.7816078743489676,-0.25799739921976594,-0.004161248374512427,1.7628234863281262,0.0,0.0,0.0,-0.07225493623616139,-0.0011654021973574622,0.4936976069737376,-0.35971039753092154,-0.005801780605337547,2.4692840795083932
22/04/2022,13:02:34,18.961995,0.0,0.0,1.636444091796875,1.637176513671875,0.0,0.0,-0.003917907364666462,0,0,0,47.641468,-122.140165,123.63644409179688,0.0,0.0,0.0,0.0,0.0,0.0,-0.43187471201163363,-0.006965721161478086,2.9630272813065694,1.7823325770883365,-0.25799739921976594,-0.004161248374512427,1.7635559082031262,0.0,0.0,0.0,-0.07222705315123969,-0.0011649524701813055,0.4937121331539813,-0.35964765886039396,-0.005800768691296781,2.469315148152588
22/04/2022,13:02:35,19.150993,0.0,0.0,1.6357421875,1.637176513671875,0.0,0.0,-0.0037539664190262556,0,0,0,47.641468,-122.140165,123.6357421875,0.0,0.0,0.0,0.0,0.0,0.0,-0.4317771761105823,-0.006964148001783708,2.9630761288015535,1.7830270897996718,-0.25799739921976594,-0.004161248374512427,1.7642578125000012,0.0,0.0,0.0,-0.07220034358932205,-0.0011645216707955373,0.4937259857187229,-0.35957683252126027,-0.0057996263309881705,2.4693501430828304
22/04/2022,13:02:35,19.335992,0.0,0.0,1.6350555419921875,1.637176513671875,0.0,0.0,-0.003617942100390792,0,0,0,47.641468,-122.140165,123.63504791259766,0.0,0.0,0.0,0.0,0.0,0.0,-0.4316725679876402,-0.00696246077399432,2.963128299859684,1.7837065100079366,-0.25799739921976594,-0.004161248374512427,1.7649444580078137,0.0,0.0,0.0,-0.07217422579229985,-0.0011641004160048566,0.4937394726007184,-0.3594983421953404,-0.005798360357989463,2.4693888272589657
22/04/2022,13:02:35,19.493993,0.0,0.0,1.6344985961914062,1.637176513671875,0.0,0.0,-0.0035235523246228695,0,0,0,47.641468,-122.140165,123.63449096679688,0.0,0.0,0.0,0.0,1.0,0.0,-0.43158170850198624,0.9930390047015807,2.9631734502155327,1.7842575993511467,-0.25799739921976594,-0.004161248374512427,1.765501403808595,0.0,1.0,0.0,-0.07215304944687036,-0.0011637588620463165,0.49375036520818205,-0.3594286590551159,-0.005797236436372939,2.4694230850073504
22/04/2022,13:02:35,19.682993,-3.894721157848835e-05,0.0035118823871016502,1.6370086669921875,1.637176513671875,-1.273284212441328e-12,0.0674874484539032,0.04849902167916298,0,0.0674874484539032,0.04849902167916298,47.64146803338844,-122.140165,123.63714599609375,-2.3432486826401105e-10,-4.190973201522497,2.0932739987248066e-09,0.0,0.0,0.0,-0.45563667966106836,-0.00734897870421085,2.948484049735781,1.7817765139425024,-0.2580150906701411,-0.004161533720486221,1.7629913330078137,0.0,0.0,0.0,-0.07225340089230342,-0.00116537743374685,0.4937002685487159,-0.38338327876876493,-0.0061836012704640005,2.454783781187065
22/04/2022,13:02:35,19.872992,-0.0002957755932584405,0.026670184917747974,1.6407394409179688,1.6407394409179688,2.9607306190060356e-12,0.15982286632061005,-0.006091476883739233,2.9607306190060356e-12,0.15982286632061005,0.04849902167916298,47.64146824427389,-122.140165,123.6407241821289,1.5479489107016945e-09,-1.042308818528859,-3.248701362237862e-08,0.0,0.0,0.0,-0.4392872732655896,-0.007085278601058057,2.961929153573118,1.7781020923020958,-0.25813175294783225,-0.004163415370126544,1.7592605590820325,0.0,0.0,0.0,-0.07242769878099783,-0.001168188690016155,0.49362076689664114,-0.3668595744845918,-0.005917089911041902,2.4683083866764766
22/04/2022,13:02:35,20.026998,-0.000577290658839047,0.052054498344659805,1.6399154663085938,1.6407394409179688,7.50377815439407e-11,0.1668001413345337,-0.003720827866345644,7.50377815439407e-11,0.1668001413345337,0.04849902167916298,47.64146847287577,-122.140165,123.63990020751953,4.367112462775705e-09,0.3336783668686339,-1.2815438022237211e-07,-2.236715885733096e-09,1.0,0.0,-0.44053079704321285,0.992894664599895,2.961498253063211,1.7789359046717659,-0.2582596290259536,-0.004165477887515534,1.7600845336914075,-2.236715885733096e-09,1.0,0.0,-0.07243139548058312,-0.0011682483142029967,0.4936326262834077,-0.36809939932591385,-0.005937087085902,2.4678656267798034
22/04/2022,13:02:36,20.180993,-0.0008637724677100778,0.07788666803389788,1.6399612426757812,1.6407394409179688,1.4569168094169527e-10,0.18907834589481354,0.01747879572212696,1.4569168094169527e-10,0.18907834589481354,0.04849902167916298,47.6414687058885,-122.140165,123.64000701904297,7.3068278829038446e-09,-2.7471243674218893,-2.230280956158758e-07,0.9999999844297016,4.000000003892574,0.0,0.5499150070522273,3.9927405687735824,2.9565726932863927,1.7789095156035155,-0.25838976126195684,-0.004167576794547712,1.76003875732422,0.9999999844297016,4.000000003892574,0.0,-0.07246891113287447,-0.0011688534053689492,0.49362672759171305,-0.37761606624459987,-0.006090581713622825,2.4629459656946797
22/04/2022,13:02:36,20.335995,0.0005036129150539637,0.11968651041388512,1.6607894897460938,1.6607894897460938,0.05465112626552582,0.4755743145942688,0.4695892035961151,0.05465112626552582,0.4755743145942688,0.4695892035961151,47.641469089399536,-122.14016497349489,123.66217803955078,3.485924012461065,-14.43707556753961,-0.31162218972804745,-0.027194032093992945,4.999926047914956,0.0,-0.10103039694243698,4.998735138804497,0.4930944361751682,1.758605995730878,-0.2604308066816979,-0.004200496881963001,1.7392105102539075,-0.027194032093992945,4.999926047914956,0.0,-0.07383636484844404,-0.001190909110458812,0.4930944361751682,-0.0,-0.0,0.0
22/04/2022,13:02:36,20.494993,0.017679697135463357,0.24541224166750908,1.7862091064453125,1.7862091064453125,0.16745486855506897,1.2286133766174316,1.163621425628662,0.16745486855506897,1.2286133766174316,1.163621425628662,47.64147023901625,-122.14016472173513,123.78968048095703,1.3836286979652481,-22.388638996765113,-0.7131895606146839,-0.06223592294564075,4.9996126539858174,0.0,-0.14679014000898247,4.998248876291248,0.4879768154037727,1.6378443686628565,-0.2796297307599757,-0.004510156947741484,1.6137908935546887,-0.06223592294564075,4.9996126539858174,0.0,-0.08455421706334171,-0.0013637776945700094,0.4879768154037727,-0.0,-0.0,-0.0
22/04/2022,13:02:36,20.679,0.04711746901739389,0.5621927408501506,2.0462722778320312,2.0462722778320312,0.17305733263492584,2.109384775161743,1.4007285833358765,0.17305733263492584,2.109384775161743,1.4007285833358765,47.64147310990704,-122.14016428283743,124.05047607421875,-0.5049919090101476,-22.966375948538737,-0.7251066590987162,-0.06327580405599836,4.999599601230189,0.0,-1.2822766934317928,4.979938296562837,-1.7440122238608973,1.3897143158624212,-0.314167880581423,-0.005067223880345528,1.35372772216797,-0.06327580405599836,4.999599601230189,0.0,-0.10789476715692929,-0.001740238179950471,0.46491110773922334,-1.1111061222188652,-0.017921066487401462,-2.2089233316001207
22/04/2022,13:02:36,20.829994,0.06765925989020616,0.9131142199039459,2.2357025146484375,2.2357025146484375,0.1499275416135788,2.5768227577209473,1.0996460914611816,0.17305733263492584,2.5768227577209473,1.4007285833358765,47.641476277629174,-122.1401639584961,124.239013671875,-0.9773493243968612,-20.540194161381397,-0.7564545025136855,-0.06601119078646807,4.999564233279832,0.0,-1.509775334986596,4.976277714824988,-1.4517704183357036,1.2130398435692542,-0.34036288079375737,-0.005489723883770559,1.1642974853515637,-0.06601119078646807,4.999564233279832,0.0,-0.12661842628344502,-0.0020422326819911525,0.43313041356679954,-1.317145717916683,-0.021244285772852315,-1.8849008319025031
22/04/2022,13:02:36,21.016991,0.08669255289714783,1.436796815134585,2.4057693481445312,2.4057693481445312,0.11521227657794952,3.0618956089019775,0.7306671738624573,0.17305733263492584,3.0618956089019775,1.4007285833358765,47.64148091783394,-122.14016363381646,124.40576934814453,-1.060492115699378,-16.75593009752691,-0.8248853245168919,-0.028792935039945088,1.999792730982835,0.0,-0.1734728879783995,1.9974591833547952,0.3910586007854931,1.0601097856487314,-0.36783552038361,-0.005932830973929493,0.99423065185547,-0.028792935039945088,1.999792730982835,0.0,-0.1446799529384544,-0.002333547628039705,0.3910586007854931,-0.0,-0.0,-0.0
22/04/2022,13:02:37,21.179993,0.0976551283383742,1.9422432761639357,2.4813461303710938,2.4813461303710938,0.09514937549829483,3.241945266723633,0.09697415679693222,0.17305733263492584,3.241945266723633,1.4007285833358765,47.64148555146873,-122.14016340944752,124.48165130615234,-1.0272961933013245,-2.743437701848626,-1.0814770777337452,-0.03774842999834247,1.9996437322764924,0.0,-0.03774842999834247,1.9996437322764924,0.0,0.9968403546523479,-0.38694548672428464,-0.006241056237488607,0.9186538696289075,-0.03774842999834247,1.9996437322764924,0.0,-0.0,-0.0,0.0,-0.0,-0.0,0.0
22/04/2022,13:02:37,21.367993,0.10623022355139256,2.550753996707499,2.486297607421875,2.486297607421875,0.06509939581155777,3.1622815132141113,0.06245031580328941,0.17305733263492584,3.241945266723633,1.4007285833358765,47.6414910231285,-122.14016320665725,124.48648071289062,-0.9508500735406327,4.974210954107949,-1.2156187926177497,-0.10607479336341984,4.9988746871883984,0.0,-1.376363798744947,4.978386154843535,1.571828758858336,0.999593720934039,-0.40533048819958856,-0.006537588519348159,0.9137023925781262,-0.10607479336341984,4.9988746871883984,0.0,-0.0,-0.0,0.0,-1.2702890053815272,-0.020488532344864026,1.571828758858336
22/04/2022,13:02:37,21.554999,0.10961882676929235,3.139402661472559,2.4901046752929688,2.4901046752929688,0.036332279443740845,3.1518919467926025,0.08135032653808594,0.17305733263492584,3.241945266723633,1.4007285833358765,47.64149631834472,-122.140163075792,124.49034118652344,-0.8282147625603802,-5.886918925892261,-1.0472713648017815,-0.09138657851902421,4.999164779567342,0.0,-0.2586107883894389,4.996467614892012,0.36382798058519167,1.0014263165297574,-0.41821007415148465,-0.006745323776637502,0.9098953247070325,-0.09138657851902421,4.999164779567342,0.0,-0.1672242098704147,-0.0026971646753295303,0.36382798058519167,-0.0,-0.0,0.0
22/04/2022,13:02:37,21.705994,0.10775756125804037,3.626219356432557,2.5164413452148438,2.5164413452148438,0.010838303714990616,3.370126247406006,0.24220235645771027,0.17305733263492584,3.370126247406006,1.4007285833358765,47.641500704151525,-122.14016302972075,124.51716613769531,-0.6572583743193687,-9.459891777680646,-0.9974424444930176,-0.05222332636217844,2.9995454195900533,0.0,-0.05222332636217844,2.9995454195900533,0.0,0.9801365275280213,-0.42419913278926547,-0.006841921496601344,0.8835586547851575,-0.05222332636217844,2.9995454195900533,0.0,-0.0,-0.0,0.0,-0.0,-0.0,0.0
22/04/2022,13:02:37,21.893991,0.1008852276718244,4.269717491231859,2.5350570678710938,2.5350570678710938,-0.006777969654649496,3.5184004306793213,-0.0315372608602047,0.17305733263492584,3.5184004306793213,1.4007285833358765,47.64150640346123,-122.14016302664668,124.5350570678711,-0.4048619684699144,-1.5691799376410245,-2.9283916881015353,0.0,0.0,0.0,-1.035238831147489,-0.016697400502383986,1.8208562359259428,0.9649379964863803,-0.42770488936979667,-0.006898465957578814,0.8649429321289075,0.0,0.0,0.0,-0.0,-0.0,0.0,-1.035238831147489,-0.016697400502383986,1.8208562359259428
22/04/2022,13:02:38,22.081994,0.09174139250535518,4.899687189608812,2.5511627197265625,2.5511627197265625,-0.014436502940952778,3.228583335876465,0.44083094596862793,0.17305733263492584,3.5184004306793213,1.4007285833358765,47.641512159206314,-122.1401630559435,124.5524673461914,-1.7202104512759535,13.87050066184916,-7.065847143057003,-0.12300994579136518,0.9924054379316981,0.0,-0.12300994579136518,0.9924054379316981,0.0,0.9509861968386633,-0.4287215912994361,-0.006914864375796803,0.8488372802734387,-0.12300994579136518,0.9924054379316981,0.0,-0.0,-0.0,0.0,-0.0,-0.0,-0.0
22/04/2022,13:02:38,22.262991,0.08299206255469471,5.439977480098605,2.6552200317382812,2.6552200317382812,-0.01816728711128235,2.7234878540039062,0.511238694190979,0.17305733263492584,3.5184004306793213,1.4007285833358765,47.64151700725671,-122.14016309279657,124.6567611694336,-2.589236041615128,13.738044855349266,-9.110818182463271,-0.7917225045078162,4.93691963433231,0.0,-0.7917225045078162,4.93691963433231,0.0,0.859370255121906,-0.42868662996784396,-0.006914300483352953,0.74477996826172,-0.7917225045078162,4.93691963433231,0.0,-0.0,-0.0,0.0,-0.0,-0.0,-0.0
22/04/2022,13:02:38,22.443994,0.07229959033429623,5.923125392757356,2.7045211791992188,2.7045211791992188,-0.05799338221549988,2.5751922130584717,0.046726908534765244,0.17305733263492584,3.5184004306793213,1.4007285833358765,47.64152128159,-122.14016316308421,124.70452117919922,-2.5559276203726475,-4.593730639700737,-9.241799290201289,-0.6424051830916616,3.948077453740867,0.0,-0.6424051830916616,3.948077453740867,0.0,0.8154955860202819,-0.4257876201810119,-0.006867542260985182,0.6954788208007825,-0.6424051830916616,3.948077453740867,0.0,-0.0,-0.0,0.0,-0.0,-0.0,0.0
22/04/2022,13:02:38,22.628995,0.04558128328062594,6.4119524993002415,2.7290115356445312,2.7290115356445312,-0.1743936836719513,2.792836904525757,0.15658986568450928,0.17305733263492584,3.5184004306793213,1.4007285833358765,47.64152568210492,-122.14016344659518,124.72901153564453,-2.1300418069500284,-8.04405792237427,-9.545585800484057,0.0,0.0,0.0,0.0,0.0,0.0,0.7847826705955773,-0.4069585196065907,-0.006563847090428787,0.67098846435547,0.0,0.0,0.0,-0.0,-0.0,0.0,-0.0,-0.0,0.0
22/04/2022,13:02:38,22.807991,0.0014796172035858035,6.929523180238903,2.7396240234375,2.7396240234375,-0.2324218600988388,2.7646281719207764,0.1590472161769867,0.17305733263492584,3.5184004306793213,1.4007285833358765,47.64153034295264,-122.1401639572728,124.7396240234375,-1.917333088073969,8.346329293659293,-10.3322937113213,0.0,0.0,0.0,0.0,0.0,0.0,0.7575831054315841,-0.37121406650335387,-0.005987323653281251,0.6603759765625012,0.0,0.0,0.0,-0.0,-0.0,0.0,0.0,0.0,0.0
22/04/2022,13:02:38,22.966994,-0.03820986766368151,7.323633739724755,2.7968826293945312,2.7968826293945312,-0.22157172858715057,2.3701045513153076,0.5274361371994019,0.17305733263492584,3.5184004306793213,1.4007285833358765,47.64153395660015,-122.14016443631449,124.7984619140625,-1.716678990264571,13.93047033039334,-10.612143217549484,-3.5011680285772218,2.3962100149337267,0.0,-3.5011680285772218,2.3962100149337267,0.0,0.6913391566550591,-0.33788987270838566,-0.005449836656588936,0.60311737060547,-3.5011680285772218,2.3962100149337267,0.0,-0.0,-0.0,0.0,0.0,0.0,-0.0
22/04/2022,13:02:39,23.146991,-0.08770175592508167,7.724174895323813,2.8758468627929688,2.8758468627929688,-0.3781566619873047,2.055520534515381,0.43452420830726624,0.17305733263492584,3.5184004306793213,1.4007285833358765,47.64153750112346,-122.14016502715252,124.87584686279297,-13.031134398723426,2.913331545651825,-9.242513229487441,-3.282279275724983,1.4921939405272644,0.0,-3.282279275724983,1.4921939405272644,0.0,0.6014209529008603,-0.29486951722602406,-0.004755959955257794,0.5241531372070325,-3.282279275724983,1.4921939405272644,0.0,-0.0,-0.0,0.0,0.0,0.0,-0.0
22/04/2022,13:02:39,23.29499,-0.17831460374873132,8.016081986017525,2.9639663696289062,2.9639663696289062,-0.8247891068458557,1.9410068988800049,0.6972460746765137,0.17305733263492584,3.5184004306793213,1.4007285833358765,47.64154013637576,-122.14016619031051,124.9639663696289,-16.336222331999085,0.8947159597776089,-8.923736596023298,0.0,0.0,0.0,2.0383184711392976,0.03287610437320893,-1.418186054327652,0.4835414506671888,-0.2089871902010308,-0.0033707611322739695,0.436033630371095,0.0,0.0,0.0,-0.0,-0.0,0.0,2.0383184711392976,0.03287610437320893,-1.418186054327652
22/04/2022,13:02:39,23.476995,-0.35529023373965174,8.348333477042615,3.0489959716796875,3.0489959716796875,-1.0552467107772827,1.8156096935272217,0.17524954676628113,0.17305733263492584,3.5184004306793213,1.4007285833358765,47.64154319219645,-122.14016853937143,125.04952239990234,-4.091445108892034,8.36273190532332,-10.483201634592726,0.0,0.0,0.0,2.4996762459594875,0.04031735880579611,0.0006267071245425727,0.3529930324448458,-0.03741508896785978,-0.0006034691769016831,0.35100402832031374,0.0,0.0,0.0,-0.0,-0.0,0.0,2.4996762459594875,0.04031735880579611,0.0006267071245425727
22/04/2022,13:02:39,23.615991,-0.5104015172692016,8.590206791646779,3.0785751342773438,3.0785751342773438,-1.0322074890136719,1.5526920557022095,0.25757482647895813,0.17305733263492584,3.5184004306793213,1.4007285833358765,47.64154533475969,-122.14017052634712,125.07857513427734,1.3730306107617447,10.750937952458242,-10.719552593724007,-1.9650987585426098,-0.37200385639707184,0.0,0.5255504479720527,-0.3318320950016745,-0.22678584907673738,0.34096578523199794,0.11375568564387795,0.001834769123286506,0.3214248657226575,-1.9650987585426098,-0.37200385639707184,0.0,0.0,0.0,0.0,2.4906492065146626,0.04017176139539734,-0.22678584907673738
22/04/2022,13:02:39,23.762992,-0.6569164081010967,8.793513744138181,3.1160659790039062,3.1160659790039062,-0.9929781556129456,1.2799803018569946,0.2756631374359131,0.17305733263492584,3.5184004306793213,1.4007285833358765,47.64154717847736,-122.1401724467632,125.1160659790039,-3.643572938244733,10.583246597834925,-10.802824031468399,-4.911390068819983,-0.9371486498397377,0.0,-2.4248412007040008,-0.8970430229346416,-0.3020668590915643,0.38296364701410124,0.2569541796109359,0.004144422251789237,0.283934020996095,-4.911390068819983,-0.9371486498397377,0.0,0.0,0.0,0.0,2.4865488681159826,0.04010562690509611,-0.3020668590915643
22/04/2022,13:02:39,23.916992,-0.8162305329460651,8.954829940572381,3.1775360107421875,3.1775360107421875,-1.2620017528533936,0.8845022916793823,0.7362530827522278,0.17305733263492584,3.5184004306793213,1.4007285833358765,47.64154866966291,-122.14017459401569,125.17972564697266,-16.43894476033686,9.457517889350726,-10.669395042576845,0.0,0.0,0.0,3.024814649649137,0.048787333058855735,-1.3000562874636898,0.4697030244101619,0.4136256729074608,0.006671381821085731,0.22246398925781374,0.0,0.0,0.0,0.0,0.0,0.0,3.024814649649137,0.048787333058855735,-1.3000562874636898
22/04/2022,13:02:40,24.064994,-1.0356702174758539,9.061792874708772,3.2896881103515625,3.2896881103515625,-1.5372766256332397,0.6440251469612122,0.43618807196617126,0.17305733263492584,3.5184004306793213,1.4007285833358765,47.64154964729573,-122.14017751066322,125.291015625,-4.9251072419593545,7.965611643537032,-10.367993209672704,0.0,0.0,0.0,5.129338895253053,0.08273127250408067,-1.0609668719830605,0.6409300088586259,0.6312835260715834,0.010181992355992264,0.11031188964843874,0.0,0.0,0.0,0.0,0.0,0.0,5.129338895253053,0.08273127250408067,-1.0609668719830605
22/04/2022,13:02:40,24.243992,-1.3117960635572672,9.16122655943036,3.319183349609375,3.319183349609375,-1.4674309492111206,0.4792294204235077,0.09395630657672882,0.17305733263492584,3.5184004306793213,1.4007285833358765,47.6415505649821,-122.14018116910458,125.31946563720703,4.843064654399431,6.224974467181939,-10.38459574642116,0.0,0.0,0.0,5.543172551539102,0.08940600889579156,-0.1552282304170592,0.9094499405460632,0.9057342058854233,0.014608616223958037,0.08081665039062624,0.0,0.0,0.0,0.0,0.0,0.0,5.543172551539102,0.08940600889579156,-0.1552282304170592
22/04/2022,13:02:40,24.416991,-1.5540016583399847,9.230846432968974,3.3409652709960938,3.3409652709960938,-1.240163803100586,0.34507352113723755,0.1371084451675415,0.17305733263492584,3.5184004306793213,1.4007285833358765,47.64155121187121,-122.1401843740365,125.34137725830078,7.160420895863208,4.855476854743975,-10.52407542516645,-4.298010322140552,1.2357618179783958,0.0,0.7651520927935804,1.317425727896687,-0.25278369904178416,1.1484216977549677,1.146754199171606,0.018496035470509042,0.05903472900390749,-4.298010322140552,1.2357618179783958,0.0,0.4376084396881979,0.007058200640131945,0.0225280148662003,4.625553975245935,0.07460570927815932,-0.2753117139079845
22/04/2022,13:02:40,24.570996,-1.728249411797151,9.275728833861649,3.3469467163085938,3.3469467163085938,-1.1907395124435425,0.3158949613571167,0.01678324118256569,0.17305733263492584,3.5184004306793213,1.4007285833358765,47.64155162373033,-122.14018663733891,125.3469467163086,-5.93670302602001,-2.687247004140314,-10.721098785894368,-4.302234324454837,1.2209749454770291,0.0,1.084942925847852,1.3078649011270707,0.044789388937613916,1.3214700275883462,1.3202329131986543,0.021294079245139486,0.05305328369140749,-4.302234324454837,1.2209749454770291,0.0,0.46832144459310016,0.0075535716869854505,0.018819399372926374,4.918855805709589,0.07933638396305615,0.025969989564687546
22/04/2022,13:02:40,24.746992,-1.9820528036216274,9.340264202095568,3.4137954711914062,3.4137954711914062,-1.674415111541748,0.452319860458374,0.6406330466270447,0.17305733263492584,3.5184004306793213,1.4007285833358765,47.641552241821856,-122.1401900732795,125.41571044921875,-14.043301366061941,-7.135388985804678,-10.13935655371055,-0.17604294132327886,0.9843824880656139,0.0,16.787368128920903,1.257985892424382,-4.352052833313723,1.5731947441035146,1.5729296740160235,0.02536983345187238,-0.013795471191405007,-0.17604294132327886,0.9843824880656139,0.0,0.4921422632842233,0.007937778440068441,-0.004316362344335299,16.47126880695996,0.2656656259186998,-4.347736470969388
22/04/2022,13:02:40,24.928991,-2.3124846909195185,9.42731951456517,3.494171142578125,3.494171142578125,-1.8838003873825073,0.5427550077438354,0.04700528085231781,0.17305733263492584,3.5184004306793213,1.4007285833358765,47.64155306044612,-122.14019446775124,125.49432373046875,1.004775297095227,-3.6907358273516335,-10.650107695426657,-1.9068286028373402,4.729059597784891,0.0,25.484740011824453,5.170859091569751,-0.9202522674077525,1.9044489473545652,1.9018718704789568,0.030675352749659268,-0.09417114257812376,-1.9068286028373402,4.729059597784891,0.0,0.49923628605753123,0.008052198162217899,-0.024719673393485284,26.89233232860426,0.4337472956226424,-0.8955325940142672
22/04/2022,13:02:41,25.103992,-2.6418072503292933,9.54155001603067,3.5190658569335938,3.5190658569335938,-1.8140606880187988,0.9563727974891663,0.5339031219482422,0.17305733263492584,3.5184004306793213,1.4007285833358765,47.64155410640103,-122.14019875953295,125.5190658569336,4.18501855918563,-16.67247666197557,-11.699896648958209,0.0,0.0,0.0,33.049528439251624,0.5330569103105,-6.658072275631428,2.232733776058717,2.2292668320603126,0.035955916646132735,-0.1190658569335925,0.0,0.0,0.0,0.5004822553836584,0.008072294441671608,-0.02673091787860959,32.549046183867965,0.5249846158688284,-6.631341357752818
22/04/2022,13:02:41,25.25699,-2.9032557541504502,9.707053592428565,3.598114013671875,3.598114013671875,-1.775071144104004,1.2758656740188599,0.253735214471817,0.17305733263492584,3.5184004306793213,1.4007285833358765,47.64155569025061,-122.14020235754872,125.5996322631836,7.159206272284975,-5.256068049737047,-10.557705614608484,0.0,0.0,0.0,35.68879553428128,0.575625734423892,-4.180249739573274,2.4961764942712548,2.487978620604359,0.04012868742910136,-0.19811401367187376,0.0,0.0,0.0,0.5105332206582427,0.008234406784810118,-0.04065299621942243,35.17826231362304,0.5673913276390818,-4.139596743353851
22/04/2022,13:02:41,25.431991,-3.2072266624309123,9.936124024912715,3.6224365234375,3.6224365234375,-1.5194690227508545,1.265100359916687,0.19850356876850128,0.17305733263492584,3.5184004306793213,1.4007285833358765,47.64155774681769,-122.14020628912989,125.6230239868164,8.629428907247075,5.5588702549724625,-9.165244319730064,0.35010362589268773,4.108214630607412,0.0,31.079639020091754,4.6038522982557755,-3.2751659940577698,2.797396994741615,2.788176749243131,0.04497059272972592,-0.22243652343749876,0.35010362589268773,4.108214630607412,0.0,0.5488867291681486,0.008853011760776198,-0.04378935296346823,30.18064866503092,0.48678465588758707,-3.2313766410943017
22/04/2022,13:02:41,25.606991,-3.451956439879723,10.153360735625029,3.6637344360351562,3.6637344360351562,-1.1644728183746338,1.331032395362854,0.44659119844436646,0.17305733263492584,3.5184004306793213,1.4007285833358765,47.64155972731707,-122.14020950078634,125.66505432128906,11.950311758979344,-7.091402583156329,-11.546723344316916,-0.021073067536629297,5.098975968351351,0.0,22.915604766770322,5.468922385033717,-4.913118966961151,3.0411911884946234,3.029339971206477,0.048860322116231814,-0.263734436035155,-0.021073067536629297,5.098975968351351,0.0,0.6104850536542981,0.009846533123456081,-0.05314884854910649,22.326192780652654,0.3600998835589095,-4.859970118412044
22/04/2022,13:02:41,25.762993,-3.6035992780234665,10.382631205953658,3.7706756591796875,3.7706756591796875,-0.8235785365104675,1.825148105621338,0.9873800277709961,0.17305733263492584,3.5184004306793213,1.4007285833358765,47.64156176934599,-122.14021143890668,125.77067565917969,11.715592144845074,-15.737667033452292,-13.419352812736303,-0.23207646506993002,0.9726975451601827,0.0,18.96915809776275,1.2823948768187647,-9.200230229936762,3.199206371798489,3.1772464213141944,0.05124591002119594,-0.37067565917968626,-0.23207646506993002,0.9726975451601827,0.0,0.6678415061740542,0.010771637196355556,-0.07791419288977518,18.53339305665863,0.29892569446222644,-9.122316037046987
22/04/2022,13:02:41,25.943994,-3.739982716506347,10.745863877236843,3.9174270629882812,3.9174270629882812,-0.6800439953804016,2.1216771602630615,0.39585080742836,0.17305733263492584,3.5184004306793213,1.4007285833358765,47.64156510802673,-122.14021322807321,125.91863250732422,5.743803343912053,-2.790442119248302,-11.466912920939272,-0.19880201578727544,0.9800396719107426,0.0,13.298164093471422,1.1977326736729794,-3.747553443546267,3.3483881557371546,3.3077373216805497,0.053350601962590005,-0.51742706298828,-0.19880201578727544,0.9800396719107426,0.0,0.7361107546379053,0.011872754107063099,-0.1151492965629035,12.760855354620793,0.2058202476551736,-3.632404146983364
22/04/2022,13:02:42,26.117993,-3.857474570046179,11.119298191741109,3.9309310913085938,3.9309310913085938,-0.5863986611366272,2.086280107498169,-0.05876823514699936,0.17305733263492584,3.5184004306793213,1.4007285833358765,47.641568478527354,-122.14021473328013,125.93075561523438,2.7100359094414577,4.613561517547965,-10.798438897403951,-0.9367727537210746,4.911461779133157,0.0,10.54977294509776,5.096728645243128,-1.100777268097433,3.460592554824591,3.419177050551252,0.05514801694437388,-0.5309310913085925,-0.9367727537210746,4.911461779133157,0.0,0.8018797429992944,0.012933544241923833,-0.12451618642568663,10.684665955819542,0.1723333218680473,-0.9762610816717464
22/04/2022,13:02:42,26.295993,-3.9608689217129722,11.490710288286209,3.9182968139648438,3.9309310913085938,-0.5338568687438965,2.1683189868927,0.1219707578420639,0.17305733263492584,3.5184004306793213,1.4007285833358765,47.641571832437464,-122.14021605270774,125.91864013671875,1.5207051652991994,-9.4159610484704,-11.213142809305912,0.00861376105800371,5.099012237984964,0.0,11.791451937297932,5.289058015021093,-1.9710278668931747,3.5549981070461434,3.5165555519352196,0.056718637934437766,-0.5182968139648425,0.00861376105800371,5.099012237984964,0.0,0.8665287282842414,0.01397626981103584,-0.12771562184808122,10.916309447955687,0.17606950722509176,-1.8433122450450934
22/04/2022,13:02:42,26.477991,-4.060321987723,11.912738567218184,3.9835052490234375,3.9835052490234375,-0.5168859958648682,2.6532676219940186,0.5392231941223145,0.17305733263492584,3.5184004306793213,1.4007285833358765,47.641575652271484,-122.1402173136947,125.98511505126953,4.770582433499008,-14.495061970409337,-11.404778599911149,-0.008440796685905139,5.099012527240084,0.0,14.169400770781921,5.3276873912315,-4.9792875926931535,3.6565051801215094,3.6091776149908155,0.058212542177269455,-0.5835052490234363,-0.008440796685905139,5.099012527240084,0.0,0.9421915137709155,0.015196637318885273,-0.1523265830939344,13.235650053696911,0.21347822667253114,-4.826961009599219
22/04/2022,13:02:42,26.65,-4.151420432492159,12.420938409864902,4.080230712890625,4.080230712890625,-0.4424690902233124,3.111227512359619,0.5099568367004395,0.17305733263492584,3.5184004306793213,1.4007285833358765,47.64158016211635,-122.14021843069172,126.08023071289062,5.501116256798361,-14.114689726734008,-11.343010324719408,-0.1966822087147197,0.9804672910276505,0.0,13.301869540522627,1.1981858676282569,-4.926704622903556,3.754670452255542,3.6920577272011017,0.059549318180661004,-0.6802307128906238,-0.1966822087147197,0.9804672910276505,0.0,1.0228929430110074,0.01649827327437055,-0.18845945736678515,12.47565880622634,0.20122030332623575,-4.738245165536771
22/04/2022,13:02:42,26.829994,-4.230021637282334,12.981501525267959,4.127311706542969,4.127311706542969,-0.39329230785369873,3.2662882804870605,-0.05354056879878044,0.17305733263492584,3.5184004306793213,1.4007285833358765,47.64158530125064,-122.14021941004557,126.12715148925781,1.4098323678254914,2.7909644787028522,-10.283339630371762,0.0,0.0,0.0,11.179862284024619,0.18032035941974658,-1.6196094065405051,3.8317481761521903,3.7615995004282654,0.060670959684326675,-0.7273117065429675,0.0,0.0,0.0,1.0942013625786984,0.01764840907384992,-0.21156570768050856,10.085660921445921,0.16267195034589665,-1.4080436988599965
22/04/2022,13:02:42,27.005991,-4.299464602372609,13.532952386885881,4.1591949462890625,4.1591949462890625,-0.31339043378829956,2.8776235580444336,0.5088155269622803,0.17305733263492584,3.5184004306793213,1.4007285833358765,47.64159018138423,-122.14022023732143,126.15919494628906,-0.4795827876945506,14.511139779449367,-10.099025396269878,4.7471808345144515,1.8612560609488082,0.0,17.383392705359803,2.0650659298334024,-4.911618267734552,3.8972904757125164,3.822132349423507,0.06164729595844243,-0.7591949462890613,4.7471808345144515,1.8612560609488082,0.0,1.1601565360247106,0.018712202193946568,-0.23044334903448135,11.47605533482064,0.1850976666906478,-4.68117491870007
22/04/2022,13:02:43,27.179993,-4.3411083144601434,13.997745719738305,4.272987365722656,4.272987365722656,0.0830850601196289,2.372772693634033,0.9673119187355042,0.17305733263492584,3.5184004306793213,1.4007285833358765,47.641594431218984,-122.14022072006857,126.27586364746094,17.039889753882292,12.871251217246945,-10.44138618424266,0.0,0.0,0.0,9.942121564226523,0.16035679942300485,-7.055312610169307,3.9543391101061536,3.8562705139560514,0.06219791151541898,-0.872987365722655,0.0,0.0,0.0,1.2155361320786484,0.01960542148513911,-0.2751745973327581,8.726585432147875,0.14075137793786574,-6.780138012836549
22/04/2022,13:02:43,27.319992,-4.298637131578289,14.317002139054239,4.409782409667969,4.409782409667969,0.4562548100948334,2.1863980293273926,0.6777881383895874,0.4562548100948334,3.5184004306793213,1.4007285833358765,47.64159729415412,-122.14022009236645,126.41183471679688,8.156201155304924,13.46147029222896,-10.23186507492875,0.0,0.0,0.0,4.94225167862965,0.07971373675208766,-3.456433212316197,3.9407288141523296,3.8086624190287592,0.0614300390165905,-1.0097824096679675,0.0,0.0,0.0,1.189708148212951,0.01918884110020814,-0.3154247419519114,3.752543530416699,0.060524895651879525,-3.141008470364286
22/04/2022,13:02:43,27.502992,-4.20856628974434,14.685832696966827,4.4881439208984375,4.4881439208984375,0.5690835118293762,1.8526822328567505,0.3529450297355652,0.5690835118293762,3.5184004306793213,1.4007285833358765,47.641600594502606,-122.14021883431543,126.48920440673828,-1.4992506308761335,12.970873528954202,-10.116767046200964,1.3357614659703403,-1.7932488131959734,0.0,5.003888582038286,-1.7340854726142323,-2.151558905979578,3.8693079796911722,3.7126676698479324,0.05988173661044982,-1.0881439208984363,1.3357614659703403,-1.7932488131959734,0.0,1.1065100780489503,0.017846936742724796,-0.32430648846389637,2.561617038018995,0.04131640383901628,-1.8272524175156817
22/04/2022,13:02:43,27.679991,-4.1100054394919425,14.963573469780385,4.581459045410156,4.581459045410156,0.6221721172332764,1.2313649654388428,0.8711912035942078,0.6221721172332764,3.5184004306793213,1.4007285833358765,47.641603066754804,-122.14021747916573,126.58406066894531,-0.3871388586684428,18.514444917803473,-10.232482734269084,3.66285589511952,-3.4034521726606033,0.0,7.87648844369291,-3.3354903573610297,-4.341040810022331,3.7985308413345393,3.6096539282914546,0.05822022464986354,-1.181459045410155,3.66285589511952,-3.4034521726606033,0.0,1.0279834068207918,0.016580377529367998,-0.3364644696271026,3.1856491417525987,0.051381437770205575,-4.004576340395229
22/04/2022,13:02:43,27.850995,-3.985391460475512,15.114571780897677,4.765296936035156,4.765296936035156,0.9350766539573669,0.3615269362926483,1.3796740770339966,0.9350766539573669,3.5184004306793213,1.4007285833358765,47.64160438945594,-122.14021578564001,126.76941680908203,8.088452167985784,25.895156629966635,-9.787619778912816,0.0,0.0,0.0,4.440953392780316,0.07162828052872182,-9.349539062636543,3.7411168348803736,3.482637535410198,0.05617157315177934,-1.365296936035155,0.0,0.0,0.0,0.9568040210973793,0.015432322920926009,-0.37509548010901583,3.484149371682937,0.056195957607795805,-8.974443582527527
22/04/2022,13:02:43,28.012994,-3.8077086824923754,15.126067456789315,4.9774932861328125,4.9774932861328125,1.164554238319397,-0.09640683978796005,0.9361467361450195,1.164554238319397,3.5184004306793213,1.4007285833358765,47.64160446516006,-122.14021345579383,126.97749328613281,0.2717627549999641,12.858326256647066,-11.013608045018035,0.0,0.0,0.0,2.0934617774187845,0.033765512539009876,-4.737612177314124,3.662394366766865,3.304815602907608,0.05330347746625108,-1.5774932861328113,0.0,0.0,0.0,0.8657394242406359,0.013963539100655245,-0.41324488061558856,1.2277223531781485,0.019801973438354627,-4.324367296698536
22/04/2022,13:02:44,28.192993,-3.6013506236486137,15.099706708453596,5.0678863525390625,5.0678863525390625,1.1394752264022827,-0.21029719710350037,0.08459658175706863,1.164554238319397,3.5184004306793213,1.4007285833358765,47.641604201757126,-122.14021066699686,127.06815338134766,-5.01279539106603,2.4500207102734692,-10.820731902234026,0.0,0.0,-5.0,1.7757987266108137,0.028641914945335172,-7.68267747541693,3.5196234475530357,3.0989362760419112,0.04998284316196688,-1.6678863525390613,0.0,0.0,-5.0,0.7492126610031445,0.012084075177470212,-0.4032356464046629,1.0265860656076693,0.01655783976786496,-2.279441829012267
22/04/2022,13:02:44,28.368993,-3.4078250381862745,15.0611314130947,5.0233917236328125,5.0678863525390625,1.0297455787658691,-0.24082399904727936,-0.6845812797546387,1.164554238319397,3.5184004306793213,1.4007285833358765,47.641603834563526,-122.14020810081828,127.0213623046875,-8.5286519134204,-1.1836299921410096,-10.562172792840352,0.0,0.0,-5.0,0.6414200965679446,0.010345485428515457,-5.358309126353534,3.3291014332093574,2.9060830426986133,0.04687230714030122,-1.6233917236328113,0.0,0.0,-5.0,0.6414200965679446,0.010345485428515457,-0.35830912635353396,0.0,0.0,-0.0
22/04/2022,13:02:44,28.541992,-3.2399648315040395,15.021347645670176,4.83477783203125,5.0678863525390625,0.8822649121284485,-0.23431068658828735,-1.5046045780181885,1.164554238319397,3.5184004306793213,1.4007285833358765,47.64160346637966,-122.14020591334335,126.83477783203125,-9.41097680679288,-2.876614472984015,-10.375180927258898,0.0,0.0,-5.0,1.8808673114040624,0.03033656953877063,-3.172826751170682,3.092273592449871,2.738907999550059,0.04417593547661447,-1.4347778320312488,0.0,0.0,-5.0,0.5582865347014115,0.009004621527442247,-0.29245857985836654,1.322580776702651,0.021331948011328383,2.1196318286876847
22/04/2022,13:02:44,28.683991,-3.1214069119887426,14.990203413181007,4.573577880859375,5.0678863525390625,0.7518612742424011,-0.2148752361536026,-2.142069101333618,1.164554238319397,3.5184004306793213,1.4007285833358765,47.6416031743546,-122.14020433967643,126.57357788085938,-8.653290284579656,-3.2949843217562984,-10.344095082793972,0.0,0.0,0.0,1.7467666556426715,0.028173655736170974,3.170980384561246,2.8719506031491244,2.6208831100305603,0.04227230822629835,-1.1735778808593738,0.0,0.0,0.0,0.5167884669438425,0.008335297853932746,-0.2314073113628663,1.229978188698829,0.019838357882238228,3.402387695924112
22/04/2022,13:02:44,28.831995,-3.0287322248332202,14.963595520704985,4.283454895019531,5.0678863525390625,0.5034245848655701,-0.1623436063528061,-1.5792890787124634,1.164554238319397,3.5184004306793213,1.4007285833358765,47.641602921333906,-122.14020308967243,126.2786865234375,-5.064933141046477,-2.2440250418993,-10.490556320727702,0.0,0.0,0.0,2.0079352531555483,0.03238605247024794,2.068820704109565,2.6788589566817675,2.5286615734655893,0.04078486408815252,-0.88345489501953,0.0,0.0,0.0,0.501497257136403,0.008088665437683494,-0.17521134947640013,1.5064379960191454,0.02429738703256445,2.2440320535859652
22/04/2022,13:02:44,29.009997,-2.9590605897828937,14.940676959231496,4.106353759765625,5.0678863525390625,0.2934303879737854,-0.10734899342060089,-0.39514032006263733,1.164554238319397,3.5184004306793213,1.4007285833358765,47.64160271258071,-122.14020218580403,126.10635375976562,-2.849270510713698,-1.4505843647968313,-10.566091769354848,0.0,0.0,-3.0,2.993587918329854,0.04828367610209248,-3.0311634034688892,2.559110665026834,2.45937761655477,0.03966738091217259,-0.7063537597656238,0.0,0.0,-3.0,0.4973110328790515,0.008021145691597379,-0.14283187562678254,2.496276885450803,0.0402625304104951,0.11166847215789304
22/04/2022,13:02:45,29.181991,-2.9152217170922086,14.924881480634212,4.019676208496094,5.0678863525390625,0.23705872893333435,-0.08992746472358704,-0.8966609239578247,1.164554238319397,3.5184004306793213,1.4007285833358765,47.64160256367598,-122.14020159505111,126.01700592041016,-2.3670270766514134,-1.3157980613165672,-10.58299753305846,0.0,0.0,-5.0,2.6447490335125754,0.04265724247600816,-3.8304100423727654,2.494319524781048,2.4158048449162886,0.03896459427284249,-0.6196762084960925,0.0,0.0,-5.0,0.495959880194726,0.007999352906366369,-0.12721828038882574,2.1487891533178494,0.03465788956964179,1.2968082380160606
22/04/2022,13:02:45,29.35599,-2.8764525306178257,14.910580622032285,3.7902908325195312,5.0678863525390625,0.19698645174503326,-0.07607558369636536,-1.7145451307296753,1.164554238319397,3.5184004306793213,1.4007285833358765,47.64160243152465,-122.14020108265986,125.78516387939453,-2.239013642043411,-1.30754502801284,-10.589007954128197,0.0,0.0,-5.0,3.0528030080403856,0.049238758194196534,-1.175915033915179,2.40940655169961,2.377276340475662,0.03834316678186234,-0.39029083251953,0.0,0.0,-5.0,0.5001030450480247,0.008066178145935214,-0.08210473072654713,2.552699962992361,0.04117258004826132,3.906189696811368
22/04/2022,13:02:45,29.531993,-2.844790337025188,14.898711827583611,3.421173095703125,5.0678863525390625,0.15802116692066193,-0.061850134283304214,-2.4693899154663086,1.164554238319397,3.5184004306793213,1.4007285833358765,47.64160232363059,-122.14020067081282,125.42117309570312,-1.8837887973645566,-1.1332176286027278,-10.598079124403888,0.0,0.0,0.0,8.451560374425727,0.13631548991008383,19.230480495856458,2.346214409542813,2.3458137639049776,0.037835705869431635,-0.021173095703123757,0.0,0.0,0.0,0.504063788912067,0.008130061111484203,-0.004549632629552038,7.947496585513659,0.12818542879859962,19.23503012848601
22/04/2022,13:02:45,29.705992,-2.8224752499954775,14.89021319989115,3.0353240966796875,5.0678863525390625,0.09042385220527649,-0.03622260317206383,-1.5698715448379517,1.164554238319397,3.5184004306793213,1.4007285833358765,47.64160224494427,-122.14020037500494,125.03532409667969,-0.9181778953316408,-0.5641812399733008,-10.613811375477088,0.0,0.0,0.0,4.248440167082094,0.0685232285013241,6.2079995995019,2.3523824163810825,2.3236415195290934,0.03747808902466332,0.36467590332031374,0.0,0.0,0.0,0.4982132990925632,0.00803569837246081,0.0781903677334852,3.7502268679895314,0.060487530128863286,6.129809231768415
22/04/2022,13:02:45,29.884995,-2.8102269319351763,14.885425730608404,2.8627777099609375,5.0678863525390625,0.052045904099941254,-0.021374644711613655,-0.38264092803001404,1.164554238319397,3.5184004306793213,1.4007285833358765,47.641602200650645,-122.14020021265986,124.86277770996094,-0.5130577970310218,-0.3211020524648949,-10.618180735829766,0.0,0.0,-5.0,2.722317002843372,0.04390833875553826,-3.570051316706846,2.373374781643377,2.3114735841511305,0.03728183200243684,0.5372222900390637,0.0,0.0,-5.0,0.4920286567492888,0.007935946076601275,0.11435508653704556,2.2302883460940834,0.03597239267893699,1.3155935967561083
22/04/2022,13:02:46,30.034991,-2.803540181252174,14.88275876455009,2.8005523681640625,5.0678863525390625,0.042225711047649384,-0.017505019903182983,-0.7470396757125854,1.164554238319397,3.5184004306793213,1.4007285833358765,47.641602175520525,-122.14020012234649,124.79833221435547,-0.49592961142616127,-0.31421635077965143,-10.618857041199083,0.0,0.0,-5.0,2.73228301542684,0.04406908089397956,-2.7584123041283903,2.3817993240199855,2.304831576939207,0.03717470285385893,0.5994476318359387,0.0,0.0,-5.0,0.48922818753742503,0.007890777218345725,0.1272399603428521,2.243054827889415,0.036178303675633836,2.114347735528758
22/04/2022,13:02:46,30.208993,-2.7968508455669507,14.88007155712694,2.6017074584960938,5.0678863525390625,0.03396866098046303,-0.014176679775118828,-1.5592888593673706,1.164554238319397,3.5184004306793213,1.4007285833358765,47.64160215114601,-122.14020003538539,124.6017074584961,-0.45394284527870565,-0.28848757377963385,-10.307246293743935,0.0,0.0,0.0,5.619095052436533,0.09063056536187777,9.190417282314584,2.433168696205798,2.2981873117860827,0.03706753728686962,0.7982925415039075,0.0,0.0,0.0,0.47993909604921103,0.007740953162083489,0.16671043251668377,5.139155956387322,0.08288961219979428,9.0237068497979
22/04/2022,13:02:46,30.380992,-2.792146236053668,14.878164546564221,2.3647994995117188,5.0678863525390625,0.018036426976323128,-0.007635299116373062,-0.7809867858886719,1.164554238319397,3.5184004306793213,1.4007285833358765,47.64160213332432,-122.14019997231566,124.3624267578125,-0.23022548761317282,-0.1433162994632868,-9.603339672872155,0.0,0.0,0.0,3.0907791626482894,0.0498512768169048,3.22821741322959,2.516588577098023,2.2935146760736846,0.036992172194736384,1.0352005004882825,0.0,0.0,0.0,0.46824318434780776,0.007552309424964545,0.2113461857662448,2.6225359783004816,0.04229896739194026,3.016871227463345
22/04/2022,13:02:46,30.553992,-2.78974467352964,14.87717321421951,2.28265380859375,5.0678863525390625,0.010977260768413544,-0.00472585903480649,-0.3421280086040497,1.164554238319397,3.5184004306793213,1.4007285833358765,47.641602124244145,-122.1401999407723,124.28162384033203,-0.12323524619807028,-0.07635167358514722,-9.251512469585041,0.0,0.0,0.0,2.7054159908534,0.04363574178795643,2.005645470700202,2.5493339319092394,2.29112972321621,0.03695370521316299,1.1173461914062512,0.0,0.0,0.0,0.46425664222273927,0.0074880103584309375,0.22641031006068452,2.241159348630661,0.03614773142952549,1.7792351606395174
22/04/2022,13:02:46,30.724991,-2.788145905942656,14.876504579558969,2.2303237915039062,5.0678863525390625,0.007772465236485004,-0.0033860057592391968,-0.2748330235481262,1.164554238319397,3.5184004306793213,1.4007285833358765,47.64160211818634,-122.14019992003023,124.2303237915039,-0.07456461026844835,-0.04653324152865012,-9.075383867294912,0.0,0.0,0.0,2.701756676915929,0.043576720595416604,1.9294398463719027,2.5712855516002913,2.2895421530587554,0.036928099242881984,1.169676208496095,0.0,0.0,0.0,0.4618154242525312,0.007448635875040591,0.2359312379302824,2.2399412526633977,0.036128084720376014,1.6935086084416202
22/04/2022,13:02:46,30.904993,-2.7869525690330192,14.876000864431262,2.1859512329101562,5.0678863525390625,0.005709685385227203,-0.002507980214431882,-0.22660069167613983,1.164554238319397,3.5184004306793213,1.4007285833358765,47.6416021135355,-122.14019990421868,124.18595123291016,-0.04921059902373408,-0.03103218318747494,-8.98511322991325,0.0,0.0,0.0,2.7011432305738694,0.04356682629957558,1.885054646129289,2.5907249141025903,2.2883572488343793,0.03690898788442354,1.214048767089845,0.0,0.0,0.0,0.4598520353176655,0.007416968311574861,0.24396662575545852,2.241291195256204,0.03614985798800072,1.6410880203738305
22/04/2022,13:02:47,31.080993,-2.7860632649390027,14.87562120705843,2.1493301391601562,5.0678863525390625,0.004305376671254635,-0.0019008408999070525,-0.18711279332637787,1.164554238319397,3.5184004306793213,1.4007285833358765,47.64160210997898,-122.14019989226455,124.14877319335938,-0.03493032953235175,-0.022219259519658648,-8.941017800456551,0.0,0.0,0.0,2.7014501486934703,0.04357177659182908,1.8499575419456589,2.607311831541554,2.2874742979422376,0.03689474674100346,1.250669860839845,0.0,0.0,0.0,0.4583168954132613,0.007392207990536398,0.25058341784329313,2.243133253280209,0.03617956860129268,1.5993741241023658
22/04/2022,13:02:47,31.255992,-2.7853880958864465,14.875330402515829,2.1190872192382812,5.0678863525390625,0.0032902047969400883,-0.0014571452047675848,-0.15458352863788605,1.164554238319397,3.5184004306793213,1.4007285833358765,47.64160210734743,-122.1401998834911,124.11908721923828,-0.02588786476187884,-0.016568921173256743,-8.91948279740079,0.0,0.0,0.0,2.702332408975629,0.04358600659637934,1.821680352921867,2.6213680554317005,2.2868039936622937,0.036883935381649025,1.28091278076172,0.0,0.0,0.0,0.45711418086216726,0.007372809368744458,0.25604441751742113,2.245218228113462,0.03621319722763488,1.5656359354044458
22/04/2022,13:02:47,31.525992,-2.7846622669603676,14.875022779218853,2.0834426879882812,5.0678863525390625,0.0022276672534644604,-0.0009890679502859712,-0.11640643328428268,1.164554238319397,3.5184004306793213,1.4007285833358765,47.641602104481365,-122.14019987378471,124.08309173583984,-0.017223255447408537,-0.011080703385762817,-8.905984182117486,0.0,0.0,0.0,2.7041270107104585,0.04361495178565144,1.7892321973664207,2.6383441096996623,2.286083313884027,0.03687231151425685,1.31655731201172,0.0,0.0,0.0,0.4557805764622512,0.007351299620358562,0.26248441908042147,2.2483464342482073,0.03626365216529288,1.5267477782859993
22/04/2022,13:02:47,31.682991,-2.7843425628961995,14.874877179972827,2.0663681030273438,5.0678863525390625,0.001766130793839693,-0.0007848321693018079,-0.09823636710643768,1.164554238319397,3.5184004306793213,1.4007285833358765,47.64160210315256,-122.14019986956959,124.06607055664062,-0.013617365750484733,-0.008774442242228696,-8.902625636189194,0.0,0.0,0.0,2.7052627370044893,0.04363326995168307,1.7741072934749635,2.6466317499031233,2.2857660407320353,0.03686719420535489,1.3336318969726575,0.0,0.0,0.0,0.45517668489170654,0.007341559433737099,0.2655731754311317,2.2500860521127826,0.03629171051794597,1.5085341180438319
22/04/2022,13:02:47,31.853993,-2.7840723232366145,14.874771573580801,2.0509567260742188,5.0678863525390625,0.0013770717196166515,-0.0006123529747128487,-0.08194207400083542,1.164554238319397,3.5184004306793213,1.4007285833358765,47.64160210217548,-122.14019986600462,124.05071258544922,-0.010612066480265348,-0.006845900107819666,-8.900786051086088,0.0,0.0,0.0,2.70642648698736,0.04365204011269942,1.7607527799653762,2.654199651032121,2.2854975742417523,0.03686286410067119,1.3490432739257825,0.0,0.0,0.0,0.45465258222125804,0.007333106164858556,0.26836432247015773,2.251773904766102,0.036318933947840866,1.4923884574952184
22/04/2022,13:02:47,31.996993,-2.7838948749704286,14.874683764763176,2.040191650390625,5.0678863525390625,0.0011218998115509748,-0.0004991077003069222,-0.0705852136015892,1.164554238319397,3.5184004306793213,1.4007285833358765,47.64160210136779,-122.14019986366505,124.03997802734375,-0.008652945167155106,-0.005584555725695299,-8.899984623244478,0.0,0.0,0.0,2.707318522888811,0.0436664277885269,1.7515228119888382,2.659536081700415,2.2853215880288715,0.03686002561336643,1.3598083496093762,0.0,0.0,0.0,0.4542989410652104,0.007327402275244838,0.27031622005198797,2.2530195818236005,0.03633902551328206,1.4812065919368502
22/04/2022,13:02:48,32.171994,-2.7837235095212236,14.874620500952005,2.0291061401367188,5.0678863525390625,0.000875062367413193,-0.00038948090514168143,-0.058980006724596024,1.164554238319397,3.5184004306793213,1.4007285833358765,47.64160210079457,-122.14019986140038,124.0289306640625,-0.006757574109962641,-0.004364241852014497,-8.899465863500124,0.0,0.0,0.0,2.7082893082108948,0.04368208561630324,1.7422272878898668,2.6650750157753804,2.2851512872667255,0.03685727882688106,1.3708938598632825,0.0,0.0,0.0,0.4539459582117506,0.007321709003415012,0.2723284582031291,2.2543433499991443,0.036360376612888226,1.4698988296867377
22/04/2022,13:02:48,32.347991,-2.783586930250749,14.874566990882158,2.0196914672851562,5.0678863525390625,0.0006794980145059526,-0.00030257689650170505,-0.04921528697013855,1.164554238319397,3.5184004306793213,1.4007285833358765,47.64160210029953,-122.14019985959735,124.01954650878906,-0.00525545904693303,-0.003395777325144295,-8.899203915582252,3.487758083224136,3.5826726829149074,0.0,6.1969046322239665,3.626368594995548,1.7345340743435116,2.6698139007201327,2.2850156063586957,0.03685509042514035,1.380308532714845,3.487758083224136,3.5826726829149074,0.0,0.45365535275731655,0.007317021818666414,0.274039421253909,2.255491196242514,0.03637889026197434,1.4604946530896026
22/04/2022,13:02:48,32.527992,-2.7742679169168696,14.88435476925224,2.0291213989257812,5.0678863525390625,0.23541486263275146,0.24616172909736633,0.40491783618927,1.164554238319397,3.5184004306793213,1.4007285833358765,47.64160219392858,-122.14019972491168,124.03031158447266,14.758636173953345,-11.104566132832387,-10.187681543789187,3.4063152225331255,3.6601935201214575,0.0,6.244159808936649,3.7059652069989304,1.017382450815779,2.656829483626168,2.2755411903601583,0.03670227726387232,1.37087860107422,3.4063152225331255,3.6601935201214575,0.0,0.45251425211458995,0.007298616969589921,0.27261299752908985,2.3853303342889336,0.03847306990788272,0.744769453286689
22/04/2022,13:02:48,32.704991,-2.673427965841256,14.992621582001448,2.17724609375,5.0678863525390625,0.9686872363090515,1.0296262502670288,1.2831624746322632,1.164554238319397,3.5184004306793213,1.4007285833358765,47.641603178968246,-122.14019833725966,124.18107604980469,19.36973218250991,-15.029420636531682,-11.181848882521113,3.536219399628451,2.73772759011765,0.0,4.336040897476233,2.750627936857131,-2.0905629342845806,2.4936328657189457,2.1729816807827564,0.03504809162552647,1.2227539062500012,3.536219399628451,2.73772759011765,0.0,0.44618781283999787,0.0071965776264511965,0.25107339647461846,0.3536336850077832,0.005703769113030241,-2.341636330759199
22/04/2022,13:02:48,32.878993,-2.4600940614473075,15.223790819756687,2.4120254516601562,5.0678863525390625,1.4529203176498413,1.5221593379974365,1.1807903051376343,1.4529203176498413,3.5184004306793213,1.4007285833358765,47.64160525084486,-122.14019544368796,124.41557312011719,17.97132386281355,-11.012419677134426,-9.644408488182323,3.775933014207697,1.6559981498227512,-1.0,2.7612979260784325,1.639633067756148,-2.785447358827188,2.1915587825999476,1.9559756934664592,0.03154799505590766,0.987974548339845,3.775933014207697,1.6559981498227512,-1.0,0.4468795224238957,0.0072077342326428,0.225721411469393,-1.4615146105531605,-0.0235728162992462,-2.0111687702965813
22/04/2022,13:02:49,33.053992,-2.181306078331545,15.51366510335356,2.5570220947265625,5.0678863525390625,1.7142720222473145,1.6878222227096558,0.34717902541160583,1.7142720222473145,3.5184004306793213,1.4007285833358765,47.641607835473025,-122.14019167911333,124.55809020996094,16.975066088592044,-3.3239546440412218,-8.849790488004738,0.0,0.0,0.0,-2.0419063441122858,-0.032933973292133004,0.42928000705808333,1.87320142623571,1.6725860412740023,0.026977194214090616,0.8429779052734387,0.0,0.0,0.0,0.44626916616361667,0.007197889776830874,0.22491820306845525,-2.4881755102759024,-0.04013186306896388,0.2043618039896281
22/04/2022,13:02:49,33.234992,-1.8516506135929376,15.828691078349948,2.5560455322265625,5.0678863525390625,1.8792623281478882,1.6656845808029175,-0.08524169772863388,1.8792623281478882,3.5184004306793213,1.4007285833358765,47.641610591322305,-122.14018731266282,124.55604553222656,-1.7019080301901104,4.954781991481485,-11.012884225158286,3.926337003998707,0.7641189246645163,0.0,1.8889079874952461,0.7312571663338094,1.2693922971001288,1.5820237321885802,1.3379365700373356,0.02157962209737363,0.8439544677734387,3.926337003998707,0.7641189246645163,0.0,0.41668046146723214,0.006720652604309339,0.26283707685735475,-2.454109477970693,-0.039582410935016174,1.006555220242774
22/04/2022,13:02:49,33.414996,-1.5171299802605063,16.113195838406682,2.5626220703125,5.0678863525390625,1.9347612857818604,1.4516022205352783,0.1770937591791153,1.9347612857818604,3.5184004306793213,1.4007285833358765,47.64161311756082,-122.14018281746077,124.5626220703125,5.554782510457151,6.990342030762948,-12.743455499983678,4.656251587440856,2.078297657809032,-2.0,2.1157783675134656,2.037322283294074,-1.2204158132245828,1.3035694249156524,0.9989153451599927,0.016111537825160838,0.8373779296875012,4.656251587440856,2.078297657809032,-2.0,0.3572624024128985,0.005762296813111147,0.29948849253064574,-2.8977356223402886,-0.046737671328069275,0.48009569424477144
22/04/2022,13:02:49,33.591993,-1.1650702450424433,16.359891545958817,2.5646514892578125,5.0678863525390625,2.136333703994751,1.3781203031539917,-0.38901376724243164,2.136333703994751,3.5184004306793213,1.4007285833358765,47.641615339032654,-122.14017800897832,124.56350708007812,14.486271623680333,3.6519315735893216,-15.52146899707807,4.5500518162970485,2.301527420869004,-2.0,-1.2144900764144495,2.208550938728495,0.9725160483449622,1.0541935926511137,0.6429692447577907,0.010370471689640226,0.8353485107421887,4.5500518162970485,2.301527420869004,-2.0,0.25335466636487125,0.004086365586529567,0.32915951262521864,-6.0178965590763696,-0.0970628477270386,2.6433565357197435
22/04/2022,13:02:49,33.771992,-0.7694344035116956,16.610020156018436,2.4197311401367188,5.0678863525390625,2.368281841278076,1.414003849029541,-1.2787874937057495,2.368281841278076,3.5184004306793213,1.4007285833358765,47.64161758896954,-122.14017260119323,124.41205596923828,16.459551735877486,1.6804860193971896,-20.821973782852965,0.0,0.0,0.0,-22.736388679357347,-0.36671594644125016,18.194040474930045,1.0100433051451356,0.24340301623558247,0.003925855100572306,0.9802688598632825,0.0,0.0,0.0,0.09711191234179443,0.0015663211668024957,0.3911035494247808,-22.833500591699142,-0.36828226760805266,17.802936925505264
22/04/2022,13:02:49,33.94899,-0.30888130236417055,16.88033603411168,2.17889404296875,5.0678863525390625,2.641617774963379,1.451474905014038,-0.9834446907043457,2.641617774963379,3.5184004306793213,1.4007285833358765,47.64161989876776,-122.14016661977513,124.17889404296875,-3.101509858885268,1.8808714713064063,-25.759015609466964,-0.43458697875721836,0.9006298673121346,0.0,-39.64122874160267,0.26826467758881656,22.922785574284323,1.2410179872032878,-0.22138910476646356,-0.003570792012364876,1.2211059570312512,-0.43458697875721836,0.9006298673121346,0.0,-0.08139696854398819,-0.0013128543313555897,0.4489576091750193,-39.12524479430146,-0.6310523353919624,22.473827965109304
22/04/2022,13:02:50,34.12599,0.11701759870629758,17.118548481725156,2.0778274536132812,5.0678863525390625,2.25911545753479,1.2779587507247925,-0.13175621628761292,2.641617774963379,3.5184004306793213,1.4007285833358765,47.64162203389228,-122.14016082438631,124.07740783691406,-12.977319923911393,-3.1119221350237107,-27.534001739828224,-2.3113746082767452,4.433683279195022,0.0,-24.48736926737009,4.076005945983827,7.1204959010005275,1.4737962628492216,-0.6510183758891983,-0.010500296385309582,1.32217254638672,-2.3113746082767452,4.433683279195022,0.0,-0.21442841823500214,-0.0034585228747580766,0.4354890403334825,-21.961566240858346,-0.35421881033643754,6.685006860667045
22/04/2022,13:02:50,34.29999,0.45256310899276286,17.3424080517143,2.1144790649414062,5.0678863525390625,1.5168287754058838,1.3833266496658325,0.5913594961166382,2.641617774963379,3.5184004306793213,1.4007285833358765,47.64162401710232,-122.1401563540653,124.1162338256836,-14.112773435610242,-18.82061369907974,-25.03167706698878,-0.9060739959506942,-0.4231192667108665,0.0,-8.135741473809837,-0.5397268066763385,0.5669466712394908,1.6226798832500653,-0.9900863173405636,-0.01596913415065515,1.285520935058595,-0.9060739959506942,-0.4231192667108665,0.0,-0.30179981586171606,-0.004867738965511823,0.39185470467784833,-6.9278676619974275,-0.11173980099996017,0.17509196656164253
22/04/2022,13:02:50,34.464991,0.6477821446023881,17.603123292326927,2.2290573120117188,5.0678863525390625,0.8644038438796997,1.6097266674041748,0.722790002822876,2.641617774963379,3.5184004306793213,1.4007285833358765,47.641626349450775,-122.14015374300496,124.2312240600586,-15.745015967558784,-7.094713377961551,-29.030475686245094,0.0,0.0,0.0,-3.3153138931478705,-0.053472804728194386,0.07432154661647422,1.6692173403621995,-1.1894585716452144,-0.019184815671696498,1.1709426879882825,0.0,0.0,0.0,-0.3537132213032575,-0.005705051956504002,0.34820709186781956,-2.961600671844613,-0.04776775277169038,-0.27388554525134534
22/04/2022,13:02:50,34.610991,0.7475307676941156,17.834089918993413,2.3231735229492188,5.0678863525390625,0.5548900961875916,1.498349905014038,0.5077949166297913,2.641617774963379,3.5184004306793213,1.4007285833358765,47.64162837403644,-122.14015241581188,124.32317352294922,-12.55485640975275,1.0782157648400903,-31.51721277160137,-3.4662566115927707,3.739661094616651,0.0,-6.392957744239553,3.692456237638477,0.3815118340616084,1.6827343485703419,-1.2929055516238679,-0.02085331534877355,1.0768264770507825,-3.4662566115927707,3.739661094616651,0.0,-0.3817143574150985,-0.00615668318411493,0.3179196857951025,-2.544986775231684,-0.0410481737940593,0.06359214826650592
22/04/2022,13:02:50,34.785993,0.8094722107052803,18.077734696678817,2.4211959838867188,5.0678863525390625,0.06114696338772774,1.4240328073501587,0.9091733694076538,2.641617774963379,3.5184004306793213,1.4007285833358765,47.641630598204245,-122.1401515525313,124.42389678955078,-13.118906676650521,-13.292072039700402,-28.54162499868554,-3.6681288123206066,2.5582867345595597,0.0,-6.254025781992338,2.516578718919691,-0.9100535393729752,1.6747433499406759,-1.3587596174629868,-0.021915477701018204,0.9788040161132825,-3.6681288123206066,2.5582867345595597,0.0,-0.4028703160879571,-0.006497908323999986,0.2902140145259813,-2.183026653583775,-0.035210107315868926,-1.2002675538989565
22/04/2022,13:02:50,34.961994,0.7467608216684312,18.349742501974106,2.634918212890625,5.0678863525390625,-0.7467169165611267,1.716809630393982,1.4226590394973755,2.641617774963379,3.5184004306793213,1.4226590394973755,47.641633059512756,-122.14015237957734,124.6391830444336,-14.95285943947779,-16.726190412830125,-27.861526839317538,-1.3514159128200474,0.41674336296665604,0.0,-1.6075401160345195,0.4126123274309339,-2.2473707152940037,1.5089605385420446,-1.3004506199260972,-0.020975009998810634,0.7650817871093762,-1.3514159128200474,0.41674336296665604,0.0,-0.42070554377134983,-0.00678557328663552,0.24750970497726232,0.16458134055687773,0.002654537750913376,-2.494880420271266
22/04/2022,13:02:51,35.135991,0.5784048237837851,18.656436279416084,2.836456298828125,5.0678863525390625,-1.0691063404083252,1.789722204208374,0.7217015027999878,2.641617774963379,3.5184004306793213,1.4226590394973755,47.64163583758632,-122.1401545885476,124.8386459350586,-10.523294522114059,-3.8210846275879895,-31.262882414410427,-1.3737606717002206,0.3358297439027077,-1.0,-0.09008670389282125,0.35653416273831007,-2.3786220689889395,1.269203458051552,-1.137083795045167,-0.018340061210405878,0.5635437011718762,-1.3737606717002206,0.3358297439027077,-1.0,-0.4129853599328587,-0.006661054192465447,0.20467735032414033,1.696659327740258,0.02736547302806779,-1.5832994193130798
