date,fly_time,fly_time_s,x,y,z,z_max,vx,vy,vz,vx_max,vy_max,vz_max,latitude,longitude,altitude,pitch,roll,yaw,cx,cy,cz,scx,scy,scz,d,dx,dy,dz,gc_pow_x,gc_pow_y,gc_pow_z,gpc_pow_x,gpc_pow_y,gpc_pow_z,gfc_pow_x,gfc_pow_y,gfc_pow_z
22/04/2022,13:17:35,24.146991,0.0,0.0,2.5004348754882812,2.5004348754882812,0.0,0.0,0.04284929484128952,0,0,0.04284929484128952,47.641468,-122.140165,124.50043487548828,0.0,0.0,0.0,0.0,0.0,0.0,0.0,0.0,0.0,0.9358404710365886,-0.25799739921976594,-0.004161248374512427,0.89956512451172,0.0,0.0,0.0,-0.0,-0.0,0.0,-0.0,-0.0,0.0
22/04/2022,13:17:35,24.336989,0.0,0.0,2.5076141357421875,2.5076141357421875,0.0,0.0,0.03434718772768974,0,0,0.04284929484128952,47.641468,-122.140165,124.50761413574219,0.0,0.0,0.0,0.0,0.0,0.0,0.0,0.0,0.0,0.9289416045798373,-0.25799739921976594,-0.004161248374512427,0.8923858642578137,0.0,0.0,0.0,-0.0,-0.0,0.0,-0.0,-0.0,0.0
22/04/2022,13:17:35,24.519989,0.0,0.0,2.5133590698242188,2.5133590698242188,0.0,0.0,0.027421170845627785,0,0,0.04284929484128952,47.641468,-122.140165,124.51335906982422,0.0,0.0,0.0,0.0,0.0,0.0,0.0,0.0,0.0,0.9234241241461989,-0.25799739921976594,-0.004161248374512427,0.8866409301757825,0.0,0.0,0.0,-0.0,-0.0,0.0,-0.0,-0.0,0.0
22/04/2022,13:17:35,24.707988,0.0,0.0,2.5178680419921875,2.5178680419921875,0.0,0.0,0.021860873326659203,0,0,0.04284929484128952,47.641468,-122.140165,124.51793670654297,0.0,0.0,0.0,0.0,0.0,0.0,0.0,0.0,0.0,0.9190956236055621,-0.25799739921976594,-0.004161248374512427,0.8821319580078137,0.0,0.0,0.0,-0.0,-0.0,0.0,-0.0,-0.0,0.0
22/04/2022,13:17:35,24.897988,0.0,0.0,2.5215530395507812,2.5215530395507812,0.0,0.0,0.017182063311338425,0,0,0.04284929484128952,47.641468,-122.140165,124.5216064453125,0.0,0.0,0.0,0.0,0.0,0.0,0.0,0.0,0.0,0.9155594116793684,-0.25799739921976594,-0.004161248374512427,0.87844696044922,0.0,0.0,0.0,-0.0,-0.0,0.0,-0.0,-0.0,0.0
22/04/2022,13:17:36,25.047989,0.0,0.0,2.5239486694335938,2.5239486694335938,0.0,0.0,0.014046924188733101,0,0,0.04284929484128952,47.641468,-122.140165,124.52398681640625,0.0,0.0,0.0,-1.0,5.0,0.0,-1.0,5.0,0.0,0.9132611388750596,-0.25799739921976594,-0.004161248374512427,0.8760513305664075,-1.0,5.0,0.0,-0.0,-0.0,0.0,-0.0,-0.0,0.0
22/04/2022,13:17:36,25.20599,-0.002174278604798019,0.007724841125309467,2.541229248046875,2.541229248046875,-0.05806238204240799,0.23354385793209076,0.4285191297531128,0,0.23354385793209076,0.4285191297531128,47.6414680758436,-122.14016503007207,124.54249572753906,-3.6094935590427366,-15.99361263082813,0.5310780602250872,-1.9535694450750678,5.018323068841731,0.0,-1.9535694450750678,5.018323068841731,0.0,0.8961103459008403,-0.255948247904532,-0.004128197546847345,0.8587707519531262,-1.9535694450750678,5.018323068841731,0.0,-0.0,-0.0,0.0,-0.0,-0.0,0.0
22/04/2022,13:17:36,25.400987,-0.034093520138412714,0.14528144523501396,2.7087554931640625,2.7087554931640625,-0.28013747930526733,1.334075927734375,1.3534374237060547,0,1.334075927734375,1.3534374237060547,47.641469346148156,-122.1401654435388,124.7127914428711,-5.040638457445568,-24.512048754349873,1.1142945645462927,-1.9023873677848413,5.037948223522416,0.0,-1.5453391922813995,5.043707065062794,-2.474389849158763,0.7273402127322397,-0.22625538574577697,-0.0036492804152545855,0.6912445068359387,-1.9023873677848413,5.037948223522416,0.0,-0.0,-0.0,0.0,0.3570481755034417,0.005758841540378035,-2.474389849158763
22/04/2022,13:17:36,25.576993,-0.10023890680167824,0.44815864227712154,2.9259414672851562,2.9259414672851562,-0.38239359855651855,1.8738906383514404,0.6922871470451355,0,1.8738906383514404,1.3534374237060547,47.64147209238358,-122.14016628350419,124.92803955078125,-5.347791506344016,-26.832919250135575,1.2911649092173865,-1.8868263338626843,5.043796822418832,0.0,-0.8259019359777788,5.060908506255685,-1.7917046409342663,0.5019633668795214,-0.16501104761392205,-0.0026614685099021207,0.474058532714845,-1.8868263338626843,5.043796822418832,0.0,-0.0,-0.0,0.0,1.0609243978849054,0.017111683836852878,-1.7917046409342663
22/04/2022,13:17:36,25.72799,-0.16471864306367934,0.7550886273384094,2.9929885864257812,2.9929885864257812,-0.43870213627815247,2.356668710708618,0.2681864798069,0,2.356668710708618,1.3534374237060547,47.64147487315565,-122.14016709882529,124.99380493164062,-1.0512057632866707,-23.540174164571297,1.065306869164202,-1.9066941004074225,5.036319847614082,0.0,-1.9066941004074225,5.036319847614082,0.0,0.42046505398205614,-0.10549727723230118,-0.001701568987617863,0.40701141357422,-1.9066941004074225,5.036319847614082,0.0,-0.0,-0.0,0.0,0.0,0.0,-0.0
22/04/2022,13:17:36,25.88499,-0.2375321042491123,1.1620300449430943,3.0446624755859375,3.0446624755859375,-0.4665739834308624,3.0504093170166016,0.6084370017051697,0,3.0504093170166016,1.3534374237060547,47.641478560234575,-122.14016800914777,125.04647827148438,-2.154069499804053,-18.22704793243141,0.9233431219232954,-1.9191668998726776,5.031580110704102,0.0,-0.41569386830096966,5.055829675729453,-1.628759364013589,0.3575008636473361,-0.039264617438981575,-0.0006333002812741739,0.35533752441406374,-1.9191668998726776,5.031580110704102,0.0,-0.0,-0.0,0.0,1.503473031571708,0.024249565025350906,-1.628759364013589
22/04/2022,13:17:37,26.075995,-0.3342213868163526,1.7614502869546413,3.1066741943359375,3.1066741943359375,-0.4842831492424011,3.360703706741333,-0.13719956576824188,0,3.360703706741333,1.3534374237060547,47.64148397117613,-122.14016920853413,125.10628509521484,1.0003683886419523,-14.615502923796376,0.8429341583080391,-1.9262263330021536,5.028881795593239,0.0,-0.14706284189433316,5.057577980933683,1.1128263454089724,0.2971853838536229,0.04773396440334765,0.0007699026516667651,0.29332580566406374,-1.9262263330021536,5.028881795593239,0.0,0.0,0.0,0.0,1.7791634911078205,0.028696185340444776,1.1128263454089724
22/04/2022,13:17:37,26.233987,-0.41194411006290466,2.3123826943337917,3.0967483520507812,3.1066741943359375,-0.4145394563674927,3.790104627609253,0.3584716320037842,0,3.790104627609253,1.3534374237060547,47.64148894702839,-122.14017015909697,125.09779357910156,2.028857661587092,-10.466439826133147,0.9544813476059949,-1.9164321311127672,5.03262236680228,0.0,-1.9164321311127672,5.03262236680228,0.0,0.32488405015213573,0.11655277816205734,0.0018798835187423535,0.30325164794922,-1.9164321311127672,5.03262236680228,0.0,0.0,0.0,0.0,0.0,0.0,-0.0
22/04/2022,13:17:37,26.416988,-0.4953570408979431,3.0669357934966683,3.1703033447265625,3.1703033447265625,-0.3964085280895233,4.058764457702637,0.25000065565109253,0,4.058764457702637,1.3534374237060547,47.64149564184007,-122.14017114148746,125.17030334472656,-1.957667371687125,-7.915730507957521,0.970751555059522,-1.9150029466821397,5.033166370605955,0.0,-1.9150029466821397,5.033166370605955,0.0,0.29669835917531073,0.18777696905459035,0.003028660791202231,0.22969665527343874,-1.9150029466821397,5.033166370605955,0.0,0.0,0.0,0.0,0.0,0.0,-0.0
22/04/2022,13:17:37,26.578987,-0.5689924312755466,3.7115093506872654,3.20465087890625,3.20465087890625,-0.46287161111831665,4.2283782958984375,0.19342836737632751,0,4.2283782958984375,1.3534374237060547,47.641501448246004,-122.14017202657334,125.20465087890625,-3.1775431005778887,-6.439374899598517,0.904566487073042,-1.920815716537713,5.030950902473777,0.0,0.12623918117483401,5.063967916953009,-0.3768985698176528,0.3180856016043438,0.2509995646503486,0.004048380075005298,0.19534912109375124,-1.920815716537713,5.030950902473777,0.0,0.0,0.0,0.0,2.047054897712547,0.033017014479232484,-0.3768985698176528
22/04/2022,13:17:37,26.762988,-0.6697341401595622,4.51008915156126,3.2316131591796875,3.2316131591796875,-0.5003741979598999,4.382933139801025,0.11451422423124313,0,4.382933139801025,1.3534374237060547,47.64150864291017,-122.14017324976673,125.23161315917969,0.896218652399319,-5.120936709591863,0.8717310800259839,-1.9236985683043355,5.0298492838557145,0.0,0.31682238982476596,5.065986718664246,-0.11341509302334082,0.3784114904387701,0.33883810334891,0.00546513069917598,0.16838684082031374,-1.9236985683043355,5.0298492838557145,0.0,0.0,0.0,0.0,2.2405209581291015,0.03613743480853107,-0.11341509302334082
22/04/2022,13:17:37,26.921988,-0.7524832064518705,5.200000838376582,3.2486343383789062,3.2486343383789062,-0.45289376378059387,4.4867682456970215,0.10234440118074417,0,4.4867682456970215,1.3534374237060547,47.641514979013074,-122.14017426762203,125.24894714355469,2.306225183522186,-4.24195622279402,0.8944650339266539,-1.9217026615200405,5.0306121775293695,0.0,0.29256411569367535,5.0663261578070085,-0.10080428174908676,0.43751245574380065,0.4104409346220136,0.006620015074548569,0.151365661621095,-1.9217026615200405,5.0306121775293695,0.0,0.0,0.0,0.0,2.214266777213716,0.03571398027763926,-0.10080428174908676
22/04/2022,13:17:38,27.108989,-0.8390211033402011,6.0412545166909695,3.2657623291015625,3.2657623291015625,-0.3722793757915497,4.5812249183654785,0.08050666749477386,0,4.5812249183654785,1.3534374237060547,47.64152255874236,-122.14017529221019,125.26600646972656,2.546258604992059,-3.4154074834809722,0.9275257758339346,-1.9187995839659138,5.03172019855757,0.0,0.19154979182784215,5.0657580917155265,-0.05231972968000323,0.5017445929634257,0.48339124608709827,0.0077966330014049845,0.13423767089843874,-1.9187995839659138,5.03172019855757,0.0,0.0,0.0,0.0,2.110349375793756,0.034037893157956356,-0.05231972968000323
22/04/2022,13:17:38,27.26199,-0.8979491192148998,6.731136433780193,3.2765655517578125,3.2765655517578125,-0.308796763420105,4.6396942138671875,0.06319526582956314,0,4.6396942138671875,1.3534374237060547,47.64152877288459,-122.14017597227962,125.2767562866211,2.3197305852215293,-2.8952986325326466,0.9486311920167046,-1.9169459743957904,5.032426664269215,0.0,-1.9169459743957904,5.032426664269215,0.0,0.5454001647847074,0.5311797023062947,0.008567414553326103,0.12343444824218874,-1.9169459743957904,5.032426664269215,0.0,0.0,0.0,0.0,0.0,0.0,-0.0
22/04/2022,13:17:38,27.412989,-0.9512134927790612,7.456924267113209,3.28363037109375,3.28363037109375,-0.2893919348716736,4.687260150909424,0.040660519152879715,0,4.687260150909424,1.3534374237060547,47.6415353092047,-122.14017657337868,125.28375244140625,-1.5534343017870897,-2.4071180784994084,0.9551636491998796,-1.916372200449863,5.032645188103663,0.0,0.08355147497461357,5.064902021578245,0.07008064860413181,0.5845027399195298,0.5727270121408823,0.009237532453885144,0.11636962890625124,-1.916372200449863,5.032645188103663,0.0,0.0,0.0,0.0,1.9999236754244765,0.032256833474582476,0.07008064860413181
22/04/2022,13:17:38,27.561988,-1.0042761852964759,8.146960286423564,3.2890243530273438,3.2890243530273438,-0.319381982088089,4.722906112670898,0.02770240232348442,0,4.722906112670898,1.3534374237060547,47.64154152353582,-122.14017717910264,125.28910827636719,0.05397490052313203,-2.118623100794451,0.9501296636508233,-1.9499786212267223,3.0327517829124644,0.0,0.1855294926204092,3.0671954621680637,0.10779201543601909,0.6246659082449568,0.6146491855712334,0.009913696541469008,0.1109756469726575,-1.9499786212267223,3.0327517829124644,0.0,0.0,0.0,0.0,2.1355081138471315,0.03444367925559928,0.10779201543601909
22/04/2022,13:17:38,27.746987,-1.071539441589266,9.02055192552507,3.296966552734375,3.296966552734375,-0.2887783646583557,4.63076114654541,0.13625207543373108,0,4.722906112670898,1.3534374237060547,47.64154938730482,-122.14017794434419,125.29737091064453,1.5599539076767415,6.281256271217906,1.0926109224474831,0.0,0.0,0.0,2.120892453666642,0.034207942801066586,-0.3279838779093281,0.6757958274630429,0.6678084249900089,0.010771103628870904,0.10303344726562624,0.0,0.0,0.0,0.0,0.0,0.0,2.120892453666642,0.034207942801066586,-0.3279838779093281
22/04/2022,13:17:38,27.930988,-1.1205554109765217,9.827053045853972,3.3584518432617188,3.3584518432617188,-0.05658624693751335,4.023122310638428,0.7370493412017822,0,4.722906112670898,1.3534374237060547,47.64155663186128,-122.14017846863524,125.36063385009766,9.84583627854489,19.947158261008866,2.3352181242198378,0.0,0.0,0.0,1.0662403436729926,0.01719742489795071,-2.2226872412153846,0.7051236271296274,0.7038069469312882,0.011351724950504405,0.04154815673828249,0.0,0.0,0.0,0.0,0.0,0.0,1.0662403436729926,0.01719742489795071,-2.2226872412153846
22/04/2022,13:17:39,28.112991,-1.1163621022133157,10.498737467452884,3.4619216918945312,3.4619216918945312,0.14336992800235748,3.512000560760498,0.13737531006336212,0.14336992800235748,4.722906112670898,1.3534374237060547,47.641562660536856,-122.14017830555589,125.46234893798828,9.153550242944316,25.65150677244735,3.307216667914938,-1.765910027428368,4.108717777485811,0.0,-1.765910027428368,4.108717777485811,0.0,0.6916509326929706,0.6887839266387273,0.011109418171590946,-0.06192169189453001,-1.765910027428368,4.108717777485811,0.0,0.0,0.0,-0.0,0.0,0.0,-0.0
22/04/2022,13:17:39,28.280987,-1.0889862758340314,11.038048059679568,3.446044921875,3.4619216918945312,0.22626739740371704,3.050628185272217,-0.20247656106948853,0.22626739740371704,4.722906112670898,1.3534374237060547,47.641567497367326,-122.14017785812243,125.44542694091797,-0.870616396363158,9.756814120110484,2.168415384076294,-1.8472200358921822,4.072809612417267,0.0,-1.8472200358921822,4.072809612417267,0.0,0.6544256735360524,0.6527189244748722,0.010527724588301979,-0.04604492187499876,-1.8472200358921822,4.072809612417267,0.0,0.0,0.0,-0.0,0.0,0.0,0.0
22/04/2022,13:17:39,28.459989,-1.0641261619748548,11.578337133862078,3.4404220581054688,3.4619216918945312,0.07955025881528854,2.92978572845459,0.13330885767936707,0.22626739740371704,4.722906112670898,1.3534374237060547,47.641572352377736,-122.14017745323159,125.4408187866211,-5.795722184818679,-1.8310029267432775,2.568401294357555,-0.9093713405470445,2.0428029187838144,0.0,-0.9093713405470445,2.0428029187838144,0.0,0.6205516563552874,0.6191532026870983,0.009986341978821756,-0.04042205810546751,-0.9093713405470445,2.0428029187838144,0.0,0.0,0.0,-0.0,0.0,0.0,-0.0
22/04/2022,13:17:39,28.642986,-1.0687288810731843,12.10790549684316,3.4580535888671875,3.4619216918945312,-0.0478537417948246,2.9305527210235596,0.0664605125784874,0.22626739740371704,4.722906112670898,1.3534374237060547,47.64157711727651,-122.14017744146109,125.458251953125,-2.1284450644363897,2.7734725644071747,2.083046130638088,0.0,0.0,0.0,0.0,0.0,0.0,0.6180281700449518,0.6152155209469558,0.009922830983013498,-0.05805358886718626,0.0,0.0,0.0,0.0,0.0,-0.0,0.0,0.0,-0.0
22/04/2022,13:17:39,28.817991,-1.0875836535124108,12.614460809156299,3.5008392333984375,3.5008392333984375,-0.09078274667263031,2.6147165298461914,0.5115206837654114,0.22626739740371704,4.722906112670898,1.3534374237060547,47.64158159750372,-122.14017761578543,125.50083923339844,0.08648908631518339,12.74177520539007,1.809034335888907,0.0,0.0,-5.0,1.2735965785873036,0.020541880299795343,-6.9795142529636465,0.6340487772854042,0.6258972676031254,0.010095117219403704,-0.10083923339843626,0.0,0.0,-5.0,0.0,0.0,-0.0,1.2735965785873036,0.020541880299795343,-1.9795142529636465
22/04/2022,13:17:40,28.970988,-1.1044378179358318,12.977193837054074,3.5547637939453125,3.5547637939453125,-0.07029517740011215,2.3429784774780273,0.013739935122430325,0.22626739740371704,4.722906112670898,1.3534374237060547,47.64158492582176,-122.14017778943523,125.5548324584961,5.238525719828883,21.100420860195722,2.0896692119643685,0.0,0.0,-5.0,0.0,0.0,-5.0,0.6555123701125196,0.6368980375157308,0.010272548992187325,-0.15476379394531126,0.0,0.0,-5.0,0.0,0.0,-0.0,0.0,0.0,-0.0
22/04/2022,13:17:40,29.145987,-1.1146136821480468,13.360761339776218,3.4798355102539062,3.5547637939453125,0.0009487413917668164,1.977988839149475,-0.8861280083656311,0.22626739740371704,4.722906112670898,1.3534374237060547,47.641588314470404,-122.14017786543633,125.4798355102539,3.976097847593672,23.786407136787567,1.9202781535534073,0.0,0.0,0.0,0.8029227664363516,0.01295036720058454,2.362453781452352,0.6459224399466112,0.6408862915763242,0.010336875670583723,-0.079835510253905,0.0,0.0,0.0,0.0,0.0,-0.0,0.8029227664363516,0.01295036720058454,2.362453781452352
22/04/2022,13:17:40,29.318988,-1.1120348703116179,13.65001670178026,3.3315658569335938,3.5547637939453125,0.062218599021434784,1.295668601989746,-0.44751429557800293,0.22626739740371704,4.722906112670898,1.3534374237060547,47.64159091656761,-122.14017778840345,125.3315658569336,0.7109108876472808,12.067254366800888,0.6400960208302117,0.0,0.0,-5.0,0.9162202253791508,0.014777745570631655,-3.1115925603913994,0.6374106549289839,0.633643954737967,0.010220063786094968,0.0684341430664075,0.0,0.0,-5.0,0.0,0.0,0.0,0.9162202253791508,0.014777745570631655,1.8884074396086006
22/04/2022,13:17:40,29.49699,-1.1022090851329267,13.855696800164878,3.2356033325195312,3.5547637939453125,0.06789878755807877,1.0481410026550293,-0.93824702501297,0.22626739740371704,4.722906112670898,1.3534374237060547,47.641592794319884,-122.14017762451928,125.2328109741211,-0.1060385410210844,10.280912173982287,0.15817352539289772,0.0,0.0,-5.0,0.5394475395075453,0.008700766766245718,-2.558535058453087,0.6419905358263315,0.6205041668766574,0.01000813172381676,0.16439666748047,0.0,0.0,-5.0,0.0,0.0,0.0,0.5394475395075453,0.008700766766245718,2.441464941546913
22/04/2022,13:17:40,29.648989,-1.0940198856405914,14.000445890240371,3.04901123046875,3.5547637939453125,0.0645456612110138,0.9212514758110046,-1.6218199729919434,0.22626739740371704,4.722906112670898,1.3534374237060547,47.64159409235911,-122.14017749426654,125.0441665649414,-0.33758658752446,8.40330252285151,-0.028752910413049497,0.0,0.0,-4.0,0.5775232295892029,0.009314890799832252,0.6008676915242717,0.7038247099127163,0.6099830416664578,0.00983843615590807,0.35098876953125124,0.0,0.0,-4.0,0.0,0.0,0.0,0.5775232295892029,0.009314890799832252,4.600867691524272
22/04/2022,13:17:40,29.830987,-1.085136024048552,14.141501515172422,2.7980270385742188,3.5547637939453125,0.049081407487392426,0.6195412278175354,-0.8214998841285706,0.22626739740371704,4.722906112670898,1.3534374237060547,47.641595352410015,-122.14017735579381,124.7955322265625,-0.34083205429047997,5.403171709186977,-0.13448043630703949,0.0,0.0,0.0,0.5261608574319836,0.008486465442452703,2.457235142249373,0.8491516347000313,0.5988269915479697,0.009658499863677505,0.6019729614257825,0.0,0.0,0.0,0.0,0.0,0.0,0.5261608574319836,0.008486465442452703,2.457235142249373
22/04/2022,13:17:41,30.009987,-1.078651996795088,14.232060863636434,2.7523040771484375,3.5547637939453125,0.03432149812579155,0.39996853470802307,0.35573822259902954,0.22626739740371704,4.722906112670898,1.3534374237060547,47.641596160561186,-122.14017725669875,124.75334167480469,-0.2508949757552233,3.2175910645201453,-0.18301858282984887,0.0,0.0,-5.0,0.0,0.0,-5.0,0.8767811620727451,0.5908843958738257,0.009530393481833599,0.6476959228515637,0.0,0.0,-5.0,0.0,0.0,0.0,0.0,0.0,-0.0
22/04/2022,13:17:41,30.192987,-1.073854360729456,14.295181602239609,2.8044509887695312,3.5547637939453125,0.028591342270374298,0.32643604278564453,-0.1029033213853836,0.22626739740371704,4.722906112670898,1.3534374237060547,47.64159672594391,-122.14017718374512,124.80416870117188,-0.326083666341706,3.817513544175224,-0.21466041904012956,0.0,0.0,-5.0,0.0,0.0,-5.0,0.8349100602172562,0.5850701959181204,0.009436616063194236,0.59554901123047,0.0,0.0,-5.0,0.0,0.0,0.0,0.0,0.0,0.0
22/04/2022,13:17:41,30.370991,-1.0697328868554905,14.348565520718694,2.7101898193359375,3.5547637939453125,0.023464666679501534,0.2646024227142334,-0.9695333242416382,0.22626739740371704,4.722906112670898,1.3534374237060547,47.64159720415931,-122.1401771212036,124.70730590820312,-0.36535447291807055,3.8809341937101998,-0.5677722303499176,0.0,0.0,0.0,0.5201358830607374,0.008389288436463891,2.606314876446432,0.9013483555101254,0.5800889869409485,0.009356273982916719,0.6898101806640637,0.0,0.0,0.0,0.0,0.0,0.0,0.5201358830607374,0.008389288436463891,2.606314876446432
22/04/2022,13:17:41,30.548988,-1.0667689648689702,14.386170445941389,2.5647811889648438,3.5547637939453125,0.013518283143639565,0.1482039988040924,-0.27923673391342163,0.22626739740371704,4.722906112670898,1.3534374237060547,47.64159753503308,-122.14017707713583,124.56478118896484,-0.19194871733158642,1.7219937912412813,-1.313278408755655,0.0,0.0,0.0,1.1165190698594092,0.01800837209450452,2.601756214109203,1.0149145869418497,0.5765194624988181,0.009298701008042087,0.8352188110351575,0.0,0.0,0.0,0.22972284665023435,0.0037052072040346965,0.3328054911020699,0.8867962232091747,0.014303164890469823,2.268950723007133
22/04/2022,13:17:41,30.723989,-1.0614446706604213,14.406459929421544,2.6016006469726562,3.5547637939453125,0.08943306654691696,0.08916621655225754,0.7542706727981567,0.22626739740371704,4.722906112670898,1.3534374237060547,47.64159771945112,-122.14017699974464,124.60382843017578,3.5078224333531898,0.9782387686432794,-1.7081474524799836,0.0,0.0,-3.0,0.0,0.0,-3.0,0.9815386721292856,0.5708693883990958,0.009207570780629837,0.798399353027345,0.0,0.0,-3.0,0.0,0.0,0.0,0.0,0.0,-0.0
22/04/2022,13:17:41,30.908989,-1.0364627917297184,14.420972572639585,2.7238235473632812,3.5547637939453125,0.1600986272096634,0.07061192393302917,0.24998509883880615,0.22626739740371704,4.722906112670898,1.3534374237060547,47.64159784701693,-122.14017666216148,124.72459411621094,1.4615211254635552,0.9006842138018701,-3.0044125456952555,0.0,0.0,-3.0,0.0,0.0,-3.0,0.8689285815056667,0.5456599926932076,0.008800967624083,0.67617645263672,0.0,0.0,-3.0,0.0,0.0,0.0,0.0,0.0,0.0
22/04/2022,13:17:42,31.087989,-1.0070431352360174,14.432729595340788,2.6946640014648438,3.5547637939453125,0.16926489770412445,0.05859054625034332,-0.6070095300674438,0.22626739740371704,4.722906112670898,1.3534374237060547,47.6415979495438,-122.1401762684101,124.69286346435547,-0.2578878184261127,0.6982701906402309,-6.658900642757744,0.0,0.0,0.0,0.22791722677798096,0.003676084302869516,2.489394105823443,0.8740048236924486,0.5160584075256495,0.008323522702024633,0.7053359985351575,0.0,0.0,0.0,0.0,0.0,0.0,0.22791722677798096,0.003676084302869516,2.489394105823443
22/04/2022,13:17:42,31.259991,-0.9789799741702154,14.441555241122842,2.6056976318359375,3.5547637939453125,0.14795231819152832,0.03800578415393829,-0.09023403376340866,0.22626739740371704,4.722906112670898,1.3534374237060547,47.64159802455649,-122.14017590029633,124.60569763183594,-0.747358560266036,0.23506628452115827,-10.781401150939951,0.0,0.0,0.0,0.0,0.0,0.0,0.9321940654356425,0.4878602329676702,0.00786871343496287,0.7943023681640637,0.0,0.0,0.0,0.0,0.0,0.0,0.0,0.0,0.0
22/04/2022,13:17:42,31.405987,-0.9586192732676864,14.44672751519829,2.5989913940429688,3.5547637939453125,0.129927396774292,0.030361583456397057,-0.1484939008951187,0.22626739740371704,4.722906112670898,1.3534374237060547,47.641598069058624,-122.1401756284874,124.59899139404297,-0.8465056537878991,0.08259294713649637,-12.731231848601434,0.0,0.0,0.0,0.3987970386241774,0.006432210300385666,2.118882108134728,0.9274450997521502,0.4674214253572673,0.007539055247695714,0.8010086059570325,0.0,0.0,0.0,0.0,0.0,0.0,0.3987970386241774,0.006432210300385666,2.118882108134728
22/04/2022,13:17:42,31.58299,-0.939303470775485,14.451288718730211,2.6242141723632812,3.5547637939453125,0.09773249179124832,0.02110425941646099,0.6620711088180542,0.22626739740371704,4.722906112670898,1.3534374237060547,47.64159810874058,-122.1401753667583,124.62617492675781,-0.6961258020739953,0.005725189383278616,-13.924288252006393,0.0,0.0,-1.0,0.0,0.0,-1.0,0.8958979363226031,0.44803709781526435,0.007226404803471809,0.77578582763672,0.0,0.0,-1.0,0.0,0.0,0.0,0.0,0.0,-0.0
22/04/2022,13:17:42,31.756988,-0.92348160315305,14.454822170548141,2.74273681640625,3.5547637939453125,0.08189874142408371,0.017237752676010132,0.27287811040878296,0.22626739740371704,4.722906112670898,1.3534374237060547,47.64159813837828,-122.14017515953333,124.74273681640625,-0.6818669655585272,-0.0208450011492099,-14.567539103616062,0.0,0.0,0.0,0.0,0.0,0.0,0.7866433699103822,0.43216236877668124,0.0069703607867186435,0.6572631835937512,0.0,0.0,0.0,0.0,0.0,0.0,0.0,0.0,0.0
22/04/2022,13:17:42,31.90699,-0.9119536632206291,14.457365330308676,2.7447433471679688,3.5547637939453125,0.07024600356817245,0.014656297862529755,-0.11879768967628479,0.22626739740371704,4.722906112670898,1.3534374237060547,47.64159816010824,-122.14017500569585,124.74474334716797,-0.5809506816080089,-0.026164068098595894,-14.840828798005328,0.0,0.0,0.0,0.0,0.0,0.0,0.7786582362326687,0.42059641897034084,0.006783813209198186,0.6552566528320325,0.0,0.0,0.0,0.0,0.0,0.0,0.0,0.0,0.0
22/04/2022,13:17:43,32.083305,-0.90105605579447,14.459749459289014,2.7230453491210938,3.5547637939453125,0.055072080343961716,0.011406030505895615,-0.11909564584493637,0.22626739740371704,4.722906112670898,1.3534374237060547,47.641598180470325,-122.14017486027295,124.7230453491211,-0.4604070573110721,-0.0246990516731541,-15.006289652346663,0.0,0.0,0.0,0.0,0.0,0.0,0.791287051049204,0.4096632020801103,0.006607471001288445,0.6769546508789075,0.0,0.0,0.0,0.0,0.0,0.0,0.0,0.0,0.0
22/04/2022,13:17:43,32.26031,-0.8926723697222769,14.461575727909803,2.70428466796875,3.5547637939453125,0.043116576969623566,0.008896656334400177,-0.09987805038690567,0.22626739740371704,4.722906112670898,1.3534374237060547,47.641598196298816,-122.1401747466695,124.70398712158203,-0.36359074434558547,-0.02102077392865516,-15.087114665338191,0.0,0.0,0.0,0.0,0.0,0.0,0.80315943260844,0.4012522481357672,0.006471810453801297,0.6957153320312512,0.0,0.0,0.0,0.0,0.0,0.0,0.0,0.0,0.0
22/04/2022,13:17:43,32.432304,-0.8860125679057091,14.463020873256028,2.6883544921875,3.5547637939453125,0.033559512346982956,0.00691109336912632,-0.08314947783946991,0.22626739740371704,4.722906112670898,1.3534374237060547,47.64159820859682,-122.14017465818273,124.68810272216797,-0.2847025104462695,-0.017063195686959135,-15.128070661398521,0.0,0.0,0.0,0.0,0.0,0.0,0.8137358329273827,0.39457087565349086,0.006364046381506228,0.7116455078125012,0.0,0.0,0.0,0.0,0.0,0.0,0.0,0.0,0.0
22/04/2022,13:17:43,32.604304,-0.8808312970213592,14.464144084602594,2.6750946044921875,3.5547637939453125,0.026095837354660034,0.005368503276258707,-0.06921647489070892,0.22626739740371704,4.722906112670898,1.3534374237060547,47.641598218133,-122.14017458934259,124.67488861083984,-0.22234132968357317,-0.013561939691803186,-15.148363515658069,0.0,0.0,0.0,0.0,0.0,0.0,0.8228842461216102,0.38937284070344447,0.006280207108119384,0.7249053955078137,0.0,0.0,0.0,0.0,0.0,0.0,0.0,0.0,0.0
22/04/2022,13:17:43,32.787304,-0.8767428146675229,14.46502928249538,2.66387939453125,3.5547637939453125,0.020191233605146408,0.004151421133428812,-0.05751372128725052,0.22626739740371704,4.722906112670898,1.3534374237060547,47.641598225662925,-122.14017453502213,124.66370391845703,-0.1725950377638195,-0.010622901242214645,-15.158512078468506,0.0,0.0,0.0,0.0,0.0,0.0,0.8308706383700144,0.3852711480018842,0.0062140507742203255,0.7361206054687512,0.0,0.0,0.0,0.0,0.0,0.0,0.0,0.0,0.0
22/04/2022,13:17:44,33.057305,-0.8722579401219264,14.465999969281256,2.650421142578125,3.5547637939453125,0.013700773008167744,0.0028157196938991547,-0.04364463686943054,0.22626739740371704,4.722906112670898,1.3534374237060547,47.64159823383121,-122.14017447598445,124.65042114257812,-0.11753764520443379,-0.007277083725948079,-15.164927663589735,0.0,0.0,0.0,0.0,0.0,0.0,0.8407694901633362,0.38077178770695636,0.006141480446885339,0.7495788574218762,0.0,0.0,0.0,0.0,0.0,0.0,0.0,0.0,0.0
22/04/2022,13:17:44,33.208308,-0.870339032378979,14.466415112838149,2.64410400390625,3.5547637939453125,0.010919393040239811,0.0022437931038439274,-0.037235163152217865,0.22626739740371704,4.722906112670898,1.3534374237060547,47.641598237426805,-122.14017444994084,124.64399719238281,-0.0938252516664865,-0.005820006168252002,-15.166487167115971,0.0,0.0,0.0,0.0,0.0,0.0,0.8455417818981871,0.37884668490736806,0.006110430401731648,0.7558959960937512,0.0,0.0,0.0,0.0,0.0,0.0,0.0,0.0,0.0
22/04/2022,13:17:44,33.376303,-0.868679853505455,14.466778146103024,2.63824462890625,3.5547637939453125,0.008513059467077255,0.0017491154139861465,-0.031363777816295624,0.22626739740371704,4.722906112670898,1.3534374237060547,47.64159824047527,-122.14017442823743,124.63824462890625,-0.07325284337430482,-0.004545793861402502,-15.167345201564958,0.0,0.0,0.0,0.0,0.0,0.0,0.8500438692340518,0.37718208369742035,0.006083581995119047,0.7617553710937512,0.0,0.0,0.0,0.0,0.0,0.0,0.0,0.0,0.0
22/04/2022,13:17:44,33.526306,-0.86757010826841,14.467017794959247,2.6340179443359375,3.5547637939453125,0.006902136839926243,0.0014179692370817065,-0.027207350358366966,0.22626739740371704,4.722906112670898,1.3534374237060547,47.64159824255968,-122.14017441315279,124.6339340209961,-0.05944898097501063,-0.0036901533625029667,-15.167735599403217,0.0,0.0,0.0,0.0,0.0,0.0,0.8533422617852544,0.3760687627818712,0.006065625206158387,0.7659820556640637,0.0,0.0,0.0,0.0,0.0,0.0,0.0,0.0,0.0
22/04/2022,13:17:44,33.691309,-0.8665056662866846,14.467249699868262,2.6296539306640625,3.5547637939453125,0.0053794910199940205,0.0011050027096644044,-0.023055071011185646,0.22626739740371704,4.722906112670898,1.3534374237060547,47.64159824450078,-122.14017439922463,124.62965393066406,-0.04638027235950634,-0.0028795179711232433,-15.167976503766807,1.8488895555884894,4.645600866544155,0.0,1.8488895555884894,4.645600866544155,0.0,0.8567936118767737,0.3750008582091504,0.006048400938855281,0.7703460693359387,1.8488895555884894,4.645600866544155,0.0,0.0,0.0,0.0,0.0,0.0,0.0
22/04/2022,13:17:44,33.840303,-0.8643565500387922,14.472891892306507,2.6345901489257812,3.5547637939453125,0.052849315106868744,0.18657395243644714,0.3063512146472931,0.22626739740371704,4.722906112670898,1.3534374237060547,47.641598299933015,-122.14017436772058,124.63548278808594,6.71621904050111,-11.813535202901306,-15.81024476503386,1.796698711488853,4.666034048325654,-3.0,1.796698711488853,4.666034048325654,-3.0,0.8513749998700904,0.3727613214632286,0.006012279378436958,0.76540985107422,1.796698711488853,4.666034048325654,-3.0,0.0,0.0,0.0,0.0,0.0,0.0
22/04/2022,13:17:45,34.018305,-0.8474038318963721,14.539910861290991,2.665802001953125,3.5547637939453125,0.142018124461174,0.5529597997665405,-0.24956804513931274,0.22626739740371704,4.722906112670898,1.3534374237060547,47.64159891113366,-122.14017412855783,124.66507720947266,12.597425408596209,-21.041613179680787,-18.68824505239874,1.5601534996622735,4.750360097665393,-2.0,1.6577406588555244,4.751934084103987,0.27359191447875153,0.8154228783273512,0.35473234236921014,0.005721489393051726,0.7341979980468762,1.5601534996622735,4.750360097665393,-2.0,0.0,0.0,0.0,0.09758715919325078,0.001573986438594772,2.2735919144787515
22/04/2022,13:17:45,34.192304,-0.8106601404724643,14.696334978565574,2.627227783203125,3.5547637939453125,0.33535313606262207,1.3988227844238281,0.10424219816923141,0.33535313606262207,4.722906112670898,1.3534374237060547,47.64160033742917,-122.14017360863821,124.62751770019531,11.782402855828,-17.34428482072586,-22.047388832419095,1.2791277879546605,4.833614806961992,-2.0,1.2791277879546605,4.833614806961992,-2.0,0.8347022400670199,0.3154758937074349,0.005088320866246221,0.7727722167968762,1.2791277879546605,4.833614806961992,-2.0,0.0,0.0,0.0,-0.0,-0.0,0.0
22/04/2022,13:17:45,34.345328,-0.7548328158445656,14.941721985116601,2.6353073120117188,3.5547637939453125,0.42382246255874634,1.7804771661758423,-0.2928141951560974,0.42382246255874634,4.722906112670898,1.3534374237060547,47.64160254997655,-122.14017282563726,124.63445281982422,12.353295621849,-15.212633486359241,-26.68979913452943,0.8837143637028069,4.9212852918099905,-2.0,-0.17206295310727393,4.904256625409828,0.19620223288817673,0.8063235143405255,0.255706262946497,0.004124294563652597,0.7646926879882825,0.8837143637028069,4.9212852918099905,-2.0,0.0,0.0,0.0,-1.0557773168100808,-0.01702866640016279,2.1962022328881767
22/04/2022,13:17:45,34.516309,-0.6771366838365793,15.298590689897537,2.5913543701171875,3.5547637939453125,0.4974544048309326,2.406458616256714,0.12973882257938385,0.4974544048309326,4.722906112670898,1.3534374237060547,47.64160576967095,-122.14017173567564,124.59172058105469,7.523924995906259,-12.077417567267682,-33.42473806133381,0.3004657558650643,4.990963867786705,-2.0,-1.472559864508697,4.9623666803613204,-0.9181014090036812,0.8267977123949567,0.17227588813892425,0.002778643357077115,0.8086456298828137,0.3004657558650643,4.990963867786705,-2.0,0.0,0.0,0.0,-1.7730256203737613,-0.02859718742538491,1.0818985909963188
22/04/2022,13:17:45,34.693306,-0.6013140872819349,15.755494643934071,2.637115478515625,3.5547637939453125,0.3936631679534912,2.816650867462158,0.3164038062095642,0.4974544048309326,4.722906112670898,1.3534374237060547,47.64160988388916,-122.14017066294787,124.6380615234375,2.3249405035631003,-11.968149865243374,-41.42683499689749,-0.39724868842961136,4.984194366147949,-2.0,-0.39724868842961136,4.984194366147949,-2.0,0.7680720346594276,0.08910550938565553,0.0014371856352504153,0.7628845214843762,-0.39724868842961136,4.984194366147949,-2.0,0.0,0.0,0.0,-0.0,-0.0,0.0
22/04/2022,13:17:45,34.875305,-0.5473732155514881,16.289450359530747,2.644775390625,3.5547637939453125,0.2784228026866913,2.997570037841797,-0.4036717116832733,0.4974544048309326,4.722906112670898,1.3534374237060547,47.64161468727789,-122.14016987069729,124.64358520507812,4.236948778229041,-9.521851800884733,-50.17734463922115,-1.1508811186717531,4.86574481972543,-2.0,-2.075718880191118,4.850828081636403,0.305545056653421,0.7556919286219208,0.02656871737035471,0.0004285276995226184,0.7552246093750012,-1.1508811186717531,4.86574481972543,-2.0,0.0,0.0,0.0,-0.9248377615193649,-0.014916738089027153,2.305545056653421
22/04/2022,13:17:46,35.050305,-0.5210478785447776,16.832108016125858,2.583099365234375,3.5547637939453125,0.011138282716274261,3.2819435596466064,0.009998328052461147,0.4974544048309326,4.722906112670898,1.3534374237060547,47.64161957443376,-122.14016945071408,124.58311462402344,0.4686051561446122,-11.801831181502306,-58.34859248285743,0.5247498902844742,0.8512564552744563,0.0,0.5247498902844742,0.8512564552744563,0.0,0.8169448675080025,-0.008500039499006018,-0.00013709741127598818,0.8169006347656262,0.5247498902844742,0.8512564552744563,0.0,-0.0,-0.0,0.0,-0.0,-0.0,0.0
22/04/2022,13:17:46,35.227303,-0.5479802439222112,17.417776688933372,2.5771560668945312,3.5547637939453125,-0.21775351464748383,3.222033739089966,0.04736888036131859,0.4974544048309326,4.722906112670898,1.3534374237060547,47.64162484476897,-122.14016973201517,124.57727813720703,-10.822083624908233,1.0914201397112422,-65.4925471494207,0.7493390947069846,4.054440888845677,0.0,0.7493390947069846,4.054440888845677,0.0,0.8228929618981573,0.008981509212772743,0.00014486305181549142,0.82284393310547,0.7493390947069846,4.054440888845677,0.0,0.0,0.0,0.0,0.0,0.0,0.0
22/04/2022,13:17:46,35.398304,-0.5977074096444994,17.95083177369088,2.5780563354492188,3.5547637939453125,-0.26202425360679626,2.996594190597534,-0.23266293108463287,0.4974544048309326,4.722906112670898,1.3534374237060547,47.64162955855414,-122.14017030664145,124.57805633544922,-1.6978817753072966,0.6968841890428955,-68.75765041594032,0.8795116882632212,5.0225948662228745,-1.0,1.7058941705340493,5.035923615936912,1.2283963017160962,0.8234695393726559,0.050100315397820894,0.0008080696031882439,0.8219436645507825,0.8795116882632212,5.0225948662228745,-1.0,0.0,0.0,0.0,0.8263824822708282,0.013328749714037011,2.228396301716096
22/04/2022,13:17:46,35.545307,-0.6378959883004427,18.38318219035864,2.5629119873046875,3.5547637939453125,-0.19650007784366608,3.0794031620025635,0.17631866037845612,0.4974544048309326,4.722906112670898,1.3534374237060547,47.641633535240416,-122.14017078573224,124.56342315673828,7.636415117801996,1.91315013985185,-71.36560239787283,1.5976412294352897,4.73788375775604,-1.0,1.5976412294352897,4.73788375775604,-1.0,0.841224214834338,0.08330686169692236,0.0013436590596249687,0.8370880126953137,1.5976412294352897,4.73788375775604,-1.0,0.0,0.0,0.0,0.0,0.0,0.0
22/04/2022,13:17:46,35.732304,-0.6691966084763408,18.97103817947209,2.5685577392578125,3.5547637939453125,-0.07989992946386337,3.2238903045654297,-0.40407097339630127,0.4974544048309326,4.722906112670898,1.3534374237060547,47.64163874421586,-122.14017110770293,124.56855773925781,7.939726501711396,5.205693263108215,-77.00176841058368,2.0989819108769727,4.646964056005948,-1.0,2.34101938177225,4.650867886181679,1.4662415502862718,0.8380628714363105,0.10512025900020405,0.0016954880483872614,0.8314422607421887,2.0989819108769727,4.646964056005948,-1.0,0.0,0.0,0.0,0.24203747089527713,0.0039038301757310734,2.466241550286272
22/04/2022,13:17:46,35.909304,-0.6648257577326149,19.56801849976182,2.5249710083007812,3.5547637939453125,0.2834937274456024,3.4445109367370605,0.2755073308944702,0.4974544048309326,4.722906112670898,1.3534374237060547,47.6416441146548,-122.1401709613832,124.52497100830078,5.508773375535199,9.081850383731153,-83.7839161590178,2.3130764918467634,2.765804971950457,0.0,2.3130764918467634,2.765804971950457,0.0,0.8797622069569879,0.09112433439244183,0.0014697473289082552,0.87502899169922,2.3130764918467634,2.765804971950457,0.0,0.0,0.0,0.0,-0.0,-0.0,0.0
22/04/2022,13:17:47,36.066306,-0.6069366360316053,20.089963151142,2.582305908203125,3.5547637939453125,0.5603069067001343,3.4658875465393066,0.3845454752445221,0.5603069067001343,4.722906112670898,1.3534374237060547,47.64164889809836,-122.14017009139702,124.58345794677734,-3.2511450356295324,10.272344052028036,-88.82107682914899,0.0,0.0,0.0,-2.2498618549311558,-0.036288094434374835,0.0905771431845861,0.8180712166686845,0.024833995717733925,0.0004005483180229419,0.8176940917968762,0.0,0.0,0.0,0.0,0.0,0.0,-2.2498618549311558,-0.036288094434374835,0.0905771431845861
22/04/2022,13:17:47,36.247306,-0.4953816580818966,20.691766719333827,2.6581878662109375,3.5547637939453125,0.6397110223770142,3.080173969268799,0.6899384260177612,0.6397110223770142,4.722906112670898,1.3534374237060547,47.64165429098385,-122.14016851412232,124.66024017333984,-15.256733116460364,-6.330201402149385,-89.17067835621984,2.0142643834283547,0.9709474721384211,0.0,-0.2521252620933194,0.9343928004364538,-0.9805287489655623,0.7480506928643296,-0.09639595394847511,-0.0015547734507848077,0.7418121337890637,2.0142643834283547,0.9709474721384211,0.0,-0.0,-0.0,0.0,-2.266389645521674,-0.036554671701967356,-0.9805287489655623
22/04/2022,13:17:47,36.401305,-0.42219660512637347,21.120759593322873,2.7952499389648438,3.5547637939453125,0.39443522691726685,2.5342440605163574,0.9666430354118347,0.6397110223770142,4.722906112670898,1.3534374237060547,47.64165812847077,-122.14016748638008,124.79814910888672,-17.48060493967342,-6.566837201769923,-90.91233546348658,3.9517251559264954,3.06331002218478,0.0,2.4135707040622103,3.0385010794127694,-1.9519971350732956,0.6299807313905681,-0.17647941344089424,-0.0028464421522755856,0.6047500610351575,3.9517251559264954,3.06331002218478,0.0,-0.0,-0.0,0.0,-1.5381544518642853,-0.024808942772011046,-1.9519971350732956
22/04/2022,13:17:47,36.581305,-0.36291634221561253,21.55191221833229,2.9264678955078125,3.5547637939453125,0.352129727602005,2.258129596710205,0.2897526025772095,0.6397110223770142,4.722906112670898,1.3534374237060547,47.64166199397995,-122.14016663535553,124.92736053466797,-5.517805741888339,4.286629865225917,-94.34336196764973,2.688450773836676,4.215712565706653,0.0,0.6627395589874419,4.183039804176825,-0.21054489997159506,0.5321180133750677,-0.24269652485300064,-0.003914460078277671,0.47353210449218874,2.688450773836676,4.215712565706653,0.0,-0.0,-0.0,0.0,-2.025711214849234,-0.03267276152982818,-0.21054489997159506
22/04/2022,13:17:47,36.767308,-0.2951342340093106,21.963561479002237,2.9245681762695312,3.5547637939453125,0.4278946816921234,2.293839693069458,-0.0999433621764183,0.6397110223770142,4.722906112670898,1.3534374237060547,47.64166562983942,-122.14016568631445,124.92456817626953,5.90610035292753,1.1446117391583723,-95.20459636951121,1.6289043633016245,4.164933441871182,0.0,-0.48238018036536645,4.13088046536042,1.1437049097348655,0.5715008438602304,-0.31709878183780194,-0.00511449648125506,0.47543182373047,1.6289043633016245,4.164933441871182,0.0,-0.0,-0.0,0.0,-2.111284543666991,-0.03405297651076176,1.1437049097348655
22/04/2022,13:17:47,36.943313,-0.22580390237271786,22.396676146425307,2.9734725952148438,3.5547637939453125,0.3891157805919647,2.6453135013580322,0.8239132165908813,0.6397110223770142,4.722906112670898,1.3534374237060547,47.64166959073635,-122.14016468384052,124.97591400146484,8.509212971887477,-0.8461082929552483,-95.71857171107206,1.5914775314612575,4.179377856434374,0.0,-0.19583118057188154,4.15055029656287,-1.73691272025016,0.5802805372593124,-0.39339498578872334,-0.006345080415950832,0.4265274047851575,1.5914775314612575,4.179377856434374,0.0,-0.0,-0.0,0.0,-1.787308712033139,-0.028827559871503906,-1.73691272025016
22/04/2022,13:17:48,37.093307,-0.17506264592520893,22.807586171664298,3.089202880859375,3.5547637939453125,0.3525391221046448,2.8017446994781494,0.42900121212005615,0.6397110223770142,4.722906112670898,1.3534374237060547,47.64167328679614,-122.14016394917746,125.09051513671875,9.329068265042807,-1.4111613251549922,-95.91669165613844,1.5770164035555494,4.184855942910906,0.0,-0.5922935803445508,4.14986707220284,-0.9526956363049681,0.5475602959791156,-0.4507489029146121,-0.00727014359539524,0.31079711914062624,1.5770164035555494,4.184855942910906,0.0,-0.0,-0.0,0.0,-2.1693099839001,-0.034988870708065674,-0.9526956363049681
22/04/2022,13:17:48,37.247304,-0.13023980346042663,23.227931091561913,3.1089706420898438,3.5547637939453125,0.3129749894142151,2.9413928985595703,-0.04979362338781357,0.6397110223770142,4.722906112670898,1.3534374237060547,47.64167706780861,-122.14016329200209,125.10882568359375,8.36512551632058,-1.4323335613379238,-95.97949554592229,1.5724282914275585,4.1865820508283615,0.0,-0.6339602189989715,4.15099513936987,0.7047122669239309,0.580609405129383,-0.5023380814499242,-0.008102227120161842,0.2910293579101575,1.5724282914275585,4.1865820508283615,0.0,-0.0,-0.0,0.0,-2.20638851042653,-0.035586911458491216,0.7047122669239309
22/04/2022,13:17:48,37.426305,-0.08485078159719706,23.78547162003815,3.0936203002929688,3.5547637939453125,0.24882473051548004,3.156966209411621,-0.1003040000796318,0.6397110223770142,4.722906112670898,1.3534374237060547,47.641682085148766,-122.14016260802973,125.09332275390625,6.815515769566181,-1.2334675893047782,-95.99073471472546,0.0,0.0,-5.0,-2.1055662276691898,-0.03396074560757574,-4.076589727959725,0.6355078389209894,-0.5567055490202184,-0.008979121758390107,0.3063796997070325,0.0,0.0,-5.0,-0.0,-0.0,0.0,-2.1055662276691898,-0.03396074560757574,0.9234102720402755
22/04/2022,13:17:48,37.575309,-0.056637257686816156,24.26531727425754,3.0578155517578125,3.5547637939453125,0.18204058706760406,3.194620370864868,-0.5565455555915833,0.6397110223770142,4.722906112670898,1.3534374237060547,47.64168640044716,-122.14016216424699,125.05616760253906,-6.637666152371007,-10.086940759794247,-96.06246726136999,0.0,0.0,-4.0,-1.467185624842373,0.0,-1.9808296707170765,0.6844082152990116,-0.5926491683890367,-0.009558857554665678,0.34218444824218874,0.0,0.0,-4.0,-0.0,-0.0,0.0,-1.467185624842373,0.0,2.0191703292829235
22/04/2022,13:17:48,37.718307,-0.0493372252676636,24.70800620596856,2.957244873046875,3.5547637939453125,-0.04805636405944824,2.884199380874634,-0.6678920984268188,0.6397110223770142,4.722906112670898,1.3534374237060547,47.64169037424135,-122.1401620108598,124.95523834228516,-14.225969236862746,-10.610987767470906,-96.32494856954271,0.0,0.0,0.0,-0.8036319487550946,-0.012961805625083082,2.3663274796417384,0.7514525218682881,-0.6070855892954881,-0.009791703053156908,0.44275512695312624,0.0,0.0,0.0,-0.0,-0.0,0.0,-0.8036319487550946,-0.012961805625083082,2.3663274796417384
22/04/2022,13:17:48,37.871305,-0.0770012604771182,25.094572682864964,2.8869857788085938,3.5547637939453125,-0.25149789452552795,2.3343923091888428,-0.10431516170501709,0.6397110223770142,4.722906112670898,1.3534374237060547,47.641693840039174,-122.1401623302569,124.88664245605469,-13.460336191938667,-4.412344484443991,-98.04366833298288,0.0,0.0,-3.0,0.0,0.0,-3.0,0.7786352688832314,-0.5856620704976815,-0.009446162427384053,0.5130142211914075,0.0,0.0,-3.0,-0.0,-0.0,0.0,-0.0,-0.0,0.0
22/04/2022,13:17:49,38.051308,-0.13214804360177368,25.489736859686673,2.8523483276367188,3.5547637939453125,-0.2752283811569214,1.987330436706543,-0.6101236343383789,0.6397110223770142,4.722906112670898,1.3534374237060547,47.64169739127168,-122.14016300703602,124.85054016113281,-16.177558772673983,-1.9572349347992926,-98.75636719031345,0.0,0.0,-5.0,-0.07145832419542178,-0.0011525536160596137,-2.5072175021273133,0.7669815251033341,-0.5369015879571796,-0.008659703031572263,0.5476516723632825,0.0,0.0,-5.0,-0.0,-0.0,0.0,-0.07145832419542178,-0.0011525536160596137,2.4927824978726867
22/04/2022,13:17:49,38.204305,-0.17486579401884228,25.765874636359513,2.71270751953125,3.5547637939453125,-0.26104360818862915,1.775334358215332,-1.3121447563171387,0.6397110223770142,4.722906112670898,1.3534374237060547,47.64169982625143,-122.14016352392399,124.71270751953125,-14.82558892192753,-0.9934253621652928,-99.06426023746496,0.0,0.0,0.0,-0.03719795441225698,-0.0005999670066488037,3.6283812071768984,0.8491672932713106,-0.498647624251199,-0.008042703616954583,0.6872924804687512,0.0,0.0,0.0,-0.0,-0.0,0.0,-0.03719795441225698,-0.0005999670066488037,3.6283812071768984
22/04/2022,13:17:49,38.385306,-0.22143304301425815,26.049600845202804,2.498199462890625,3.5547637939453125,-0.20536041259765625,1.2958990335464478,-0.6541295051574707,0.6397110223770142,4.722906112670898,1.3534374237060547,47.64170238350779,-122.14016410194901,124.49819946289062,-8.326089468223014,-0.22886204949570374,-99.25613143707122,0.0,0.0,0.0,-0.28164104890251584,-0.004542597562946551,2.8624937823672036,1.0108628441093852,-0.45666752537211064,-0.007365605247940721,0.9018005371093762,0.0,0.0,0.0,-0.18216033557920416,-0.0029380699286982183,0.3597196632966073,-0.09948071332331167,-0.001604527634248333,2.502774119070596
22/04/2022,13:17:49,38.564306,-0.25592465279623866,26.24895100109279,2.4813232421875,3.5547637939453125,-0.1520693451166153,0.9300610423088074,0.5120502710342407,0.6397110223770142,4.722906112670898,1.3534374237060547,47.64170420559333,-122.14016453777678,124.48283386230469,-6.295440611209111,-0.05739401291767018,-99.29470049073169,0.0,0.0,-4.0,-0.16961886416372174,-0.0027357881316744984,-3.6336973738886487,1.012412312611474,-0.4253993749594308,-0.006861280241285073,0.9186767578125012,0.0,0.0,-4.0,-0.16961886416372174,-0.0027357881316744984,0.3663026261113514,-0.0,-0.0,-0.0
22/04/2022,13:17:49,38.746306,-0.28300243942067027,26.4026603596285,2.5608367919921875,3.5547637939453125,-0.1287032812833786,0.7816570997238159,0.017790399491786957,0.6397110223770142,4.722906112670898,1.3534374237060547,47.641705566034524,-122.1401648694498,124.56083679199219,-7.339215364817218,-0.1146162190579546,-100.029984626043,0.0,0.0,-4.0,0.0,0.0,-4.0,0.9299908966943564,-0.4008071690933447,-0.0064646317595702385,0.8391632080078137,0.0,0.0,-4.0,-0.0,-0.0,0.0,-0.0,-0.0,0.0
22/04/2022,13:17:49,38.898308,-0.30170557484962046,26.5084748538211,2.514923095703125,3.5547637939453125,-0.11355161666870117,0.6881856322288513,-0.6828946471214294,0.6397110223770142,4.722906112670898,1.3534374237060547,47.641706538463104,-122.14016510735647,124.51290130615234,-7.6577612683273815,-0.35916084003801846,-101.91357133643189,0.0,0.0,-4.0,-0.19882804056457123,-0.0032069038800742592,-1.4993100213351123,0.9647349433463966,-0.3838151394577287,-0.006190566765450711,0.8850769042968762,0.0,0.0,-4.0,-0.0,-0.0,0.0,-0.19882804056457123,-0.0032069038800742592,2.5006899786648877
22/04/2022,13:17:50,39.04031,-0.31807526235934347,26.6009151507169,2.3693161010742188,3.5547637939453125,-0.09911520034074783,0.5992879867553711,-1.3504356145858765,0.6397110223770142,4.722906112670898,1.3534374237060547,47.64170736936037,-122.14016531104818,124.36528015136719,-5.728759527501844,-0.5739801892527198,-104.8643129510863,0.0,0.0,-4.0,-0.4038648726088309,-0.00651394955820774,1.5119431126884084,1.094742732496406,-0.3689402941053658,-0.00595064990492844,1.0306838989257825,0.0,0.0,-4.0,-0.14350432228861487,-0.002314585843365995,0.40089845639601157,-0.26036055032021604,-0.004199363714841745,5.111044656292397
22/04/2022,13:17:50,39.227311,-0.3346500777406618,26.693932384252548,2.173553466796875,3.5547637939453125,-0.06640984117984772,0.39593106508255005,-0.47403544187545776,0.6397110223770142,4.722906112670898,1.3534374237060547,47.64170820239415,-122.1401655166576,124.17210388183594,-3.284214597909948,-0.6035350332123167,-109.5374694562562,0.0,0.0,0.0,-0.3957757408529719,-0.006383479691181835,2.932927094913378,1.2764902755968976,-0.35386967724019613,-0.0057075754393594025,1.2264465332031262,0.0,0.0,0.0,-0.1281111421092037,-0.0020663087436973413,0.4440094085763573,-0.2676645987437682,-0.004317170947484494,2.488917686337021
22/04/2022,13:17:50,39.376305,-0.3438025217037648,26.74456987902522,2.1631851196289062,3.5547637939453125,-0.048633892089128494,0.2860015034675598,0.3427048921585083,0.6397110223770142,4.722906112670898,1.3534374237060547,47.641708655883235,-122.14016563030671,124.16419219970703,-2.1886413369215676,-0.5371192045673318,-113.03823009779867,0.0,0.0,0.0,-0.12466616194983914,-0.0020107445475783313,0.446231084279681,1.2841874197516092,-0.34553613499877556,-0.0055731634677229636,1.236814880371095,0.0,0.0,0.0,-0.12466616194983914,-0.0020107445475783313,0.446231084279681,-0.0,-0.0,0.0
22/04/2022,13:17:50,39.560305,-0.352337341173552,26.791307439096272,2.21588134765625,3.5547637939453125,-0.03959192708134651,0.23146715760231018,0.09260697662830353,0.6397110223770142,4.722906112670898,1.3534374237060547,47.6417090757873,-122.14016573665941,124.21615600585938,-1.7880394714989707,-0.5076270733544361,-115.37012744656018,0.0,0.0,0.0,-0.652032755524338,-0.01051665734716885,2.417024882311844,1.2313596414756047,-0.3377571708069791,-0.005447696303342298,1.1841186523437512,0.0,0.0,0.0,-0.1246917550639891,-0.002011157339743209,0.4371478853046367,-0.5273410004603489,-0.008505500007425641,1.9798769970072074
22/04/2022,13:17:50,39.713304,-0.3579213017364964,26.821752624586225,2.2659530639648438,3.5547637939453125,-0.02948136255145073,0.17140285670757294,0.785423755645752,0.6397110223770142,4.722906112670898,1.3534374237060547,47.64170934397247,-122.14016580491287,124.26595306396484,-1.3133310711028323,-0.3949007506958456,-116.3459679622419,-0.4523403769954203,-1.339920961601706,0.0,-0.5776649393164199,-1.34194232551011,0.42722764787158723,1.1818450129949454,-0.332665586176659,-0.005365573970593118,1.1340469360351575,-0.4523403769954203,-1.339920961601706,0.0,-0.12532456232099967,-0.0020213639084039154,0.42722764787158723,-0.0,-0.0,-0.0
22/04/2022,13:17:50,39.899304,-0.36312104435637593,26.848541448824108,2.3958892822265625,3.5547637939453125,-0.0240461565554142,0.10293107479810715,0.3597882390022278,0.6397110223770142,4.722906112670898,1.3534374237060547,47.64170958550329,-122.14016587017798,124.39588928222656,-4.903960368046131,-2.262619766433969,-116.87487511870339,-0.8678131176121524,-4.924114173422493,0.0,-0.996935191636627,-4.926196787519663,0.39540466618599374,1.0563068511832303,-0.3278991613319078,-0.005288696150518746,1.0041107177734387,-0.8678131176121524,-4.924114173422493,0.0,-0.1291220740244746,-0.0020826140971705615,0.39540466618599374,-0.0,-0.0,0.0
22/04/2022,13:17:51,40.049306,-0.3662669643526897,26.84559891372919,2.4641647338867188,3.5547637939453125,-0.016537783667445183,-0.27108556032180786,0.7729803919792175,0.6397110223770142,4.722906112670898,1.3534374237060547,47.641709559343965,-122.14016591249155,124.46416473388672,-15.063905840756238,-7.450487343174634,-116.26961974611746,-0.9197805905384646,-4.914672284625773,0.0,-0.9197805905384646,-4.914672284625773,0.0,0.990580363842706,-0.32470661162014847,-0.005237203413230418,0.9358352661132825,-0.9197805905384646,-4.914672284625773,0.0,-0.0,-0.0,0.0,-0.0,-0.0,-0.0
22/04/2022,13:17:51,40.205303,-0.36748024192638695,26.749916962347925,2.6343765258789062,3.5547637939453125,-0.014267449267208576,-0.9809907078742981,1.3151823282241821,0.6397110223770142,4.722906112670898,1.3534374237060547,47.64170869863966,-122.1401659427689,124.6343765258789,-18.62092946861582,-9.452484465112327,-115.90004516337335,-0.05190487951777856,-4.471834733471514,0.0,-0.39935368568629925,-4.477438746474236,-2.474923801137511,0.8305772585246665,-0.3219507936802444,-0.00519275473678249,0.765623474121095,-0.05190487951777856,-4.471834733471514,0.0,-0.0,-0.0,0.0,-0.3474488061685207,-0.005604013002721536,-2.474923801137511
22/04/2022,13:17:51,40.355317,-0.3677539548370987,26.574806464836,2.7987060546875,3.5547637939453125,-0.015387219376862049,-1.3184666633605957,0.7006513476371765,0.6397110223770142,4.722906112670898,1.3534374237060547,47.641707087808925,-122.14016597287977,124.80083465576172,-20.299907243834316,-10.413788022898267,-115.69160872033622,-0.06817259764129857,-4.471616318170739,0.0,-0.06817259764129857,-4.471616318170739,0.0,0.6806235571821648,-0.3188535236478607,-0.005142798768517309,0.6012939453125012,-0.06817259764129857,-4.471616318170739,0.0,-0.0,-0.0,0.0,-0.0,-0.0,-0.0
22/04/2022,13:17:51,40.509307,-0.3677807218628004,26.33158623240888,2.900360107421875,3.5547637939453125,-0.020759912207722664,-1.9132771492004395,0.7385326027870178,0.6397110223770142,4.722906112670898,1.3534374237060547,47.64170488362528,-122.14016600935773,124.90258026123047,-16.818194580555712,-8.771261600647419,-116.33060663267814,-0.018299165481567847,-4.472098516417397,0.0,-0.4416758927293747,-4.478927173308497,-1.9548051822107535,0.5906190829124051,-0.31490487687093505,-0.005079110917279195,0.49963989257812624,-0.018299165481567847,-4.472098516417397,0.0,-0.0,-0.0,0.0,-0.42337672724780684,-0.006828656891100199,-1.9548051822107535
22/04/2022,13:17:51,40.704307,-0.36760900856461376,25.92438451386988,2.9725265502929688,3.5547637939453125,-0.023319054394960403,-2.233391046524048,-0.13166169822216034,0.6397110223770142,4.722906112670898,1.3534374237060547,47.64170121139288,-122.14016606729237,124.97215270996094,-13.705571755284106,-7.118861651875031,-116.84880308824368,0.0,0.0,0.0,0.0,0.0,0.0,0.5271973342764458,-0.30851048398896164,-0.004975975548209277,0.4274734497070325,0.0,0.0,0.0,-0.0,-0.0,0.0,-0.0,-0.0,0.0
22/04/2022,13:17:51,40.888304,-0.3670866509201005,25.497586134821177,2.909515380859375,3.5547637939453125,-0.020512893795967102,-2.3690154552459717,-0.20550884306430817,0.6397110223770142,4.722906112670898,1.3534374237060547,47.64169736784815,-122.14016612323945,124.90888214111328,3.183929909781241,1.9029658083204672,-117.85189497402109,0.0,0.0,-5.0,0.0,0.0,-5.0,0.5761023586955396,-0.30215065129312,-0.004873397601507179,0.49048461914062624,0.0,0.0,-5.0,-0.0,-0.0,0.0,-0.0,-0.0,0.0
22/04/2022,13:17:52,41.052306,-0.3660671045072377,25.139907781034708,2.8652267456054688,3.5547637939453125,-0.01773025281727314,-2.2145299911499023,-0.6294806003570557,0.6397110223770142,4.722906112670898,1.3534374237060547,47.6416941539511,-122.14016616235969,124.86336517333984,12.147380858881489,6.681825433421954,-117.40153593521522,0.0,0.0,-5.0,-0.26366924170375217,-0.0042527297049037936,-2.5177427066359033,0.6119261775378619,-0.29740242722973464,-0.004796813342419881,0.5347732543945325,0.0,0.0,-5.0,-0.0,-0.0,0.0,-0.26366924170375217,-0.0042527297049037936,2.4822572933640967
22/04/2022,13:17:52,41.234308,-0.3647095939377323,24.745925254188478,2.6640090942382812,3.5547637939453125,-0.01385553553700447,-1.949253797531128,-1.5180163383483887,0.6397110223770142,4.722906112670898,1.3534374237060547,47.64169061639751,-122.14016620229889,124.65946960449219,12.978658608924423,7.165049318068078,-117.44917724149583,0.0,0.0,-5.0,-0.283604531468538,-0.004574266636593753,0.3000540035163768,0.7919637132317074,-0.29240668053655205,-0.004716236782847716,0.73599090576172,0.0,0.0,-5.0,-0.0,-0.0,0.0,-0.283604531468538,-0.004574266636593753,5.300054003516377
22/04/2022,13:17:52,41.430305,-0.36306898191105574,24.43216676916927,2.4209747314453125,3.5547637939453125,-0.005356392357498407,-1.3677830696105957,-0.7445329427719116,0.6397110223770142,4.722906112670898,1.3534374237060547,47.641687809012176,-122.14016622644125,124.41870880126953,9.37510431191351,5.17643855898183,-117.9231639097494,0.0,0.0,-4.0,-0.35629963268738474,-0.005746768269158311,-1.0669214593154863,1.0207967539209122,-0.28898756130621495,-0.004661089698490883,0.9790252685546887,0.0,0.0,-4.0,-0.11496979041092936,-0.0018543514582422067,0.3894919539926777,-0.24132984227645538,-0.0038924168109161048,2.543586586691836
22/04/2022,13:17:52,41.615305,-0.36124011198990047,24.203663180582225,2.2759628295898438,3.5547637939453125,-0.002873752498999238,-1.102854609489441,-1.0659458637237549,0.6397110223770142,4.722906112670898,1.3534374237060547,47.64168576027329,-122.14016623572896,124.27277374267578,7.643391681322485,3.9987383241482974,-117.0346740035778,0.0,0.0,-4.0,-0.37353212958223536,-0.006024711767462058,-0.07031127385029512,1.1601402643713223,-0.287131372355506,-0.0046311511670253935,1.1240371704101575,0.0,0.0,-4.0,-0.10908665323750236,-0.0017594621489923925,0.42704303618477407,-0.264445476344733,-0.004265249618469665,3.5026456899649308
22/04/2022,13:17:52,41.797305,-0.3596648252569139,24.02883238811046,2.131622314453125,3.5547637939453125,-0.0011535343946889043,-0.7602627277374268,-0.26797446608543396,0.6397110223770142,4.722906112670898,1.3534374237060547,47.64168421697739,-122.14016624045394,124.13162231445312,5.808340788953719,2.5938842070457793,-113.79830509808497,0.0,0.0,0.0,-0.457310518427581,-0.007375976103677014,2.9261940761391263,1.300205624933821,-0.2858871312809548,-0.004611082762597363,1.2683776855468762,0.0,0.0,0.0,-0.10240401473261955,-0.0016516776569782067,0.45432953423014394,-0.35490650369496146,-0.005724298446698807,2.471864541908982
22/04/2022,13:17:53,41.987308,-0.35854135314002633,23.91221321001649,2.1516494750976562,3.5547637939453125,-0.000874681631103158,-0.5190710425376892,0.604229748249054,0.6397110223770142,4.722906112670898,1.3534374237060547,47.64168315364254,-122.14016624275001,124.1534423828125,3.8244206067473825,1.4276017395031053,-110.46251478276781,0.0,0.0,0.0,-0.10304117901798289,-0.0016619545002913123,0.45113309516925043,1.280507403980124,-0.2851298459169729,-0.004598868482535323,1.248350524902345,0.0,0.0,0.0,-0.10304117901798289,-0.0016619545002913123,0.45113309516925043,-0.0,-0.0,0.0
22/04/2022,13:17:53,42.163304,-0.3577807352412492,23.828500849194825,2.2485885620117188,3.5547637939453125,-0.000962523918133229,-0.42859017848968506,0.21501398086547852,0.6397110223770142,4.722906112670898,1.3534374237060547,47.64168240289077,-122.14016624498686,124.24923706054688,3.227552769622314,1.099414185623937,-108.76021589012488,0.0,0.0,-2.0,-0.10701562055036098,-0.0017260583959747995,-1.566954281910583,1.1860575918238974,-0.28454041778484185,-0.004589361577178153,1.1514114379882825,0.0,0.0,-2.0,-0.10701562055036098,-0.0017260583959747995,0.4330457180894169,-0.0,-0.0,0.0
22/04/2022,13:17:53,42.322306,-0.3572383522987366,23.76604461297393,2.2416152954101562,3.5547637939453125,-0.0009542828775011003,-0.3774879276752472,-0.42065680027008057,0.6397110223770142,4.722906112670898,1.3534374237060547,47.64168184231521,-122.14016624698685,124.24037170410156,2.9440798847485876,0.9064950093193774,-107.00990720109304,0.0,0.0,-3.0,-0.44106425003006877,-0.007113939516616219,-0.08797236878119952,1.1927175033524613,-0.28407556300859294,-0.004581863919494111,1.158384704589845,0.0,0.0,-3.0,-0.10655690044464046,-0.0017186596845912292,0.43451074191777855,-0.3345073495854283,-0.00539527983202499,2.4775168893010218
