date,fly_time,fly_time_s,x,y,z,z_max,vx,vy,vz,vx_max,vy_max,vz_max,latitude,longitude,altitude,pitch,roll,yaw,cx,cy,cz,scx,scy,scz,d,dx,dy,dz,gc_pow_x,gc_pow_y,gc_pow_z,gpc_pow_x,gpc_pow_y,gpc_pow_z,gfc_pow_x,gfc_pow_y,gfc_pow_z
22/04/2022,12:09:45,15.503994,0.0,0.0,2.4673614501953125,2.4673614501953125,0.0,0.0,0.035464853048324585,0,0,0.035464853048324585,47.641468,-122.140165,124.46746826171875,0.0,0.0,0.0,0.0,0.0,0.0,0.0,0.0,0.0,0.9676748620140913,-0.25799739921976594,-0.004161248374512427,0.9326385498046887,0.0,0.0,0.0,-0.0,-0.0,0.0,-0.0,-0.0,0.0
22/04/2022,12:09:46,15.693996,0.0,0.0,2.4733352661132812,2.4733352661132812,0.0,0.0,0.027958234772086143,0,0,0.035464853048324585,47.641468,-122.140165,124.47333526611328,0.0,0.0,0.0,0.0,0.0,5.0,0.0,0.0,5.0,0.9619186571750977,-0.25799739921976594,-0.004161248374512427,0.92666473388672,0.0,0.0,5.0,-0.0,-0.0,0.0,-0.0,-0.0,0.0
22/04/2022,12:09:46,15.881995,0.0,0.0,2.5514678955078125,2.5514678955078125,0.0,0.0,1.0322985649108887,0,0,1.0322985649108887,47.641468,-122.140165,124.55453491210938,0.0,0.0,0.0,0.0,0.0,5.0,-0.4738528629612515,-0.007642788112278385,2.766505028569586,0.8868972355048472,-0.25799739921976594,-0.004161248374512427,0.8485321044921887,0.0,0.0,5.0,-0.0,-0.0,0.0,-0.4738528629612515,-0.007642788112278385,-2.233494971430414
22/04/2022,12:09:46,16.032995,0.0,0.0,2.7821044921875,2.7821044921875,0.0,0.0,2.010775327682495,0,0,2.010775327682495,47.641468,-122.140165,124.7821044921875,0.0,0.0,0.0,0.0,0.0,5.0,-0.2956694191461788,-0.004768861599132,1.099353158232744,0.6696079693126915,-0.25799739921976594,-0.004161248374512427,0.6178955078125012,0.0,0.0,5.0,-0.0,-0.0,0.0,-0.2956694191461788,-0.004768861599132,-3.900646841767256
22/04/2022,12:09:46,16.186993,0.0,0.0,3.07110595703125,3.07110595703125,0.0,0.0,1.557466983795166,0,0,2.010775327682495,47.641468,-122.140165,125.07579803466797,0.0,0.0,0.0,0.0,0.0,5.0,-0.2539481739812017,-0.004095938290019453,2.257686497476248,0.41803261295325805,-0.25799739921976594,-0.004161248374512427,0.32889404296875124,0.0,0.0,5.0,-0.0,-0.0,0.0,-0.2539481739812017,-0.004095938290019453,-2.742313502523752
22/04/2022,12:09:46,16.372993,0.0,0.0,3.4080352783203125,3.4080352783203125,0.0,0.0,2.195312738418579,0,0,2.195312738418579,47.641468,-122.140165,125.41461181640625,0.0,0.0,0.0,0.0,0.0,0.0,-0.5542566258429044,-0.008939622997466357,-9.449656763029878,0.2581560374848563,-0.25799739921976594,-0.004161248374512427,-0.008035278320311257,0.0,0.0,0.0,-0.0,-0.0,-0.0,-0.5542566258429044,-0.008939622997466357,-9.449656763029878
22/04/2022,12:09:46,16.563995,0.0,0.0,3.7676925659179688,3.7676925659179688,0.0,0.0,1.4141968488693237,0,0,2.195312738418579,47.641468,-122.140165,125.77195739746094,0.0,0.0,0.0,-1.0,5.0,0.0,-1.271804421644638,4.995616057715409,-3.367128432483066,0.44919683550035894,-0.25799739921976594,-0.004161248374512427,-0.3676925659179675,-1.0,5.0,0.0,-0.0,-0.0,-0.0,-0.27180442164463803,-0.004383942284591013,-3.367128432483066
22/04/2022,12:09:47,16.714994,-0.0007265593158081174,0.002408912405371666,3.9346237182617188,3.9346237182617188,-0.019609998911619186,0.07118291407823563,0.7125034928321838,0,0.07118291407823563,2.195312738418579,47.64146802174485,-122.14016500931643,125.93462371826172,-4.019641267127716,-15.132284735285397,0.5188594131476484,-0.9546805897733355,5.0088506637261645,-5.0,-1.2340872779082896,5.004344104240117,-7.484322170561479,0.5933364258787079,-0.25730987218703943,-0.004150159228823225,-0.5346237182617175,-0.9546805897733355,5.0088506637261645,-5.0,-0.0,-0.0,-0.0,-0.2794066881349542,-0.004506559486047583,-2.4843221705614793
22/04/2022,12:09:47,16.871996,-0.008906328002922237,0.03145044203847647,3.9852676391601562,3.9852676391601562,-0.0942092314362526,0.34464800357818604,-0.09026886522769928,0,0.34464800357818604,2.195312738418579,47.64146829304013,-122.14016511764946,125.98502349853516,-8.11890985243252,-26.28757916356193,1.6212148558134492,-0.8581409003829783,5.0262903015136216,-5.0,-0.8581409003829783,5.0262903015136216,-5.0,0.6362820417301357,-0.24960052082266643,-0.004025814851978504,-0.585267639160155,-0.8581409003829783,5.0262903015136216,-5.0,-0.0,-0.0,-0.0,-0.0,-0.0,-0.0
22/04/2022,12:09:47,17.049998,-0.03596142143942416,0.12960681784898043,3.8833236694335938,3.9852676391601562,-0.18288466334342957,0.7762055993080139,-1.078579068183899,0,0.7762055993080139,2.195312738418579,47.64146919044224,-122.14016546688885,125.88011169433594,-4.267193066987229,-30.778557663787257,2.5720292734898247,-0.7746160760136612,5.039838284586242,-5.0,-0.6021850045330124,5.042619430900446,-2.5227062718330187,0.5327770967821477,-0.22413521942613535,-0.003615084184292572,-0.4833236694335925,-0.7746160760136612,5.039838284586242,-5.0,-0.0,-0.0,-0.0,0.17243107148064887,0.002781146314204082,2.4772937281669813
22/04/2022,12:09:47,17.217997,-0.07235916168428957,0.3306078873574734,3.7035751342773438,3.9852676391601562,-0.2227201908826828,1.7948695421218872,-0.8877202272415161,0,1.7948695421218872,2.195312738418579,47.641471029783574,-122.1401659233559,125.70091247558594,-1.5369802724682773,-26.940709691910918,3.476852714436909,-0.6949329215912168,5.05144219352144,0.0,-0.3732267526728127,5.056631002697543,2.410293120578568,0.35866946969940566,-0.1909880550069582,-0.0030804525001124627,-0.3035751342773425,-0.6949329215912168,5.05144219352144,0.0,-0.0,-0.0,-0.0,0.3217061689184041,0.0051888091761021935,2.410293120578568
22/04/2022,12:09:47,17.403994,-0.11529279535170645,0.7315482310950756,3.574859619140625,3.9852676391601562,-0.19613488018512726,2.697788953781128,-0.30053016543388367,0,2.697788953781128,2.195312738418579,47.64147466557669,-122.14016643465325,125.57393646240234,-0.38508365352829477,-16.16250622056848,4.450066185405451,-0.6090341172661669,5.062516908021722,0.0,-0.6090341172661669,5.062516908021722,0.0,0.2333705879412238,-0.1545306853045345,-0.0024924304081377358,-0.17485961914062376,-0.6090341172661669,5.062516908021722,0.0,-0.0,-0.0,-0.0,0.0,0.0,0.0
22/04/2022,12:09:47,17.588997,-0.15453266981057823,1.3079634606838226,3.6079483032226562,3.9852676391601562,-0.15035130083560944,3.382927656173706,0.5457700490951538,0,3.382927656173706,2.195312738418579,47.64147978282229,-122.14016686406318,125.60794830322266,-0.12064890761633322,-13.221669492722217,5.012025173287682,-0.559352278797104,5.068246741054,0.0,-0.43953541339376717,5.070179271141148,-2.326304440634045,0.24242649070629776,-0.12459561815618575,-0.0020096067444550503,-0.207948303222655,-0.559352278797104,5.068246741054,0.0,-0.0,-0.0,-0.0,0.11981686540333687,0.0019325300871486488,-2.326304440634045
22/04/2022,12:09:48,17.742996,-0.1826256908243522,1.8521379679441452,3.6583938598632812,3.9852676391601562,-0.13378320634365082,3.5823283195495605,-0.06412522494792938,0,3.5823283195495605,2.195312738418579,47.64148477792199,-122.14016716305994,125.6582260131836,-0.06079440471250806,-12.805113094320948,5.245488596915884,-0.5386960799325491,5.070483855951551,0.0,-0.5386960799325491,5.070483855951551,0.0,0.27902530995272207,-0.10528462899446739,-0.0016981391773298604,-0.25839385986328,-0.5386960799325491,5.070483855951551,0.0,-0.0,-0.0,-0.0,0.0,0.0,-0.0
22/04/2022,12:09:48,17.894993,-0.20781149086542428,2.434103472158313,3.6531295776367188,3.9852676391601562,-0.10375486314296722,3.916396379470825,0.12021046131849289,0,3.916396379470825,2.195312738418579,47.64148991972414,-122.14016740706347,125.65312957763672,-0.026404965654627938,-9.947878662816585,5.367826141196384,-0.5278683988239526,5.071622516860165,0.0,-0.5278683988239526,5.071622516860165,0.0,0.26848656047936126,-0.0894894783841676,-0.0014433786836156592,-0.2531295776367175,-0.5278683988239526,5.071622516860165,0.0,-0.0,-0.0,-0.0,-0.0,-0.0,-0.0
22/04/2022,12:09:48,18.049995,-0.22860481520183384,3.036232465878129,3.6697769165039062,3.9852676391601562,-0.08440619707107544,4.12329626083374,0.08727484196424484,0,4.12329626083374,2.195312738418579,47.641495338995234,-122.14016759497329,125.6697769165039,-0.009881729392312948,-7.71171547167393,5.4308494482261,-0.5222894773381059,5.072200084959374,0.0,-0.5222894773381059,5.072200084959374,0.0,0.28094383201706025,-0.07841079408285945,-0.0012646902271433724,-0.269776916503905,-0.5222894773381059,5.072200084959374,0.0,-0.0,-0.0,-0.0,-0.0,-0.0,-0.0
22/04/2022,12:09:48,18.210996,-0.24819325027056038,3.7037296975031495,3.680023193359375,3.9852676391601562,-0.06867875903844833,4.287156581878662,0.04362617805600166,0,4.287156581878662,2.195312738418579,47.64150134624697,-122.14016775719296,125.68002319335938,-0.0030000633127981002,-6.057827479075592,5.466661584193899,-0.5191190491795226,5.072525545798557,0.0,-0.5191190491795226,5.072525545798557,0.0,0.288543098118525,-0.06959073789471032,-0.001122431256367129,-0.28002319335937376,-0.5191190491795226,5.072525545798557,0.0,-0.0,-0.0,-0.0,-0.0,-0.0,-0.0
22/04/2022,12:09:48,18.398994,-0.2686288864351809,4.513426820747554,3.6853485107421875,3.9852676391601562,-0.05452192202210426,4.432226657867432,0.015997789800167084,0,4.432226657867432,2.195312738418579,47.641508752335355,-122.1401679118819,125.6854019165039,-0.0011396972437697894,-4.69192759647854,5.487621507030937,-0.5172633848924293,5.0727151103378185,0.0,-0.5172633848924293,5.0727151103378185,0.0,0.29205426080819363,-0.062216651086999475,-0.0010034943723713496,-0.28534851074218626,-0.5172633848924293,5.0727151103378185,0.0,-0.0,-0.0,-0.0,-0.0,-0.0,-0.0
22/04/2022,12:09:48,18.589999,-0.28730076435022056,5.360186665318906,3.68695068359375,3.9852676391601562,-0.043714482337236404,4.541871547698975,0.002129629720002413,0,4.541871547698975,2.195312738418579,47.64151637524129,-122.14016803500196,125.68695831298828,-0.0017922413010810596,-3.702717418193293,5.497577427695521,-1.5117821738848414,5.1686085805295825,0.0,-1.5117821738848414,5.1686085805295825,0.0,0.29259833529829093,-0.05720349417100762,-0.0009226370027590747,-0.28695068359374876,-1.5117821738848414,5.1686085805295825,0.0,-0.0,-0.0,-0.0,-0.0,-0.0,-0.0
22/04/2022,12:09:49,18.779996,-0.30796961148735136,6.225083028897643,3.6891708374023438,3.9852676391601562,-0.10323437303304672,4.62611198425293,0.04023241251707077,0,4.62611198425293,2.195312738418579,47.64152416082551,-122.14016818479794,125.68928527832031,-4.183794070664271,-2.582067006562378,5.466547926552723,-1.514581099686499,5.167789091330299,-5.0,-1.514581099686499,5.167789091330299,-5.0,0.29354608903240376,-0.05048633582165807,-0.0008142957390591121,-0.2891708374023425,-1.514581099686499,5.167789091330299,-5.0,-0.0,-0.0,-0.0,0.0,0.0,-0.0
22/04/2022,12:09:49,18.932995,-0.33884500013664365,6.948085533455014,3.6645126342773438,3.9852676391601562,-0.18880771100521088,4.656559944152832,-0.5250780582427979,0,4.656559944152832,2.195312738418579,47.6415306694035,-122.14016849250672,125.66295623779297,-6.9304580019468345,-2.836169786675894,5.742805119777615,-1.4896465914216699,5.175031693880319,-4.0,-1.4896465914216699,5.175031693880319,-4.0,0.26635588245573505,-0.03127727504524125,-0.0005044721781501948,-0.2645126342773425,-1.4896465914216699,5.175031693880319,-4.0,-0.0,-0.0,-0.0,0.0,0.0,0.0
22/04/2022,12:09:49,19.084995,-0.3826345914276317,7.660889696329832,3.5295028686523438,3.9852676391601562,-0.28477942943573,4.68234395980835,-1.2661951780319214,0,4.68234395980835,2.195312738418579,47.641536961190006,-122.14016896269028,125.52950286865234,-7.548477158332591,-2.63785994152667,6.546721082022604,-1.4168915755575573,5.195422818511889,-4.0,-0.9797430693112694,5.2024736008706975,-1.4955072084028282,0.12950678536528085,0.0010070762744776585,1.6243165717355623e-05,-0.1295028686523425,-1.4168915755575573,5.195422818511889,-4.0,0.0,0.0,-0.0,0.4371485062462879,0.007050782358808621,2.5044927915971718
22/04/2022,12:09:49,19.240997,-0.4420034473296255,8.378253969363868,3.3029937744140625,3.9852676391601562,-0.3818497359752655,4.723909378051758,-1.5420891046524048,0,4.723909378051758,2.195312738418579,47.64154354834364,-122.1401696623647,125.29837036132812,-2.1098161974755945,-2.225097429801391,7.6619576751643885,-1.3155029918107863,5.222016074136202,0.0,-0.6098225750943165,5.2333980163413045,3.4016236638337705,0.10858910934549686,0.04879310934577907,0.0007869856346101045,0.09700622558593874,-1.3155029918107863,5.222016074136202,0.0,0.0,0.0,0.0,0.7056804167164699,0.011381942205102236,3.4016236638337705
22/04/2022,12:09:49,19.426995,-0.5232136277481914,9.246241271495819,3.0881500244140625,3.9852676391601562,-0.37765875458717346,4.784228324890137,-0.6077653169631958,0,4.784228324890137,2.195312738418579,47.64155136712855,-122.14017061517642,125.08629608154297,0.9525750408008719,-1.4879997515961414,8.901055975923748,-1.5117282446175748,3.2733282320026307,0.0,-0.4561241633993647,3.2903541042803375,2.249261092132009,0.33272610738819897,0.11598601462452712,0.0018707421713628491,0.31184997558593874,-1.5117282446175748,3.2733282320026307,0.0,0.0,0.0,0.0,1.0556040812182101,0.017025872277706855,2.249261092132009
22/04/2022,12:09:49,19.612993,-0.5995442137354985,10.15680918097496,3.0650711059570312,3.9852676391601562,-0.3035655915737152,4.635826110839844,0.44246166944503784,0,4.784228324890137,2.195312738418579,47.64155943796402,-122.14017148174801,125.06507110595703,2.7031036656046066,6.007879059992196,9.796873772341872,0.0,0.0,0.0,0.0,0.0,0.0,0.3791204293637404,0.17761398917524285,0.0028647417608897996,0.33492889404297,0.0,0.0,0.0,0.0,0.0,0.0,0.0,0.0,-0.0
22/04/2022,12:09:50,19.801995,-0.6574469937477261,10.958928471431136,3.2163543701171875,3.9852676391601562,-0.2268315851688385,3.979677677154541,1.2752835750579834,0,4.784228324890137,2.195312738418579,47.64156676768811,-122.14017214323992,125.22015380859375,5.488841463671796,20.187193035885773,11.12289154545331,0.0,0.0,0.0,0.5725975474993048,0.009235444314503655,-2.474203772989784,0.28857402921792125,0.22256766677178896,0.0035898010769628286,0.18364562988281374,0.0,0.0,0.0,0.0,0.0,0.0,0.5725975474993048,0.009235444314503655,-2.474203772989784
22/04/2022,12:09:50,19.982995,-0.7020986408460885,11.619043719023466,3.420989990234375,3.9852676391601562,-0.1951046586036682,3.4507970809936523,0.6846541166305542,0,4.784228324890137,2.195312738418579,47.641572696637716,-122.14017263890707,125.4230728149414,6.700399511925901,26.27074797798155,11.944140649862025,0.0,0.0,-2.0,0.87453263608117,0.014105365098077997,-4.271006829090934,0.2574538940251912,0.2565634498915239,0.004138120159538516,-0.020989990234373757,0.0,0.0,-2.0,0.0,0.0,-0.0,0.87453263608117,0.014105365098077997,-2.2710068290909344
22/04/2022,12:09:50,20.143993,-0.7395238013705239,12.164021475240588,3.4641036987304688,3.9852676391601562,-0.17747583985328674,3.026108503341675,-0.2002948373556137,0,4.784228324890137,2.195312738418579,47.64157751029209,-122.1401730488506,125.46410369873047,7.188417036315048,28.96509742896537,12.364216628590903,0.0,0.0,-5.0,0.0,0.0,-5.0,0.29234305703733376,0.2851911992206443,0.0045998580519448495,-0.0641036987304675,0.0,0.0,-5.0,0.0,0.0,-0.0,0.0,0.0,0.0
22/04/2022,12:09:50,20.309995,-0.7710020162630826,12.603219208307564,3.3727569580078125,3.9852676391601562,-0.1627984642982483,2.5972213745117188,-0.9960508346557617,0,4.784228324890137,2.195312738418579,47.64158153488066,-122.14017340957156,125.36978912353516,7.046261442132728,29.09070654923936,12.40530214043526,0.0,0.0,0.0,0.6585631300565126,0.010621985968654662,2.4120967450001327,0.31081573066053386,0.30957923526663733,0.0049932134720425125,0.027243041992188743,0.0,0.0,0.0,0.0,0.0,0.0,0.6585631300565126,0.010621985968654662,2.4120967450001327
22/04/2022,12:09:50,20.465995,-0.799297699588351,12.96115834172815,3.2065200805664062,3.9852676391601562,-0.13923773169517517,1.82319176197052,-0.73512864112854,0,4.784228324890137,2.195312738418579,47.64158473720925,-122.1401737324675,125.20429229736328,3.705195114056618,15.950458637565033,11.073047921772606,0.0,0.0,0.0,0.7844887336595694,0.012653044091283806,2.3657412253311887,0.3843836925674329,0.33209584916267254,0.005356384663912195,0.193479919433595,0.0,0.0,0.0,0.0,0.0,0.0,0.7844887336595694,0.012653044091283806,2.3657412253311887
22/04/2022,12:09:50,20.649995,-0.8249618576373905,13.232647369615734,3.1693496704101562,3.9852676391601562,-0.10690587759017944,1.188356637954712,0.38700616359710693,0,4.784228324890137,2.195312738418579,47.64158716508894,-122.14017403273972,125.17047882080078,2.301835983379441,8.983447604318236,10.640330016523531,0.0,0.0,0.0,0.0,0.0,0.0,0.4220265229806326,0.3533756160837331,0.005699606711026206,0.230650329589845,0.0,0.0,0.0,0.0,0.0,0.0,0.0,0.0,-0.0
22/04/2022,12:09:51,20.834994,-0.8446194153511897,13.421020886860788,3.2691268920898438,3.9852676391601562,-0.08622028678655624,0.9063506126403809,0.5001183748245239,0,4.784228324890137,2.195312738418579,47.64158885415012,-122.14017426578316,125.2706298828125,1.994817130472794,7.3324984976855365,10.546642910817841,0.0,0.0,0.0,1.0238170601240906,0.016513178389091658,-1.7344978361939027,0.39250019568985106,0.369990568953083,0.005967589821823438,0.1308731079101575,0.0,0.0,0.0,0.0,0.0,0.0,1.0238170601240906,0.016513178389091658,-1.7344978361939027
22/04/2022,12:09:51,21.017994,-0.8594792383955792,13.573183130472898,3.3050918579101562,3.9852676391601562,-0.04412877932190895,0.7743773460388184,-0.24931050837039948,0,4.784228324890137,2.195312738418579,47.64159022101389,-122.14017443947168,125.30436706542969,5.909820915477252,5.695391913459888,9.689669264294638,0.0,0.0,0.0,0.0,0.0,0.0,0.39404308450992265,0.38239293583960643,0.006167627997411884,0.094908142089845,0.0,0.0,0.0,0.0,0.0,0.0,0.0,0.0,0.0
22/04/2022,12:09:51,21.195995,-0.8558038274059072,13.695912637747824,3.2793426513671875,3.9852676391601562,0.09417262673377991,0.5504536032676697,0.17527608573436737,0.09417262673377991,4.784228324890137,2.195312738418579,47.641591318793594,-122.14017436688852,125.27986145019531,2.4136331470602697,4.675102288399919,8.055636480306838,0.0,0.0,0.0,0.0,0.0,0.0,0.3956358935946157,0.37673948738828145,0.006076443344971594,0.12065734863281374,0.0,0.0,0.0,0.0,0.0,0.0,0.0,0.0,-0.0
22/04/2022,12:09:51,21.345995,-0.8405705763725564,13.7683035582304,3.3091964721679688,3.9852676391601562,0.11748558282852173,0.43592724204063416,0.20118936896324158,0.11748558282852173,4.784228324890137,2.195312738418579,47.64159196545524,-122.14017415246184,125.30979919433594,0.6766136960847351,3.866426916944474,6.909382217812106,0.0,0.0,-1.0,0.0,0.0,-1.0,0.37165315816208777,0.36034290636302263,0.0058119823606936905,0.0908035278320325,0.0,0.0,-1.0,0.0,0.0,0.0,0.0,0.0,-0.0
22/04/2022,12:09:51,21.524997,-0.8205677990335971,13.839064758270979,3.2966842651367188,3.9852676391601562,0.11488775163888931,0.3704623579978943,-0.4950546622276306,0.11748558282852173,4.784228324890137,2.195312738418579,47.64159259829466,-122.1401738758337,125.29521942138672,-0.2863544678917255,3.236798031372435,3.5186460510015487,0.0,0.0,0.0,0.18950654202795075,0.003056557129483888,2.1243435926213556,0.35463170047431475,0.33920431845834764,0.00547103739448751,0.1033157348632825,0.0,0.0,0.0,0.0,0.0,0.0,0.18950654202795075,0.003056557129483888,2.1243435926213556
22/04/2022,12:09:52,21.704995,-0.8019545413553715,13.897978692315519,3.234405517578125,3.9852676391601562,0.09157873690128326,0.2628991901874542,0.14211368560791016,0.11748558282852173,4.784228324890137,2.195312738418579,47.64159311647858,-122.14017362395127,125.23440551757812,-0.5904632673177991,1.983972929120086,-1.4535678606997189,0.0,0.0,0.0,0.0,0.0,0.0,0.36003003955482815,0.31964592406930714,0.005155579420469181,0.16559448242187624,0.0,0.0,0.0,0.0,0.0,0.0,0.0,0.0,-0.0
22/04/2022,12:09:52,21.851995,-0.7905261539854109,13.931145153008401,3.2820510864257812,3.9852676391601562,0.0762721374630928,0.21069461107254028,0.3817741274833679,0.11748558282852173,4.784228324890137,2.195312738418579,47.641593419421284,-122.1401734638619,125.28319549560547,-0.670636639669742,1.6704501939630116,-4.199218997438459,0.0,0.0,0.0,0.0,0.0,0.0,0.3295558640170644,0.307685705184239,0.004962672664261092,0.11794891357422,0.0,0.0,0.0,0.0,0.0,0.0,0.0,0.0,-0.0
22/04/2022,12:09:52,22.026993,-0.7787137419218197,13.964451983571053,3.344757080078125,3.9852676391601562,0.06093926355242729,0.1647709757089615,0.32152825593948364,0.11748558282852173,4.784228324890137,2.195312738418579,47.6415937166449,-122.14017330231026,125.3457260131836,-0.6629418910113425,1.3359093174589654,-7.1814796065077315,0.0,0.0,0.0,0.0,0.0,0.0,0.3004992054132169,0.29533929804059034,0.004763537065169743,0.05524291992187624,0.0,0.0,0.0,0.0,0.0,0.0,0.0,0.0,-0.0
22/04/2022,12:09:52,22.195995,-0.7696435446850955,13.989619434811175,3.3949508666992188,3.9852676391601562,0.048170529305934906,0.12888507544994354,0.2651733160018921,0.11748558282852173,4.784228324890137,2.195312738418579,47.64159394120082,-122.1401731783612,125.39574432373047,-0.5911389250161564,1.0383985266751843,-9.694307948933897,0.0,0.0,0.0,0.0,0.0,0.0,0.28594740080188014,0.2858656387025265,0.004610736108105584,0.0050491333007824934,0.0,0.0,0.0,0.0,0.0,0.0,0.0,0.0,-0.0
22/04/2022,12:09:52,22.375992,-0.7622883551521227,14.009864832274616,3.4376296997070312,3.9852676391601562,0.03738091140985489,0.0994800552725792,0.21704202890396118,0.11748558282852173,4.784228324890137,2.195312738418579,47.641594121814805,-122.14017307789075,125.43827819824219,-0.4842802745517947,0.7948735632676293,-11.009623544144082,0.0,0.0,0.0,0.0,0.0,0.0,0.2807552776032535,0.27818590834947554,0.004486869489504386,-0.03762969970703001,0.0,0.0,0.0,0.0,0.0,-0.0,0.0,0.0,-0.0
22/04/2022,12:09:52,22.548993,-0.7567650750279427,14.025005879811943,3.4714889526367188,3.9852676391601562,0.02911749668419361,0.07730692625045776,0.1788758784532547,0.11748558282852173,4.784228324890137,2.195312738418579,47.641594256897505,-122.14017300246026,125.4720230102539,-0.3856242672063853,0.6132292734625852,-11.636707731049285,0.0,0.0,0.0,0.0,0.0,0.0,0.28167816394259515,0.2724199177786921,0.004393869641591053,-0.0714889526367175,0.0,0.0,0.0,0.0,0.0,-0.0,0.0,0.0,-0.0
22/04/2022,12:09:53,22.719994,-0.7524009741609916,14.036948402412236,3.4998397827148438,3.9852676391601562,0.022533200681209564,0.05976659804582596,0.14691492915153503,0.11748558282852173,4.784228324890137,2.195312738418579,47.64159436180838,-122.14017294376882,125.49983978271484,-0.30093664259607317,0.4710643866505195,-11.954182049584958,0.0,0.0,0.0,0.0,0.0,0.0,0.2858985387315534,0.26786438068278107,0.0043203932368172104,-0.0998397827148425,0.0,0.0,0.0,0.0,0.0,-0.0,0.0,0.0,-0.0
22/04/2022,12:09:53,22.890994,-0.749127499293536,14.045900232158601,3.5223922729492188,3.9852676391601562,0.017579197883605957,0.04661465808749199,0.12144969403743744,0.11748558282852173,4.784228324890137,2.195312738418579,47.64159444326965,-122.14017289816562,125.52275085449219,-0.23521430873438662,0.365449770061723,-12.107309633573408,0.0,0.0,0.0,0.0,0.0,0.0,0.2914283684749004,0.26444741037464736,0.004265280812493444,-0.1223922729492175,0.0,0.0,0.0,0.0,0.0,-0.0,0.0,0.0,-0.0
22/04/2022,12:09:53,23.065995,-0.7464543598471209,14.053212023340166,3.54193115234375,3.9852676391601562,0.01353139616549015,0.0358848012983799,0.09932852536439896,0.11748558282852173,4.784228324890137,2.195312738418579,47.64159450753458,-122.14017286220538,125.54193115234375,-0.18087660927867547,0.27997842640402004,-12.187688440991765,0.0,0.0,0.0,0.0,0.0,0.0,0.2977023383191924,0.26165706470877576,0.004220275237235782,-0.14193115234374876,0.0,0.0,0.0,0.0,0.0,-0.0,0.0,0.0,-0.0
22/04/2022,12:09:53,23.337995,-0.7435125784249976,14.061258050613105,3.5651016235351562,3.9852676391601562,0.009081193245947361,0.02409486472606659,0.0729675441980362,0.11748558282852173,4.784228324890137,2.195312738418579,47.641594579629064,-122.140172821856,125.56510162353516,-0.12098149921339078,0.1868790709589386,-12.238658020081552,0.0,0.0,0.0,0.0,0.0,0.0,0.3068270190983361,0.2585863074974456,0.004170746895118427,-0.165101623535155,0.0,0.0,0.0,0.0,0.0,-0.0,0.0,0.0,-0.0
22/04/2022,12:09:53,23.494008,-0.7422771985875443,14.064641317352653,3.5755538940429688,3.9852676391601562,0.007214777637273073,0.019149765372276306,0.06093713268637657,0.11748558282852173,4.784228324890137,2.195312738418579,47.64159460994417,-122.14017280491092,125.57555389404297,-0.09591465052914887,0.1481144937981381,-12.250686107704718,0.0,0.0,0.0,0.0,0.0,0.0,0.31150919839340707,0.25729669432890917,0.004149946682723282,-0.1755538940429675,0.0,0.0,0.0,0.0,0.0,-0.0,0.0,0.0,-0.0
22/04/2022,12:09:53,23.643994,-0.7413460997631773,14.067192936316133,3.5838165283203125,3.9852676391601562,0.005809940863400698,0.015426616184413433,0.05135422199964523,0.11748558282852173,4.784228324890137,2.195312738418579,47.64159463322441,-122.14017279190604,125.58396911621094,-0.07709874150540995,0.11905271981053393,-12.256806915865234,0.0,0.0,0.0,0.0,0.0,0.0,0.315448817752115,0.25632469322186047,0.004134269245511746,-0.18381652832031126,0.0,0.0,0.0,0.0,0.0,-0.0,0.0,0.0,-0.0
22/04/2022,12:09:54,23.818996,-0.7404754390008748,14.069578810594976,3.5919265747070312,3.9852676391601562,0.004497398156672716,0.011946954764425755,0.041853342205286026,0.11748558282852173,4.784228324890137,2.195312738418579,47.64159465451143,-122.14017278001594,125.59204864501953,-0.05956699181014182,0.09199519192489053,-12.260583824664355,0.0,0.0,0.0,0.0,0.0,0.0,0.3195152665251791,0.2554157870643626,0.004119609468778762,-0.19192657470703,0.0,0.0,0.0,0.0,0.0,-0.0,0.0,0.0,-0.0
22/04/2022,12:09:54,23.996995,-0.7398013225756586,14.071425287052989,3.5985260009765625,3.9852676391601562,0.0034823589958250523,0.009254599921405315,0.03401511162519455,0.11748558282852173,4.784228324890137,2.195312738418579,47.64159467073073,-122.14017277095007,125.59852600097656,-0.045617688259019365,0.07141193296374787,-11.924524409057462,2.9352619006279426,0.6198689980326795,0.0,2.9352619006279426,0.6198689980326795,0.0,0.3229670113078873,0.2547120718292708,0.004108259223050581,-0.19852600097656126,2.9352619006279426,0.6198689980326795,0.0,0.0,0.0,-0.0,0.0,0.0,-0.0
22/04/2022,12:09:54,24.163994,-0.7340288509149104,14.07290837727487,3.6124496459960938,3.9852676391601562,0.12152206152677536,0.007173397112637758,0.20433364808559418,0.12152206152677536,4.784228324890137,2.195312738418579,47.64159468370618,-122.14017268911593,125.61305236816406,7.516389127376362,1.5682090909314816,-11.135009532243366,3.7315778438393536,1.7536609693345064,0.0,3.7315778438393536,1.7536609693345064,0.0,0.327277766690718,0.24891718687278908,0.004014793336654776,-0.2124496459960925,3.7315778438393536,1.7536609693345064,0.0,0.0,0.0,-0.0,0.0,0.0,-0.0
22/04/2022,12:09:54,24.344993,-0.6796260585542768,14.078048390336335,3.6852035522460938,3.9852676391601562,0.5541197657585144,0.07625595480203629,0.6421465277671814,0.5541197657585144,4.784228324890137,2.195312738418579,47.64159472633238,-122.14017194691309,125.68711853027344,14.667783261247397,-1.1258801374089003,-11.325143702779172,3.7257378414755973,1.7660344097997522,0.0,2.467202746008002,1.7457354566470475,-2.1564872473084775,0.34519562194491765,0.19444566160774707,0.0031362203485105766,-0.2852035522460925,3.7257378414755973,1.7660344097997522,0.0,0.0,0.0,-0.0,-1.2585350954675953,-0.02029895315270478,-2.1564872473084775
22/04/2022,12:09:54,24.525995,-0.5523198534501716,14.102003176696599,3.755950927734375,3.9852676391601562,0.8209578990936279,0.17062610387802124,-0.050637386739254,0.8209578990936279,4.784228324890137,2.195312738418579,47.64159492712613,-122.14017027064865,125.75595092773438,13.612818287140273,-3.3942200788406085,-11.713910581655462,0.9791735479573048,0.20302503042901784,0.0,-1.4572650300576133,0.1637276340094217,-0.39267232048713996,0.3621638207320349,0.06678629901359445,0.001077198371186583,-0.35595092773437376,0.9791735479573048,0.20302503042901784,0.0,0.0,0.0,-0.0,-2.436438578014918,-0.03929739641959615,-0.39267232048713996
22/04/2022,12:09:55,24.693003,-0.39910389855504036,14.140777740627527,3.7023468017578125,3.9852676391601562,0.9269616007804871,0.2622484266757965,-0.32712551951408386,0.9269616007804871,4.784228324890137,2.195312738418579,47.641595267731546,-122.14016818817933,125.70134735107422,-2.0367844026974398,-2.040526612506037,-11.512722537801066,0.0,0.0,0.0,-2.459902489994576,-0.03967584661281758,0.44417061476162645,0.31462227459698117,-0.08701504131946203,-0.001403468408378572,-0.30234680175781126,0.0,0.0,0.0,-0.0,-0.0,-0.0,-2.459902489994576,-0.03967584661281758,0.44417061476162645
22/04/2022,12:09:55,24.843996,-0.2746922771912068,14.18319902010262,3.689544677734375,3.9852676391601562,0.6641221046447754,0.2742277681827545,0.19986288249492645,0.9269616007804871,4.784228324890137,2.195312738418579,47.64159562992358,-122.14016656283307,125.68954467773438,-11.772431359116355,-1.8290819139529666,-11.44764584495853,-0.5954173283332311,2.940319405289248,0.0,-2.8663007131939464,2.9036922539205245,-1.0106093194828822,0.358922058755189,-0.21207834219073174,-0.003420618422431687,-0.28954467773437376,-0.5954173283332311,2.940319405289248,0.0,-0.0,-0.0,-0.0,-2.2708833848607153,-0.036627151368723646,-1.0106093194828822
22/04/2022,12:09:55,25.018991,-0.18682109599467367,14.231955640949309,3.6941375732421875,3.9852676391601562,0.3754786252975464,0.31899330019950867,-0.305681437253952,0.9269616007804871,4.784228324890137,2.195312738418579,47.64159606836584,-122.14016537072189,125.69322967529297,-14.076098209599802,-9.44125856011536,-9.561886237329743,-0.8305640740140257,4.930533776271817,0.0,-2.8859869542637835,4.8973817943323015,0.6141037233530054,0.42067643414422895,-0.3007128626099692,-0.0048502074614518165,-0.29413757324218626,-0.8305640740140257,4.930533776271817,0.0,-0.0,-0.0,-0.0,-2.0554228802497576,-0.03315198193951523,0.6141037233530054
22/04/2022,12:09:55,25.196994,-0.17028007097542286,14.321643312461674,3.671661376953125,3.9852676391601562,-0.24022242426872253,0.8304715752601624,0.285919189453125,0.9269616007804871,4.784228324890137,2.195312738418579,47.641596887238684,-122.14016516182845,125.67249298095703,-10.81323282678741,-18.17781273483286,-7.471739738307205,-0.6501858071956619,4.957545604038486,0.0,-0.6501858071956619,4.957545604038486,0.0,0.4187998677083152,-0.3186957847966445,-0.005140254593495541,-0.27166137695312376,-0.6501858071956619,4.957545604038486,0.0,-0.0,-0.0,-0.0,0.0,0.0,-0.0
22/04/2022,12:09:55,25.368994,-0.2529677319107577,14.526804234832525,3.774169921875,3.9852676391601562,-0.5951006412506104,1.532423496246338,0.7746094465255737,0.9269616007804871,4.784228324890137,2.195312738418579,47.641598760248904,-122.14016624667406,125.77649688720703,-0.6315081696409955,-18.21645929091591,-7.31271294369547,-0.6364234485683289,4.959331123660972,0.0,0.4246027072702805,4.976444448755139,-2.264664721594742,0.44418534672427445,-0.23933781562930134,-0.0038602873488624567,-0.37416992187499876,-0.6364234485683289,4.959331123660972,0.0,-0.0,-0.0,-0.0,1.0610261558386094,0.01711332509416697,-2.264664721594742
22/04/2022,12:09:55,25.514993,-0.3434837682871148,14.768053044565022,3.8562240600585938,3.9852676391601562,-0.6092005372047424,1.8063302040100098,0.20457687973976135,0.9269616007804871,4.784228324890137,2.195312738418579,47.64160094718403,-122.14016741662769,125.85685729980469,3.620065043825819,-18.316681726910932,-7.313642467612119,-0.6365039049672189,4.9593207981498315,0.0,1.144378792122824,4.988044712619028,-1.5302787288329378,0.48111804133126446,-0.1527354183270122,-0.002463474489145412,-0.4562240600585925,-0.6365039049672189,4.9593207981498315,0.0,-0.0,-0.0,-0.0,1.7808826970900429,0.02872391446919675,-1.5302787288329378
22/04/2022,12:09:56,25.694995,-0.4501382000744343,15.11171150766313,3.8248519897460938,3.9852676391601562,-0.5135601162910461,2.1433253288269043,-0.42756199836730957,0.9269616007804871,4.784228324890137,2.195312738418579,47.641604058684514,-122.14016878192999,125.82357788085938,8.907834192508991,-14.772569658697202,-6.879554287926752,-0.5989128535291608,4.9640007447498995,0.0,1.2118090737962288,4.993205937126112,0.8598597904279708,0.42798089491613744,-0.05165016186969795,-0.0008330671269316525,-0.4248519897460925,-0.5989128535291608,4.9640007447498995,0.0,-0.0,-0.0,-0.0,1.8107219273253896,0.029205192376212864,0.8598597904279708
22/04/2022,12:09:56,25.864994,-0.5189885502913967,15.52855421975255,3.787017822265625,3.9852676391601562,-0.1844499260187149,2.696669101715088,0.18525664508342743,0.9269616007804871,4.784228324890137,2.195312738418579,47.64160783066886,-122.14016962382223,125.78755187988281,9.058569693069638,-10.822692654098326,-5.616258352043502,-0.4893265165964744,4.9759983480860965,0.0,-0.4893265165964744,4.9759983480860965,0.0,0.38715920593099634,0.01046076090909509,0.0001687219501498305,-0.38701782226562376,-0.4893265165964744,4.9759983480860965,0.0,0.0,0.0,-0.0,0.0,0.0,-0.0
22/04/2022,12:09:56,26.010998,-0.5370510120410472,15.93495369143784,3.816558837890625,3.9852676391601562,-0.026630738750100136,2.9430031776428223,0.14105923473834991,0.9269616007804871,4.784228324890137,2.195312738418579,47.641611416176836,-122.14016979678279,125.81655883789062,4.575129855000467,-8.937507547862797,-3.969495441034347,-0.34612677901891425,4.988005237852702,0.0,-0.34612677901891425,4.988005237852702,0.0,0.41713771073666694,0.02196539958820276,0.0003542806385148367,-0.41655883789062376,-0.34612677901891425,4.988005237852702,0.0,0.0,0.0,-0.0,-0.0,-0.0,-0.0
22/04/2022,12:09:56,26.155993,-0.5407596041914076,16.371406946331263,3.831085205078125,3.9852676391601562,0.03536419942975044,3.1302525997161865,0.06735081225633621,0.9269616007804871,4.784228324890137,2.195312738418579,47.64161542751642,-122.14016978031783,125.83129119873047,1.8166060389276975,-7.348028934905737,-2.650738816713883,-0.2312380900753244,4.994650032354451,0.0,-0.2312380900753244,4.994650032354451,0.0,0.43148791221891386,0.0186352894250279,0.0003005691842723479,-0.43108520507812376,-0.2312380900753244,4.994650032354451,0.0,0.0,0.0,-0.0,-0.0,-0.0,-0.0
22/04/2022,12:09:56,26.333003,-0.5382947083562613,16.941005588509142,3.8388900756835938,3.9852676391601562,0.058311332017183304,3.3134825229644775,0.0244758278131485,0.9269616007804871,4.784228324890137,2.195312738418579,47.64162055675026,-122.14016966248244,125.8389663696289,0.39847098984707446,-5.744941323358765,-1.8068172613901448,-0.15764841900739848,4.9975140796184325,0.0,-0.15764841900739848,4.9975140796184325,0.0,0.4389456917493226,0.006986349137555692,0.00011268305060241346,-0.4388900756835925,-0.15764841900739848,4.9975140796184325,0.0,0.0,0.0,-0.0,-0.0,-0.0,-0.0
22/04/2022,12:09:56,26.512995,-0.5344436212908477,17.53921676147729,3.8411636352539062,3.9852676391601562,0.057860665023326874,3.4540934562683105,0.002873202320188284,0.9269616007804871,4.784228324890137,2.195312738418579,47.64162584904994,-122.14016952523005,125.8411636352539,-0.09117864769725886,-4.517648817225695,-1.4057021608350773,-0.04906333960873127,1.9993981066076956,0.0,-0.04906333960873127,1.9993981066076956,0.0,0.4412116742745893,-0.006509794270370239,-0.00010499668178098887,-0.441163635253905,-0.04906333960873127,1.9993981066076956,0.0,-0.0,-0.0,-0.0,-0.0,-0.0,-0.0
22/04/2022,12:09:57,26.687994,-0.5316725973971188,18.130537811666727,3.8395462036132812,3.9852676391601562,0.04949953034520149,3.386141777038574,0.13324874639511108,0.9269616007804871,4.784228324890137,2.195312738418579,47.64163126005669,-122.14016939905895,125.83993530273438,-0.48007307014517675,7.936732423909526,-1.279847545372753,0.0,0.0,-1.0,0.0,0.0,-1.0,0.43994881910811645,-0.018815053297480455,-0.00030346860157237643,-0.43954620361328,0.0,0.0,-1.0,-0.0,-0.0,-0.0,-0.0,-0.0,-0.0
22/04/2022,12:09:57,26.866996,-0.5299094468355179,18.71360983606428,3.84063720703125,3.9852676391601562,0.041651926934719086,3.040637969970703,-0.16188284754753113,0.9269616007804871,4.784228324890137,2.195312738418579,47.6416364143034,-122.14016929149061,125.84063720703125,-0.6713688456147391,17.193344139215153,-1.2680365974373098,0.0,0.0,-1.0,0.0,0.0,-1.0,0.44165615999572394,-0.029979686918141568,-0.0004835433373919784,-0.44063720703124876,0.0,0.0,-1.0,-0.0,-0.0,-0.0,-0.0,-0.0,-0.0
22/04/2022,12:09:57,27.008994,-0.5289013091241941,19.11822542268783,3.8193511962890625,3.9852676391601562,0.03456384316086769,2.5719077587127686,-0.16268759965896606,0.9269616007804871,4.784228324890137,2.195312738418579,47.6416400544229,-122.14016921833527,125.81935119628906,-0.6476790877982117,18.434189246584246,-1.236644083825174,0.0,0.0,0.0,0.0,0.0,0.0,0.4210260517577516,-0.03751192299954309,-0.0006050310161214156,-0.41935119628906126,0.0,0.0,0.0,-0.0,-0.0,-0.0,-0.0,-0.0,-0.0
22/04/2022,12:09:57,27.184996,-0.5279685353161767,19.5044067427516,3.8369293212890625,3.9852676391601562,0.02498721145093441,1.8421010971069336,0.4756227135658264,0.9269616007804871,4.784228324890137,2.195312738418579,47.641643528701664,-122.1401691489047,125.83692932128906,-0.5116219003258808,15.479695128646199,-1.1756467101045809,0.0,0.0,0.0,-0.2636131568877413,-0.004251825111096873,-2.375621693731817,0.4392075815321002,-0.044671565226323984,-0.0007205091165545241,-0.43692932128906126,0.0,0.0,0.0,-0.0,-0.0,-0.0,-0.2636131568877413,-0.004251825111096873,-2.375621693731817
22/04/2022,12:09:57,27.349994,-0.5272290897555649,19.787881441414356,3.8774185180664062,3.9852676391601562,0.021610751748085022,1.5718985795974731,-0.1706802397966385,0.9269616007804871,4.784228324890137,2.195312738418579,47.641646121379914,-122.14016909634512,125.8769302368164,-0.46883825219766123,14.415746234834899,-1.1514875408957217,0.0,0.0,-3.0,0.0,0.0,-3.0,0.4800284072905004,-0.04998180191087087,-0.000806158095340237,-0.477418518066405,0.0,0.0,-3.0,-0.0,-0.0,-0.0,-0.0,-0.0,-0.0
22/04/2022,12:09:57,27.525002,-0.5265180269489065,20.042886092327535,3.7758407592773438,3.9852676391601562,0.01891970820724964,1.3572591543197632,-1.0203580856323242,0.9269616007804871,4.784228324890137,2.195312738418579,47.641648373114116,-122.14016905009764,125.77584075927734,-0.4312827869894589,13.325681212048547,-1.1349827439012323,0.0,0.0,-5.0,-0.20268272413722827,-0.0032690761957659235,-2.5261854960048833,0.37981653544180455,-0.05480458833100399,-0.0008839449730828619,-0.3758407592773425,0.0,0.0,-5.0,-0.0,-0.0,-0.0,-0.20268272413722827,-0.0032690761957659235,2.4738145039951167
22/04/2022,12:09:58,27.693994,-0.5258849706733599,20.254980381578207,3.5409088134765625,3.9852676391601562,0.016551120206713676,1.1710915565490723,-1.7943514585494995,0.9269616007804871,4.784228324890137,2.195312738418579,47.64165028120754,-122.14016901035804,125.54090881347656,-0.2775328937586339,10.392457869159621,-0.7936695392009687,0.0,0.0,-5.0,-0.15132980231341342,-0.0024408032631245222,-0.9777955696489391,0.15271017059996148,-0.05885746590102814,-0.0009493139661458372,-0.14090881347656126,0.0,0.0,-5.0,-0.0,-0.0,-0.0,-0.15132980231341342,-0.0024408032631245222,4.022204430351061
22/04/2022,12:09:58,27.843993,-0.5254003268200904,20.404434114694595,3.3018417358398438,3.9852676391601562,0.012656660750508308,0.8694052696228027,-1.227724313735962,0.9269616007804871,4.784228324890137,2.195312738418579,47.64165164925683,-122.14016898133413,125.29812622070312,-0.08979514468468555,7.2450981352754,0.03241210396363446,0.0,0.0,-4.0,-0.11643993028475201,-0.001878063391692699,-1.4165908332006296,0.1159712640951554,-0.06175190086206428,-0.0009959984010059486,0.0981582641601575,0.0,0.0,-4.0,-0.0,-0.0,0.0,-0.11643993028475201,-0.001878063391692699,2.5834091667993704
22/04/2022,12:09:58,28.014994,-0.524908579303883,20.537070495076478,3.1018295288085938,3.9852676391601562,0.010118527337908745,0.6781473159790039,-1.2257978916168213,0.9269616007804871,4.784228324890137,2.195312738418579,47.641652837317466,-122.14016895530872,125.09815216064453,0.05665056390474841,5.496592232670397,1.3713717230915485,0.0,0.0,0.0,-0.1049616234329385,-0.0016929294102120426,2.7104513966230463,0.30504390452641356,-0.06438226055932772,-0.0010384235574107947,0.2981704711914075,0.0,0.0,0.0,-0.0,-0.0,0.0,-0.1049616234329385,-0.0016929294102120426,2.7104513966230463
22/04/2022,12:09:58,28.190997,-0.5244957722024992,20.63818526919931,2.945648193359375,3.9852676391601562,0.007425413932651281,0.4814009964466095,-0.36531299352645874,0.9269616007804871,4.784228324890137,2.195312738418579,47.641653741664065,-122.14016893499297,124.94452667236328,0.10689489851344647,3.423539259968672,2.5839553876213803,0.0,0.0,0.0,-0.1818195915369035,-0.002932574057056541,2.225805182468952,0.45918302278749956,-0.06642541959530568,-0.0010713777354069975,0.45435180664062624,0.0,0.0,0.0,-0.0,-0.0,0.0,-0.1818195915369035,-0.002932574057056541,2.225805182468952
22/04/2022,12:09:58,28.364996,-0.5241692272247747,20.709152532741427,2.9751510620117188,3.9852676391601562,0.00537160225212574,0.3382870852947235,0.746860682964325,0.9269616007804871,4.784228324890137,2.195312738418579,47.641654376262174,-122.14016892025155,124.97736358642578,0.10139501462478197,2.4627951942562363,3.206456459763697,0.0,0.0,0.0,-0.1754169685542954,-0.0028293059444313173,-2.0938711607166165,0.430241461736935,-0.06789621523483347,-0.0010951002457240122,0.4248489379882825,0.0,0.0,0.0,-0.0,-0.0,0.0,-0.1754169685542954,-0.0028293059444313173,-2.0938711607166165
22/04/2022,12:09:58,28.539994,-0.5239071580581367,20.762328579090536,3.0940704345703125,3.9852676391601562,0.004559039603918791,0.28465214371681213,0.2904086410999298,0.9269616007804871,4.784228324890137,2.195312738418579,47.64165484548856,-122.14016890912737,125.09407043457031,0.11762353151398126,2.563624848952928,3.517637591430789,0.0,0.0,0.0,0.0,0.0,0.0,0.3136196757406867,-0.06901567134671938,-0.0011131559894614895,0.30592956542968874,0.0,0.0,0.0,-0.0,-0.0,0.0,-0.0,-0.0,-0.0
22/04/2022,12:09:59,28.676003,-0.5237207614118233,20.79967680387199,3.1052780151367188,3.9852676391601562,0.0038561818655580282,0.24022415280342102,-0.017827441915869713,0.9269616007804871,4.784228324890137,2.195312738418579,47.641655181482136,-122.14016890113217,125.10527801513672,0.1012762699391883,2.1145700528568367,3.649063874816604,0.0,0.0,0.0,0.0,0.0,0.0,0.30287778025588313,-0.0698042535690544,-0.001125875057571335,0.2947219848632825,0.0,0.0,0.0,-0.0,-0.0,0.0,-0.0,-0.0,0.0
22/04/2022,12:09:59,28.816994,-0.5235665471991524,20.83033332321793,3.101226806640625,3.9852676391601562,0.0031346119940280914,0.19480811059474945,-0.03275098651647568,0.9269616007804871,4.784228324890137,2.195312738418579,47.641655457275405,-122.14016889455331,125.10122680664062,0.08271939649170404,1.683671030482119,3.723090738445361,0.0,0.0,0.0,0.0,0.0,0.0,0.306969548305528,-0.07045275906527171,-0.0011363348236379522,0.29877319335937624,0.0,0.0,0.0,-0.0,-0.0,0.0,-0.0,-0.0,0.0
22/04/2022,12:09:59,28.996993,-0.5234147608280182,20.860291868448257,3.095703125,3.9852676391601562,0.0024273183662444353,0.15052616596221924,-0.030112702399492264,0.9269616007804871,4.784228324890137,2.195312738418579,47.641655730854005,-122.1401688880122,125.09561157226562,0.06415878653732608,1.2861082034243383,3.7716467957237176,0.0,0.0,0.0,0.0,0.0,0.0,0.3124921553751361,-0.07108758263222104,-0.0011465739134237651,0.30429687500000124,0.0,0.0,0.0,-0.0,-0.0,0.0,-0.0,-0.0,0.0
22/04/2022,12:09:59,29.172995,-0.5232966809999198,20.883463118225336,3.0907745361328125,3.9852676391601562,0.0018822853453457355,0.1165476068854332,-0.026399362832307816,0.9269616007804871,4.784228324890137,2.195312738418579,47.641655935243264,-122.14016888311706,125.09077453613281,0.04975428344175761,0.9902494923707175,3.7956044974819516,-2.9934196488714124,0.19859205862911739,0.0,-2.9934196488714124,0.19859205862911739,0.0,0.3174040193099226,-0.07157926438654849,-0.0011545042642993053,0.30922546386718874,-2.9934196488714124,0.19859205862911739,0.0,-0.0,-0.0,0.0,-0.0,-0.0,0.0
22/04/2022,12:09:59,29.353002,-0.5288779652910307,20.901223582215607,3.0960159301757812,3.9852676391601562,-0.12282614409923553,0.08779881149530411,0.1599341481924057,0.9269616007804871,4.784228324890137,2.195312738418579,47.64165609794436,-122.14016895961593,125.09648895263672,-7.743234466381571,1.285195727610795,3.7883234836423227,-5.055145322276967,-0.6674621866902277,0.0,-5.055145322276967,-0.6674621866902277,0.0,0.3111290201422316,-0.06628581625972574,-0.0010691260687103465,0.30398406982422,-5.055145322276967,-0.6674621866902277,0.0,-0.0,-0.0,0.0,0.0,0.0,-0.0
22/04/2022,12:09:59,29.523994,-0.5881432868773118,20.913621766492724,3.1614913940429688,3.9852676391601562,-0.7247909903526306,0.06082422658801079,0.7685098648071289,0.9269616007804871,4.784228324890137,2.195312738418579,47.64165621304275,-122.14016974191533,125.16149139404297,-20.994299731934962,1.9928884560485152,3.62108871539463,-4.99001774837445,0.31578928244634286,0.0,-3.1336055842707116,0.34573141412543135,-1.673999405043177,0.23861836879891404,-0.0072358269872984105,-0.00011670688689235931,0.2385086059570325,-4.99001774837445,0.31578928244634286,0.0,-0.0,-0.0,0.0,1.8564121641037388,0.029942131679088508,-1.673999405043177
22/04/2022,12:10:00,29.711995,-0.7696431865915656,20.92123396601528,3.27545166015625,3.9852676391601562,-1.1763571500778198,0.049037374556064606,0.18915805220603943,0.9269616007804871,4.784228324890137,2.195312738418579,47.64165630095254,-122.14017220391531,125.27603912353516,-17.959312335319588,1.7235987046796297,3.7376472845900697,-4.989365003357541,0.3259399688148115,0.0,-2.4249050872828466,0.3673022255256946,-0.2577728627308692,0.21407694260220267,0.17409412311184158,0.0028079697276091053,0.12454833984375124,-4.989365003357541,0.3259399688148115,0.0,0.0,0.0,0.0,2.5644599160746946,0.04136225671088305,-0.2577728627308692
22/04/2022,12:10:00,29.854995,-0.9665235091233626,20.925544950179756,3.2864608764648438,3.9852676391601562,-1.516708254814148,0.03837260231375694,0.0938800647854805,0.9269616007804871,4.784228324890137,2.195312738418579,47.64165635806514,-122.14017477722672,125.28646087646484,-10.197133059849529,1.091430766829486,3.909395742522392,-4.988365559109075,0.34089448322670246,0.0,-1.1074905370852952,0.40348924164644095,-0.0846624947161633,0.3878909617937282,0.37085372747959977,0.005981511733541112,0.1135391235351575,-4.988365559109075,0.34089448322670246,0.0,0.0,0.0,0.0,3.88087502202378,0.06259475841973847,-0.0846624947161633
22/04/2022,12:10:00,30.028994,-1.2517440922092646,20.928357833996415,3.2861404418945312,3.9852676391601562,-1.6610801219940186,0.029178382828831673,-0.04534735530614853,0.9269616007804871,4.784228324890137,2.195312738418579,47.64165641182947,-122.14017857372372,125.28614044189453,-0.8418406172490654,0.3263740908021837,4.0016672009838725,-4.918024599287647,1.3464895249505575,0.0,1.4661710795671299,1.4494604229966013,0.32842370874375104,0.665847278798306,0.655954773665705,0.010579915704283849,0.11385955810547,-4.918024599287647,1.3464895249505575,0.0,0.0,0.0,0.0,6.384195678854777,0.10297089804604367,0.32842370874375104
22/04/2022,12:10:00,30.173993,-1.4826265625888482,20.930756816640496,3.2898330688476562,3.9852676391601562,-1.5418245792388916,0.06456330418586731,0.2344801127910614,0.9269616007804871,4.784228324890137,2.195312738418579,47.64165645815503,-122.14018170872075,125.29051971435547,8.749009991358404,-3.713570280266931,3.7269403355038113,-4.924424306549026,1.322892757962314,0.0,1.4547108877101396,1.4257820352890718,-0.5768844087136455,0.893670239930312,0.8867385133835688,0.01430223408682707,0.110166931152345,-4.924424306549026,1.322892757962314,0.0,0.0,0.0,0.0,6.379135194259166,0.10288927732675773,-0.5768844087136455
22/04/2022,12:10:00,30.353001,-1.7235362601932138,20.952930402942002,3.3703231811523438,3.9852676391601562,-1.1061643362045288,0.22122490406036377,0.566235363483429,0.9269616007804871,4.784228324890137,2.195312738418579,47.64165668590218,-122.1401848950776,125.37202453613281,13.072291917837621,-5.840561027849774,3.396319502898617,0.9982436355154265,-0.05924224972892508,0.0,5.438932589274503,0.012381765654283387,-1.3149331064530763,1.1277651585464505,1.127228010195139,0.01818109693862624,0.029676818847657493,0.9982436355154265,-0.05924224972892508,0.0,0.43343438907285475,0.006990877243108625,0.011411137525435914,4.007254564686222,0.06463313814009984,-1.3263442439785122
22/04/2022,12:10:00,30.530993,-1.8692655602935702,21.002083649858832,3.4869537353515625,3.9852676391601562,-0.332179993391037,0.3423495292663574,0.9852920174598694,0.9269616007804871,4.784228324890137,2.195312738418579,47.64165714594378,-122.14018679711032,125.4898910522461,25.18160753653684,-3.2497112939804693,4.34016471412129,0.0,0.0,0.0,2.3557861899362416,0.03799655145057808,-2.056668772543314,1.2752602074752983,1.2721268211904384,0.020518174535329337,-0.08695373535156126,0.0,0.0,0.0,0.4607982082946759,0.007432229166043045,-0.03149695831193439,1.8949879816415658,0.030564322284535036,-2.0251718142313795
22/04/2022,12:10:01,30.708995,-1.8690083033870906,21.064802159555256,3.6364364624023438,3.9852676391601562,0.21116742491722107,0.34475991129875183,0.3763485848903656,0.9269616007804871,4.784228324890137,2.195312738418579,47.64165771027129,-122.14018676238652,125.63758850097656,21.902181737203946,-0.8121252456273561,5.445515112403396,0.0,0.0,0.0,1.9594760532041993,0.03160445247103312,-1.8597573538644554,1.2928275946560435,1.2708583054167881,0.020497714603489925,-0.2364364624023425,0.0,0.0,0.0,0.45673917995946356,0.007366760967085731,-0.08497390738989297,1.5027368732447357,0.02423769150394739,-1.7747834464745624
22/04/2022,12:10:01,30.885996,-1.8081910201581195,21.124292746186256,3.6254425048828125,3.9852676391601562,0.46275007724761963,0.317970871925354,-0.5214072465896606,0.9269616007804871,4.784228324890137,2.195312738418579,47.64165823870804,-122.140185933875,125.6239013671875,11.359377742305336,0.8741134538538949,5.983817184355839,0.0,0.0,0.0,0.44660864463158106,0.007203365235992479,-0.08327249561730152,1.2300900585607526,1.2090975633873247,0.019501573603019295,-0.22544250488281126,0.0,0.0,0.0,0.44660864463158106,0.007203365235992479,-0.08327249561730152,0.0,0.0,0.0
22/04/2022,12:10:01,31.066994,-1.7070741683710366,21.176134319975972,3.5389175415039062,3.9852676391601562,0.6522101163864136,0.2502918839454651,-0.31864795088768005,0.9269616007804871,4.784228324890137,2.195312738418579,47.64165869320048,-122.1401845725136,125.53795623779297,1.28286952121967,1.7362103824313968,6.111122397286929,0.0,0.0,0.0,0.42751094787613936,0.006895337868969871,-0.053640102507641764,1.1159949649770937,1.1071710729206123,0.01785759795033215,-0.138917541503905,0.0,0.0,0.0,0.42751094787613936,0.006895337868969871,-0.053640102507641764,-0.0,-0.0,0.0
22/04/2022,12:10:01,31.242995,-1.594959761830978,21.216076307930052,3.4956207275390625,3.9852676391601562,0.6194387078285217,0.19561035931110382,-0.195342019200325,0.9269616007804871,4.784228324890137,2.195312738418579,47.6416590398769,-122.140183075398,125.49503326416016,-2.351526902612896,1.8030076106547257,6.128767086254591,0.0,0.0,0.0,0.0,0.0,0.0,0.9991571512681089,0.9944417668105635,0.016039383335652246,-0.09562072753906126,0.0,0.0,0.0,0.0,0.0,-0.0,-0.0,-0.0,0.0
22/04/2022,12:10:01,31.420994,-1.493338928441517,21.247914584353566,3.465911865234375,3.9852676391601562,0.5240740180015564,0.15227393805980682,-0.1454971432685852,0.9269616007804871,4.784228324890137,2.195312738418579,47.64165931500599,-122.14018172170782,125.46546936035156,-3.1650428184592525,1.581079932532375,6.148105648578228,0.0,0.0,0.0,0.0,0.0,0.0,0.8948806857953626,0.8923339757345308,0.014392483479586105,-0.06591186523437376,0.0,0.0,0.0,0.0,0.0,-0.0,-0.0,-0.0,0.0
22/04/2022,12:10:01,31.593993,-1.4106968364212662,21.272367387078702,3.4428176879882812,3.9852676391601562,0.42521247267723083,0.11889324337244034,-0.1211768388748169,0.9269616007804871,4.784228324890137,2.195312738418579,47.64165952265228,-122.14018063894711,125.44281768798828,-2.9924021565339882,1.3047209224291576,6.166963710305395,0.0,0.0,0.0,0.0,0.0,0.0,0.810556057165187,0.8093190796370527,0.013053533542532136,-0.04281768798828001,0.0,0.0,0.0,0.0,0.0,-0.0,-0.0,-0.0,0.0
22/04/2022,12:10:02,31.771992,-1.343350134207867,21.29176780488342,3.4228744506835938,3.9852676391601562,0.3365083634853363,0.09230173379182816,-0.1042800024151802,0.9269616007804871,4.784228324890137,2.195312738418579,47.64165969294858,-122.14017972606275,125.42256164550781,-2.5366425135238386,1.0425485890395025,6.181710544506549,0.0,0.0,-1.0,0.0,0.0,-1.0,0.7421261417794769,0.7416770642372612,0.01196253329414887,-0.022874450683592507,0.0,0.0,-1.0,0.0,0.0,-0.0,0.0,0.0,0.0
22/04/2022,12:10:02,31.949993,-1.2884149646852165,21.30739312339574,3.358184814453125,3.9852676391601562,0.29060041904449463,0.07926943153142929,-0.7856252193450928,0.9269616007804871,4.784228324890137,2.195312738418579,47.64165982771869,-122.14017899429956,125.35585021972656,-2.243105784919764,0.8205588091239631,4.50073377414779,0.0,0.0,-2.0,0.15735499331363242,0.002537983763119199,0.4667496322924607,0.6878656599887623,0.6865042264237806,0.011072648813286179,0.04181518554687624,0.0,0.0,-2.0,0.0,0.0,0.0,0.15735499331363242,0.002537983763119199,2.4667496322924607
22/04/2022,12:10:02,32.124995,-1.244043794926256,21.319963231682777,3.2446060180664062,3.9852676391601562,0.21147499978542328,0.05750531703233719,-0.2466433197259903,0.9269616007804871,4.784228324890137,2.195312738418579,47.641659935795325,-122.14017840491894,125.24385070800781,-1.773753778180531,0.46265032793882843,-0.6070650312854352,0.0,0.0,-1.0,0.0,0.0,-1.0,0.6605633226022182,0.6419419056780743,0.010353901704483803,0.155393981933595,0.0,0.0,-1.0,0.0,0.0,0.0,0.0,0.0,0.0
22/04/2022,12:10:02,32.298993,-1.2105644864495844,21.329442635178566,3.1692962646484375,3.9852676391601562,0.1795312762260437,0.04885842651128769,-0.8362452387809753,0.9269616007804871,4.784228324890137,2.195312738418579,47.64166001749114,-122.1401779591318,125.16680908203125,-1.5045804888597019,0.20077657122692535,-7.494113749659881,0.0,0.0,-1.0,0.32271244071159744,0.005205039366313927,1.4788129759303859,0.6506702837034546,0.6083184505932722,0.00981158791279313,0.23070373535156374,0.0,0.0,-1.0,0.0,0.0,0.0,0.32271244071159744,0.005205039366313927,2.478812975930386
22/04/2022,12:10:02,32.471017,-1.1838555447757244,21.337022435851395,3.0621795654296875,3.9852676391601562,0.12812966108322144,0.035091232508420944,-0.10214971005916595,0.9269616007804871,4.784228324890137,2.195312738418579,47.641660082655015,-122.14017760450403,125.06184387207031,-1.0600967979569806,-0.004096287321161511,-15.153111379631351,0.0,0.0,-1.0,0.0,0.0,-1.0,0.6725668388218103,0.5814942322744079,0.009378939230231254,0.33782043457031374,0.0,0.0,-1.0,0.0,0.0,0.0,0.0,0.0,0.0
22/04/2022,12:10:02,32.642018,-1.164186090696603,21.342641728930175,3.035858154296875,3.9852676391601562,0.10729912668466568,0.029517285525798798,-0.5333226323127747,0.9269616007804871,4.784228324890137,2.195312738418579,47.6416601302968,-122.14017734697282,125.03585815429688,-0.899771750595111,-0.12937224400704245,-23.25286413704014,0.0,0.0,-1.0,0.5707118671726618,0.009205030115682794,1.3583513775956377,0.6695016025133999,0.5617392836005387,0.00906031102581295,0.36414184570312624,0.0,0.0,-1.0,0.0,0.0,0.0,0.5707118671726618,0.009205030115682794,2.3583513775956377
22/04/2022,12:10:03,32.810021,-1.148505265591666,21.347146689891815,2.9815826416015625,3.9852676391601562,0.07625311613082886,0.021180206909775734,0.20934930443763733,0.9269616007804871,4.784228324890137,2.195312738418579,47.641660169262224,-122.14017713756151,124.98158264160156,-0.6278154685390483,-0.18447609266706724,-31.43042182687137,0.0,0.0,-1.0,0.0,0.0,-1.0,0.6879357542229452,0.5459898949703699,0.008806288628555592,0.41841735839843874,0.0,0.0,-1.0,0.0,0.0,0.0,0.0,0.0,-0.0
22/04/2022,12:10:03,32.954023,-1.1389397780876607,21.349918597377837,3.0099334716796875,3.9852676391601562,0.06526430696249008,0.018212847411632538,-0.09186767786741257,0.9269616007804871,4.784228324890137,2.195312738418579,47.64166019374101,-122.14017700720072,125.00968170166016,-0.5355144250571234,-0.22698604026035746,-38.232378863479084,0.0,0.0,-1.0,0.0,0.0,-1.0,0.6632741552453489,0.5363821986818054,0.00865132578518768,0.39006652832031374,0.0,0.0,-1.0,0.0,0.0,0.0,0.0,0.0,0.0
22/04/2022,12:10:03,33.123021,-1.1286245399387553,21.35291892196983,2.9287872314453125,3.9852676391601562,0.05759868398308754,0.016119029372930527,-0.8926047086715698,0.9269616007804871,4.784228324890137,2.195312738418579,47.64166021920989,-122.1401768720532,124.92878723144531,-0.4184209806484717,-0.25393783623932487,-46.56802754816043,0.0,0.0,0.0,0.4495516628442171,0.007250833271674325,2.4720795505384476,0.7062661147507842,0.5260212635533019,0.008484213928277029,0.47121276855468874,0.0,0.0,0.0,0.0,0.0,0.0,0.4495516628442171,0.007250833271674325,2.4720795505384476
22/04/2022,12:10:03,33.298021,-1.1199820840265602,21.355444561690092,2.8209991455078125,3.9852676391601562,0.04076303541660309,0.011539946310222149,-0.05414700508117676,0.9269616007804871,4.784228324890137,2.195312738418579,47.64166024107012,-122.14017675663027,124.82099914550781,-0.24069607866810713,-0.20135687110495576,-55.235158441190904,0.0,0.0,0.0,0.0,0.0,0.0,0.7765002459882735,0.5173403298240082,0.00834419886812654,0.5790008544921887,0.0,0.0,0.0,0.0,0.0,0.0,0.0,0.0,0.0
22/04/2022,12:10:03,33.46829,-1.113947800709866,21.357225952669978,2.8613739013671875,3.9852676391601562,0.030911726877093315,0.008819391019642353,0.3202284276485443,0.9269616007804871,4.784228324890137,2.195312738418579,47.64166025672926,-122.14017667479905,124.86233520507812,-0.17941109009116757,-0.18998811654942885,-62.21489397168755,0.0,0.0,0.0,0.0,0.0,0.0,0.7426925221364092,0.511278891251804,0.008246433729865998,0.5386260986328137,0.0,0.0,0.0,0.0,0.0,0.0,0.0,0.0,-0.0
22/04/2022,12:10:03,33.639292,-1.1092314114794135,21.358627822250128,2.9127655029296875,3.9852676391601562,0.024344371631741524,0.0069765979424119,0.2750279903411865,0.9269616007804871,4.784228324890137,2.195312738418579,47.64166026863645,-122.14017661304524,124.91276550292969,-0.13842247044462627,-0.16511146059813706,-65.77844847716896,0.0,0.0,0.0,0.0,0.0,0.0,0.7028855627786232,0.5065411237314326,0.008170018124694423,0.48723449707031374,0.0,0.0,0.0,0.0,0.0,0.0,0.0,0.0,-0.0
22/04/2022,12:10:04,33.77529,-1.1062347100814804,21.359519737772644,2.9473953247070312,3.9852676391601562,0.02005842514336109,0.005763427820056677,0.23703743517398834,0.9269616007804871,4.784228324890137,2.195312738418579,47.641660276518124,-122.14017657221726,124.94810485839844,-0.11253142833796291,-0.1410837553449088,-67.28163876600841,0.0,0.0,0.0,0.0,0.0,0.0,0.6770969182420156,0.5035308197168549,0.008121464834140113,0.45260467529297,0.0,0.0,0.0,0.0,0.0,0.0,0.0,0.0,-0.0
22/04/2022,12:10:04,33.946289,-1.1032374205533415,21.360416006296873,2.9838409423828125,3.9852676391601562,0.01569999009370804,0.004521277267485857,0.19661416113376617,0.9269616007804871,4.784228324890137,2.195312738418579,47.64166028424347,-122.14017653235844,124.98442840576172,-0.0870585758978026,-0.11281353415255439,-68.30167792671243,0.0,0.0,0.0,0.0,0.0,0.0,0.6509790017747581,0.5005198575335861,0.008072900927960092,0.41615905761718874,0.0,0.0,0.0,0.0,0.0,0.0,0.0,0.0,0.0
22/04/2022,12:10:04,34.114287,-1.1008571059210226,21.36113600898534,3.0145492553710938,3.9852676391601562,0.012207671999931335,0.0035197234246879816,0.16241848468780518,0.9269616007804871,4.784228324890137,2.195312738418579,47.64166029047063,-122.1401765007051,125.0150375366211,-0.06908815044130098,-0.08689839897531006,-67.57609554624985,0.0,0.0,0.0,0.0,0.0,0.0,0.6298959290051942,0.49812855204247597,0.008034331484548574,0.3854507446289075,0.0,0.0,0.0,0.0,0.0,0.0,0.0,0.0,0.0
22/04/2022,12:10:04,34.286287,-1.0990357336122543,21.361677499487996,3.0395050048828125,3.9852676391601562,0.009526904672384262,0.002745583187788725,0.13451969623565674,0.9269616007804871,4.784228324890137,2.195312738418579,47.64166029513451,-122.14017647648625,125.03990936279297,-0.05671024572452252,-0.06533422838343109,-65.18200945081398,0.0,0.0,0.0,0.0,0.0,0.0,0.6134601361406373,0.4962989219862808,0.008004821322359135,0.36049499511718874,0.0,0.0,0.0,0.0,0.0,0.0,0.0,0.0,0.0
