date,fly_time,fly_time_s,x,y,z,z_max,vx,vy,vz,vx_max,vy_max,vz_max,latitude,longitude,altitude,pitch,roll,yaw,cx,cy,cz,scx,scy,scz,d,dx,dy,dz,gc_pow_x,gc_pow_y,gc_pow_z,gpc_pow_x,gpc_pow_y,gpc_pow_z,gfc_pow_x,gfc_pow_y,gfc_pow_z
14/04/2022,16:10:20,291.154962,0.0,0.0,2.971466064453125,2.971466064453125,0.0,0.0,-0.0030223915819078684,0,0,0,47.641468,-122.140165,124.9714584350586,0.0,0.0,0.0,0.0,0.0,0.0,0.0,0.0,0.0,0.5002212589519681,-0.25799739921976594,-0.004161248374512427,0.42853393554687624,0.0,0.0,0.0,-0.0,-0.0,0.0,-0.0,-0.0,0.0
14/04/2022,16:10:21,291.378962,0.0,0.0,2.9707794189453125,2.971466064453125,0.0,0.0,-0.0030223915819078684,0,0,0,47.641468,-122.140165,124.97077178955078,0.0,0.0,0.0,0.0,0.0,0.0,0.0,0.0,0.0,0.5008096256993493,-0.25799739921976594,-0.004161248374512427,0.42922058105468874,0.0,0.0,0.0,-0.0,-0.0,0.0,-0.0,-0.0,0.0
14/04/2022,16:10:21,291.602481,0.0,0.0,2.9700927734375,2.971466064453125,0.0,0.0,-0.0030223915819078684,0,0,0,47.641468,-122.140165,124.9700927734375,0.0,0.0,0.0,0.0,0.0,0.0,0.0,0.0,0.0,0.5013982423611589,-0.25799739921976594,-0.004161248374512427,0.42990722656250124,0.0,0.0,0.0,-0.0,-0.0,0.0,-0.0,-0.0,0.0
14/04/2022,16:10:21,291.833482,0.0,0.0,2.9693984985351562,2.971466064453125,0.0,0.0,-0.0030223915819078684,0,0,0,47.641468,-122.140165,124.9693832397461,0.0,0.0,0.0,0.0,0.0,0.0,0.0,0.0,0.0,0.5019936524060604,-0.25799739921976594,-0.004161248374512427,0.430601501464845,0.0,0.0,0.0,-0.0,-0.0,0.0,-0.0,-0.0,0.0
14/04/2022,16:10:21,292.070488,0.0,0.0,2.9686965942382812,2.971466064453125,0.0,0.0,-0.0030223915819078684,0,0,0,47.641468,-122.140165,124.96868896484375,0.0,0.0,0.0,0.0,0.0,0.0,0.0,0.0,0.0,0.502595863307545,-0.25799739921976594,-0.004161248374512427,0.43130340576172,0.0,0.0,0.0,-0.0,-0.0,0.0,-0.0,-0.0,0.0
14/04/2022,16:10:21,292.302482,0.0,0.0,2.9680023193359375,2.971466064453125,0.0,0.0,-0.0030223915819078684,0,0,0,47.641468,-122.140165,124.96800231933594,0.0,0.0,0.0,0.0,0.0,0.0,0.0,0.0,0.0,0.5031917826150663,-0.25799739921976594,-0.004161248374512427,0.43199768066406374,0.0,0.0,0.0,-0.0,-0.0,0.0,-0.0,-0.0,0.0
14/04/2022,16:10:22,292.526483,0.0,0.0,2.9673080444335938,2.971466064453125,0.0,0.0,-0.0030223915819078684,0,0,0,47.641468,-122.140165,124.9673080444336,0.0,0.0,0.0,0.0,0.0,0.0,0.0,0.0,0.0,0.5037879538100128,-0.25799739921976594,-0.004161248374512427,0.4326919555664075,0.0,0.0,0.0,-0.0,-0.0,0.0,-0.0,-0.0,0.0
14/04/2022,16:10:22,292.761483,0.0,0.0,2.96661376953125,2.971466064453125,0.0,0.0,-0.003022033954039216,0,0,0,47.641468,-122.140165,124.96660614013672,0.0,0.0,0.0,0.0,0.0,0.0,0.0,0.0,0.0,0.5043843759992088,-0.25799739921976594,-0.004161248374512427,0.43338623046875124,0.0,0.0,0.0,-0.0,-0.0,0.0,-0.0,-0.0,0.0
14/04/2022,16:10:22,292.999482,0.0,0.0,2.9659194946289062,2.971466064453125,0.0,0.0,-0.003022033954039216,0,0,0,47.641468,-122.140165,124.96590423583984,0.0,0.0,0.0,0.0,0.0,0.0,0.0,0.0,0.0,0.5049810482933225,-0.25799739921976594,-0.004161248374512427,0.434080505371095,0.0,0.0,0.0,-0.0,-0.0,0.0,-0.0,-0.0,0.0
14/04/2022,16:10:22,293.222481,0.0,0.0,2.9652175903320312,2.971466064453125,0.0,0.0,-0.003022033954039216,0,0,0,47.641468,-122.140165,124.96521759033203,0.0,0.0,0.0,0.0,1.0,0.0,0.0,1.0,0.0,0.5055845307650187,-0.25799739921976594,-0.004161248374512427,0.43478240966797,0.0,1.0,0.0,-0.0,-0.0,0.0,-0.0,-0.0,0.0
14/04/2022,16:10:23,293.451482,-7.350614760071039e-05,0.006628076545894146,2.9699172973632812,2.971466064453125,2.907783172231837e-12,0.0976988822221756,0.05977447330951691,2.907783172231837e-12,0.0976988822221756,0.05977447330951691,47.6414680596384,-122.140165,124.96991729736328,-6.958407610429316e-10,-4.628903212017493,1.329183963870741e-08,6.959590960276134e-10,3.0,0.0,6.959590960276134e-10,3.0,0.0,0.5015658875664795,-0.25803078884641567,-0.00416178691687763,0.43008270263672,6.959590960276134e-10,3.0,0.0,-0.0,-0.0,0.0,-0.0,-0.0,0.0
14/04/2022,16:10:23,293.686483,-0.0008353313896805048,0.07532212510704994,3.0425262451171875,3.0425262451171875,3.132803391703298e-11,0.5916768312454224,0.5763506889343262,3.132803391703298e-11,0.5916768312454224,0.5763506889343262,47.641468693572676,-122.140165,125.04425048828125,9.46305843712856e-10,-14.272192329011622,-7.577356365812061e-09,-5.289992687214895e-10,4.0,0.0,-5.289992687214895e-10,4.0,0.0,0.44109346506818553,-0.2583768421052549,-0.004167368421052475,0.35747375488281374,-5.289992687214895e-10,4.0,0.0,-0.0,-0.0,0.0,-0.0,-0.0,-0.0
14/04/2022,16:10:23,293.922481,-0.003277359763160348,0.29552065674215555,3.224151611328125,3.224151611328125,-8.091915332242294e-11,1.371592402458191,0.9227420091629028,3.132803391703298e-11,1.371592402458191,0.9227420091629028,47.641470695885786,-122.140165,125.22692108154297,-1.3829687359171664e-08,-18.55030310693437,3.340440561813534e-08,2.3320674508326133e-09,4.0,0.0,-0.4449365261066231,3.9928236043800203,-2.44594707892067,0.3134855909841367,-0.25948611437930436,-0.004185259909343708,0.17584838867187624,2.3320674508326133e-09,4.0,0.0,-0.0,-0.0,0.0,-0.4449365284386905,-0.007176395619979547,-2.44594707892067
14/04/2022,16:10:23,294.15348,-0.007338724099099636,0.6617352515459061,3.3386611938476562,3.3386611938476562,-2.1166646213544027e-10,1.7522094249725342,-0.09424809366464615,3.132803391703298e-11,1.7522094249725342,0.9227420091629028,47.6414740013637,-122.140165,125.3384017944336,-3.081057453184495e-08,-14.411710992962503,8.110033860463268e-08,5.661871732532416e-09,4.0,0.0,5.661871732532416e-09,4.0,0.0,0.2684661703995642,-0.2613309571284544,-0.00421501543755598,0.06133880615234499,5.661871732532416e-09,4.0,0.0,-0.0,-0.0,0.0,-0.0,-0.0,0.0
14/04/2022,16:10:24,294.375,-0.012539294897578657,1.1306724566966295,3.3336257934570312,3.3386611938476562,-8.461401024284498e-10,2.3260459899902344,0.08107002079486847,3.132803391703298e-11,2.3260459899902344,0.9227420091629028,47.64147823621659,-122.140165,125.33386993408203,-3.557604910187666e-08,-12.485948520652814,8.212125837197537e-08,5.733145377887714e-09,4.0,0.0,5.733145377887714e-09,4.0,0.0,0.27195177445658497,-0.26369327509204127,-0.00425311734019429,0.06637420654297,5.733145377887714e-09,4.0,0.0,-0.0,-0.0,0.0,-0.0,-0.0,-0.0
14/04/2022,16:10:24,294.610001,-0.018948725191876292,1.7086128741502762,3.3430709838867188,3.3430709838867188,-1.6700059113361476e-09,2.7450196743011475,-0.0017293671844527125,3.132803391703298e-11,2.7450196743011475,0.9227420091629028,47.64148344774545,-122.140165,125.34307098388672,-3.2193624156808175e-08,-9.904314140625223,4.544770169071916e-08,3.1728481278689722e-09,4.0,0.0,3.1728481278689722e-09,4.0,0.0,0.27264899292528527,-0.2666047070376449,-0.004300075919962065,0.05692901611328249,3.1728481278689722e-09,4.0,0.0,-0.0,-0.0,0.0,-0.0,-0.0,0.0
14/04/2022,16:10:24,294.847,-0.026495835045352578,2.389138177037239,3.335479736328125,3.3430709838867188,-2.6928101970469243e-09,3.0733911991119385,-0.05748455226421356,3.132803391703298e-11,3.0733911991119385,0.9227420091629028,47.64148957987116,-122.140165,125.3353042602539,-2.0241868706392637e-08,-7.448638477024738,-4.5711856127506754e-08,-3.191289586491751e-09,4.0,-1.0,-3.191289586491751e-09,4.0,-1.0,0.2776681679731231,-0.2700329199120867,-0.004355369676001697,0.06452026367187624,-3.191289586491751e-09,4.0,-1.0,-0.0,-0.0,0.0,-0.0,-0.0,0.0
14/04/2022,16:10:24,295.077001,-0.034345722175203264,3.097159856930375,3.236328125,3.3430709838867188,4.833115599467419e-05,3.2124240398406982,-0.9816382527351379,4.833115599467419e-05,3.2124240398406982,0.9227420091629028,47.6414958677608,-122.14016499997122,125.236328125,0.06206209062821954,-6.126878428617716,-0.5750897178533698,-0.040148162150816395,3.9997985105597396,-1.0,-0.47716177845886,3.9927499038450938,1.4635837291051472,0.3188509157159759,-0.27360180886559216,-0.004412932401058445,0.16367187500000124,-0.040148162150816395,3.9997985105597396,-1.0,-0.0,-0.0,0.0,-0.4370136163080436,-0.007048606714645829,2.4635837291051472
14/04/2022,16:10:24,295.298,-0.04260127595625818,3.8476770985871553,3.0918350219726562,3.3430709838867188,0.0007279074052348733,3.338632106781006,0.06148058921098709,0.0007279074052348733,3.338632106781006,0.9227420091629028,47.641502710772336,-122.14016499904014,125.09198760986328,-0.0003849048546517327,0.18047296884374778,-2.144688787555175,-0.14969256053076233,3.9971980357897885,-1.0,-0.14969256053076233,3.9971980357897885,-1.0,0.4146858902373685,-0.27745037069871187,-0.004475005979011293,0.308164978027345,-0.14969256053076233,3.9971980357897885,-1.0,-0.0,-0.0,0.0,-0.0,-0.0,0.0
14/04/2022,16:10:25,295.526001,-0.05050853732973337,4.583682422526181,3.0630722045898438,3.3430709838867188,0.001605778350494802,3.2985410690307617,-0.6478415727615356,0.001605778350494802,3.338632106781006,0.9227420091629028,47.64150933212984,-122.14016499560864,125.06114959716797,-0.12546933469606675,1.7278634163850795,-4.084043016676948,-0.28487860965050027,3.9898426256888375,-1.0,-0.8632845533987038,3.9805134975638663,1.415115364556406,0.43901513870688674,-0.2814131320419059,-0.004538921484548375,0.3369277954101575,-0.28487860965050027,3.9898426256888375,-1.0,-0.0,-0.0,0.0,-0.5784059437482035,-0.009329128124971173,2.415115364556406
14/04/2022,16:10:25,295.755001,-0.05834212445188314,5.332514132373035,3.002044677734375,3.3430709838867188,0.0024368043523281813,3.186052083969116,0.4890899956226349,0.0024368043523281813,3.338632106781006,0.9227420091629028,47.641515981050404,-122.14016498940188,125.00204467773438,-0.16824166223509882,1.4276764536380697,-6.276047696058306,-0.5465938977451184,4.970033713260686,-1.0,-0.5465938977451184,4.970033713260686,-1.0,0.48988695540856736,-0.2856563718632222,-0.004607360836504704,0.39795532226562624,-0.5465938977451184,4.970033713260686,-1.0,-0.0,-0.0,0.0,-0.0,-0.0,-0.0
14/04/2022,16:10:25,295.978001,-0.06538280146196485,6.025710073299706,3.0754852294921875,3.3430709838867188,0.003537550335749984,3.1816399097442627,-0.17352159321308136,0.003537550335749984,3.338632106781006,0.9227420091629028,47.641522303989035,-122.14016498064834,125.07498931884766,0.5325980843702242,-3.60107233616586,-8.972387737074225,-0.7797922764292435,4.938818077801742,-1.0,-0.7797922764292435,4.938818077801742,-1.0,0.4351010691030849,-0.28979519784779945,-0.004674116094320446,0.32451477050781374,-0.7797922764292435,4.938818077801742,-1.0,-0.0,-0.0,0.0,-0.0,-0.0,0.0
14/04/2022,16:10:25,296.211003,-0.07235894503537565,6.738716879859567,2.926544189453125,3.3430709838867188,0.004891090095043182,3.2709898948669434,-1.0400211811065674,0.004891090095043182,3.338632106781006,0.9227420091629028,47.64152863368571,-122.14016496839328,124.92654418945312,1.0297166050310638,-4.732575902671821,-12.718678903691039,-1.1008211254551845,4.877314102018813,-1.0,-1.512710492460826,4.870670725131623,1.5678582433638826,0.5574997909511781,-0.2943179874734224,-0.004747064314088334,0.47345581054687624,-1.1008211254551845,4.877314102018813,-1.0,-0.0,-0.0,0.0,-0.41188936700564144,-0.006643376887190187,2.5678582433638826
14/04/2022,16:10:26,296.451,-0.0928271934390068,7.591707952320576,2.7817840576171875,3.3430709838867188,-0.15719975531101227,3.520197629928589,0.17898695170879364,0.004891090095043182,3.520197629928589,0.9227420091629028,47.641536404698634,-122.14016512115596,124.78229522705078,-3.1213140851342907,-4.583749490911288,-16.794192374665773,-1.4446737973248536,4.786743947541271,0.0,-1.4446737973248536,4.786743947541271,0.0,0.681858959156303,-0.28760940480216735,-0.0046388613677788015,0.6182159423828137,-1.4446737973248536,4.786743947541271,0.0,-0.0,-0.0,0.0,-0.0,-0.0,0.0
14/04/2022,16:10:26,296.668002,-0.15519758418668061,8.363187323324382,2.85101318359375,3.3430709838867188,-0.3341298997402191,3.629180431365967,0.28139594197273254,0.004891090095043182,3.629180431365967,0.9227420091629028,47.641543354682646,-122.14016584464713,124.85185241699219,-3.5656003027219874,-4.340207151820021,-18.98414360402803,-1.6265323660472655,4.72804319588989,0.0,-1.6265323660472655,4.72804319588989,0.0,0.5982476390617304,-0.237695214676856,-0.003833793785112505,0.5489868164062512,-1.6265323660472655,4.72804319588989,0.0,-0.0,-0.0,0.0,0.0,0.0,-0.0
14/04/2022,16:10:26,296.887004,-0.2546770154731348,9.164476277306676,2.9047622680664062,3.3430709838867188,-0.4918633699417114,3.7080869674682617,0.20987749099731445,0.004891090095043182,3.7080869674682617,0.9227420091629028,47.6415505757114,-122.14016705695313,124.90538787841797,-3.0183621209560076,-3.61218242919393,-19.952773926159786,-1.7062274256804122,4.699871059067045,0.0,-1.7062274256804122,4.699871059067045,0.0,0.517799574562388,-0.15116230993869534,-0.002438101773206469,0.495237731933595,-1.7062274256804122,4.699871059067045,0.0,-0.0,-0.0,0.0,0.0,0.0,0.0
14/04/2022,16:10:26,297.100522,-0.3837628100300208,9.96920104790479,2.9439926147460938,3.3430709838867188,-0.6171448826789856,3.766108512878418,0.1545535922050476,0.004891090095043182,3.766108512878418,0.9227420091629028,47.64155783005807,-122.14016866158127,124.9444580078125,-2.3272799274462503,-2.8655890296893696,-20.366260285545117,-1.7401002525497877,4.6874354514036956,0.0,0.3603389068057554,4.721313502361038,0.2863813341628257,0.4573555434751938,-0.0350861438789849,-0.0005659055464359852,0.4560073852539075,-1.7401002525497877,4.6874354514036956,0.0,-0.0,-0.0,0.0,2.100439159355543,0.033878050957342885,0.2863813341628257
14/04/2022,16:10:26,297.32152,-0.5314783728681505,10.784425226040184,2.9694671630859375,3.3430709838867188,-0.6284338235855103,3.8083760738372803,0.11105196923017502,0.004891090095043182,3.8083760738372803,0.9227420091629028,47.64156518030053,-122.14017050814674,124.96980285644531,2.473276006966831,-0.6729379925812125,-20.53012508641116,-1.7534990907787038,4.682439635343766,0.0,0.5039438851967346,4.718850005924011,0.38155104332501755,0.44187162442464056,0.0994456440287852,0.0016039620004644206,0.43053283691406374,-1.7534990907787038,4.682439635343766,0.0,0.0,0.0,0.0,2.2574429759754384,0.03641037058024598,0.38155104332501755
14/04/2022,16:10:27,297.540524,-0.6653074586065486,11.607777713797987,2.9939651489257812,3.3430709838867188,-0.513878345489502,3.8394150733947754,0.10870342701673508,0.004891090095043182,3.8394150733947754,0.9227420091629028,47.64157260197304,-122.14017216357975,124.9942855834961,3.569135218319124,0.029596205549009394,-20.56868436889854,-1.4053199294531182,3.7450067951716566,0.0,0.7457219076566555,3.779701018350838,0.36110252327345216,0.4618017192853921,0.2199634987329253,0.003547798366659194,0.40603485107422,-1.4053199294531182,3.7450067951716566,0.0,0.0,0.0,0.0,2.1510418371097737,0.03469422317918132,0.36110252327345216
14/04/2022,16:10:27,297.767524,-0.7722512724576518,12.432203061878681,3.01605224609375,3.3430709838867188,-0.3877784311771393,3.780287742614746,0.1154949963092804,0.004891090095043182,3.8394150733947754,0.9227420091629028,47.64158002821823,-122.14017346047662,125.01640319824219,1.6349173136575283,4.279984796363821,-20.394669994142607,0.0,0.0,0.0,0.0,0.0,0.0,0.49575951544629565,0.31358577411982713,0.0050578350664469696,0.38394775390625124,0.0,0.0,0.0,0.0,0.0,0.0,0.0,0.0,0.0
14/04/2022,16:10:27,297.97652,-0.8515714855166152,13.21405784599483,3.0996551513671875,3.3430709838867188,-0.24695241451263428,3.1837751865386963,0.8983551263809204,0.004891090095043182,3.8394150733947754,0.9227420091629028,47.6415870543417,-122.14017439534224,125.10233306884766,-3.901836802151545,17.112725144972384,-20.59614011541724,0.0,0.0,0.0,1.1382139506474656,0.01835828952656979,-2.2079737186074104,0.4846195038883206,0.3802780764302183,0.006133517361776697,0.30034484863281374,0.0,0.0,0.0,0.0,0.0,0.0,1.1382139506474656,0.01835828952656979,-2.2079737186074104
14/04/2022,16:10:27,298.186523,-0.9013282087398693,13.82820232026279,3.23028564453125,3.3430709838867188,-0.15135088562965393,2.7252800464630127,0.09091991186141968,0.004891090095043182,3.8394150733947754,0.9227420091629028,47.641592572161294,-122.14017496322334,125.23058319091797,-1.1713543414022916,22.795873713362123,-20.877494697938907,0.0,0.0,0.0,0.0,0.0,0.0,0.4531542240733899,0.42011887920410007,0.006776110954904269,0.16971435546875124,0.0,0.0,0.0,0.0,0.0,0.0,0.0,0.0,-0.0
14/04/2022,16:10:28,298.400036,-0.9141785278916359,14.31188886705786,3.2757339477539062,3.3430709838867188,0.06344064325094223,1.8515241146087646,0.5033187866210938,0.06344064325094223,3.8394150733947754,0.9227420091629028,47.6415968515167,-122.14017505679068,125.2757339477539,-3.6272960195637562,16.184075215514113,-20.583902042842485,0.0,0.0,0.0,0.0,0.0,0.0,0.44300747287398445,0.42516648932584167,0.006857524021382844,0.124266052246095,0.0,0.0,0.0,0.0,0.0,0.0,0.0,0.0,-0.0
14/04/2022,16:10:28,298.61404,-0.8994760185014457,14.653416477143764,3.362213134765625,3.362213134765625,0.09865834563970566,1.375491738319397,0.2886422872543335,0.09865834563970566,3.8394150733947754,0.9227420091629028,47.641599922683945,-122.14017481064771,125.36221313476562,-3.968604849996577,11.290513734677091,-20.255446472005886,0.0,0.0,-1.0,0.0,0.0,-1.0,0.4067722942165662,0.4049607265374886,0.006531624621572973,0.03778686523437624,0.0,0.0,-1.0,0.0,0.0,0.0,0.0,0.0,-0.0
14/04/2022,16:10:28,298.826037,-0.8814956755377352,14.919257117435336,3.3421096801757812,3.362213134765625,0.09542711824178696,1.1469371318817139,-0.6166731715202332,0.09865834563970566,3.8394150733947754,0.9227420091629028,47.641602343528795,-122.14017452822407,125.34028625488281,-3.6835997938931557,8.857713469265583,-20.095323617737815,0.0,0.0,-4.0,0.2773969023867861,0.00447414358687852,-1.687718567047093,0.3871013721816376,0.3826984227532024,0.006172555205695929,0.05789031982421999,0.0,0.0,-4.0,0.0,0.0,0.0,0.2773969023867861,0.00447414358687852,2.312281432952907
14/04/2022,16:10:28,299.040038,-0.8649197136983275,15.139327310025692,3.1506195068359375,3.362213134765625,0.08043621480464935,0.8975458145141602,-1.0116171836853027,0.09865834563970566,3.8394150733947754,0.9227420091629028,47.641604290848214,-122.1401742788917,125.15061950683594,-2.9950219878502122,6.724490815443884,-19.970459771035394,0.0,0.0,-5.0,0.1903692017191724,0.003070470995468187,-2.496349495813228,0.440099719955826,0.3625781758738045,0.00584803509473808,0.24938049316406374,0.0,0.0,-5.0,0.0,0.0,0.0,0.1903692017191724,0.003070470995468187,2.503650504186772
14/04/2022,16:10:28,299.251039,-0.8512038863264024,15.31034270208329,2.8701629638671875,3.362213134765625,0.06890752911567688,0.7479583621025085,-1.8090040683746338,0.09865834563970566,3.8394150733947754,0.9227420091629028,47.64160584823995,-122.14017406829716,124.86475372314453,-2.5261900027270108,5.505094977605454,-19.91068848490365,0.0,0.0,-5.0,0.33197896901120844,0.00535449950017448,2.4752436167475276,0.6328897355261422,0.34610832028856353,0.005582392262718727,0.5298370361328137,0.0,0.0,-5.0,0.0,0.0,0.0,0.33197896901120844,0.00535449950017448,7.475243616747528
14/04/2022,16:10:29,299.465036,-0.8402038633357733,15.443698002025485,2.5525054931640625,3.362213134765625,0.048328947275877,0.5100719928741455,-0.8343068361282349,0.09865834563970566,3.8394150733947754,0.9227420091629028,47.64160704050849,-122.1401739029964,124.54997253417969,-1.4275315083882227,3.060252788270533,-19.823219510984963,0.0,0.0,-5.0,0.22396497096916393,0.0036123382414381244,-2.4371286123776508,0.9105705305066608,0.33296082562734275,0.005370335897211476,0.8474945068359387,0.0,0.0,-5.0,0.0,0.0,0.0,0.22396497096916393,0.0036123382414381244,2.5628713876223492
14/04/2022,16:10:29,299.672038,-0.8321070482488722,15.539961653761566,2.3575286865234375,3.362213134765625,0.04037947207689285,0.42449161410331726,-1.3887563943862915,0.09865834563970566,3.8394150733947754,0.9227420091629028,47.64160790342749,-122.14017378131932,124.35338592529297,-1.3860185508809808,2.9490952769352874,-19.817693510541194,0.0,0.0,-5.0,0.4577484373809041,0.007383039312593502,0.9443741602897422,1.0914694216185523,0.3233138806073985,0.005214740009797936,1.0424713134765637,0.0,0.0,-5.0,0.1258952160180561,0.002030568000291689,0.40592798229447674,0.331853221362848,0.005352471312301813,5.538446177995265
14/04/2022,16:10:29,299.891039,-0.8256826751166955,15.615931429900229,2.12841796875,3.362213134765625,0.0264691561460495,0.2760635316371918,-0.3821604251861572,0.09865834563970566,3.8394150733947754,0.9227420091629028,47.641608574815415,-122.1401736861988,124.12841796875,-0.9826227860829879,2.086965546140469,-19.798344671248714,0.0,0.0,-5.0,0.4218734971782741,0.006804411244811604,-2.0657343620904065,1.3101877424234787,0.3156661780220451,0.005091389968097104,1.2715820312500012,0.0,0.0,-5.0,0.11255763472134145,0.0018154457213118173,0.4534102027923421,0.30931586245693266,0.004988965523499787,2.4808554351172516
14/04/2022,16:10:29,300.101038,-0.8213331458391622,15.667050264775753,2.0154266357421875,3.362213134765625,0.021363018080592155,0.2224368453025818,-1.0201478004455566,0.09865834563970566,3.8394150733947754,0.9227420091629028,47.64160904028986,-122.14017361989406,124.01239013671875,-0.8463422444375654,1.795219662818003,-19.792801409456203,0.0,0.0,-5.0,0.4068453084200517,0.006562021103548442,-0.5659356113180043,1.4189695882531894,0.31049349705842455,0.005007959629974579,1.3845733642578137,0.0,0.0,-5.0,0.1051159261568488,0.0016954181638201384,0.46873996684277786,0.3017293822632029,0.004866602939728303,3.965324421839218
14/04/2022,16:10:29,300.313036,-0.8180578022729605,15.70541596133262,1.8691864013671875,3.362213134765625,0.013235620222985744,0.13706791400909424,-0.021215617656707764,0.09865834563970566,3.8394150733947754,0.9227420091629028,47.641609382836315,-122.14017357095253,123.86909484863281,-0.5532411541138933,1.1713237714147742,-19.784662586055976,0.0,0.0,-5.0,0.5224471010698599,0.0084265661462803,-2.087740533520474,1.5612234023616718,0.3066003647164208,0.004945167172841991,1.5308135986328137,0.0,0.0,-5.0,0.09653337415949524,0.0015569899057972063,0.48197790639271965,0.42591372691036467,0.006869576240483094,2.430281560086806
14/04/2022,16:10:30,300.522036,-0.8158915021922439,15.730705225840211,1.8187103271484375,3.362213134765625,0.010546599514782429,0.10925492644309998,-0.7323190569877625,0.09865834563970566,3.8394150733947754,0.9227420091629028,47.64160960938544,-122.1401735384902,123.8165283203125,-0.45199934557064114,0.9562305903669976,-19.782453958510683,0.0,0.0,-5.0,0.37586482623553286,0.00606233590702035,-1.4343923740016309,1.6102587979752834,0.30402684276330105,0.004903658754244589,1.5812896728515637,0.0,0.0,-5.0,0.0932853480436279,0.0015046023877997741,0.48519122900143685,0.28257947819190493,0.004557733519220576,3.0804163969969323
14/04/2022,16:10:30,300.734039,-0.8141163011314347,15.751433200202882,1.6020660400390625,3.362213134765625,0.00802804809063673,0.08314166963100433,-1.1092233657836914,0.09865834563970566,3.8394150733947754,0.9227420091629028,47.641609794975956,-122.14017351189858,123.5987319946289,-0.3139734791927323,0.6639721891253577,-19.780321740948363,0.0,0.0,-5.0,0.5511427446621577,0.008889399107451092,2.136268730714013,1.8231139944962418,0.30191786817598354,0.004869643035096516,1.7979339599609387,0.0,0.0,-5.0,0.0827111400149221,0.0013340506454019715,0.4925484152307016,0.46843160464723566,0.00755534846204912,6.6437203154833115
14/04/2022,16:10:30,300.936039,-0.8129100296646357,15.765499715693295,1.4654922485351562,3.362213134765625,0.005116884596645832,0.05298347398638725,0.028848588466644287,0.09865834563970566,3.8394150733947754,0.9227420091629028,47.64160992060063,-122.14017349388041,123.46554565429688,-0.17258603199303654,0.3645217082743736,-19.778940709610797,0.0,0.0,-5.0,0.45655548044622857,0.0073637980717135695,-2.0354845779101987,1.9577116791739055,0.300485090158095,0.0048465337122252095,1.934507751464845,0.0,0.0,-5.0,0.07674279838041508,0.0012377870706513124,0.4940662388869522,0.3798126820658135,0.006126011001062257,2.4704491832028492
14/04/2022,16:10:30,301.257038,-0.8117122607072815,15.779522695578635,1.3648147583007812,3.362213134765625,0.0038524658884853125,0.04006313532590866,-1.0533092021942139,0.09865834563970566,3.8394150733947754,0.9227420091629028,47.641610046290445,-122.14017347591661,123.3616714477539,-0.1511866666002906,0.31987172660912305,-19.778731855047283,0.0,0.0,0.0,0.5954583548404375,0.00960416701355329,7.959144916329361,2.0570464322192334,0.29906151444289075,0.004823572813595689,2.03518524169922,0.0,0.0,0.0,0.07269466883925586,0.0011724946586978398,0.49470463442101614,0.5227636860011816,0.00843167235485545,7.464440281908345
14/04/2022,16:10:31,301.477036,-0.8110604721587151,15.787143672816455,1.2056427001953125,3.362213134765625,0.0027041982393711805,0.028080474585294724,0.025973645970225334,0.09865834563970566,3.8394150733947754,0.9227420091629028,47.641610114476656,-122.14017346616129,123.2056884765625,-0.05564458421058087,0.11601505687893145,-19.778335400109427,0.0,0.0,0.0,0.40535505806708405,0.006537984807530659,2.975631978205289,2.2145433491081783,0.2982870083910223,0.004811080780498855,2.1943572998046887,0.0,0.0,0.0,0.0674803083648815,0.0010883920704009744,0.49642090700590447,0.33787474970220255,0.005449592737129684,2.4792110711993844
14/04/2022,16:10:31,301.686047,-0.8106252716388553,15.792267284356058,1.353729248046875,3.362213134765625,0.001948873046785593,0.0204126238822937,1.4153691530227661,0.09865834563970566,3.8394150733947754,1.4153691530227661,47.641610160320624,-122.14017345964163,123.35794830322266,-0.056358171976501496,0.11934020091613723,-19.778340812807674,0.0,0.0,0.0,0.07200498632548998,0.0011613707471859612,0.4948182895434886,2.067828236270998,0.2977693036540141,0.004802730704099645,2.0462707519531262,0.0,0.0,0.0,0.07200498632548998,0.0011613707471859612,0.4948182895434886,0.0,0.0,-0.0
14/04/2022,16:10:31,301.892038,-0.8102987455204129,15.796131357550621,1.6238937377929688,3.362213134765625,0.0016293413937091827,0.017084117978811264,0.7901236414909363,0.09865834563970566,3.8394150733947754,1.4153691530227661,47.64161019449189,-122.14017345480173,123.62389373779297,-0.05749906573083074,0.12205635805526162,-19.7783445237424,0.0,0.0,0.0,0.082436887183685,0.0013296272126395493,0.4923545576483232,1.8008363765542323,0.29738055490567716,0.004796460562992877,1.7761062622070325,0.0,0.0,0.0,0.082436887183685,0.0013296272126395493,0.4923545576483232,0.0,0.0,0.0
14/04/2022,16:10:31,302.106039,-0.8100185682997108,15.799447558820248,1.7008209228515625,3.362213134765625,0.0013434264110401273,0.014079948887228966,0.12314632534980774,0.09865834563970566,3.8394150733947754,1.4153691530227661,47.64161022429893,-122.14017345058237,123.70082092285156,-0.048479843019178896,0.10295420840393894,-19.778327733828878,2.14626247900115,2.897163676983377,0.0,2.713939473565253,2.906319757540859,2.872843952858727,1.724954897213243,0.29704697734648444,0.004791080279783699,1.6991790771484387,2.14626247900115,2.897163676983377,0.0,0.08574451425804325,0.0013829760364205408,0.49047893336271775,0.4819324803060599,0.007773104521061195,2.3823650194960093
14/04/2022,16:10:31,302.315038,-0.7963586142286658,15.815375344827771,1.7867279052734375,3.362213134765625,0.2321418970823288,0.23881478607654572,0.982021689414978,0.2321418970823288,3.8394150733947754,1.4153691530227661,47.64161037259158,-122.14017325723357,123.78964233398438,10.20560243342935,-4.7442825040468595,-20.164522103753065,2.1266859362750203,2.9115643438622545,0.0,2.212295553967334,2.9129451441476135,0.4877963531120256,1.6379354146412,0.2831337429689649,0.004566673273689759,1.6132720947265637,2.1266859362750203,2.9115643438622545,0.0,0.08560961769231337,0.0013808002853589185,0.4877963531120256,-0.0,-0.0,-0.0
14/04/2022,16:10:32,302.530037,-0.7150699610356241,15.899596535600722,1.9961624145507812,3.362213134765625,0.5551601052284241,0.5618793368339539,0.8799097537994385,0.5551601052284241,3.8394150733947754,1.4153691530227661,47.64161113092543,-122.1401721497161,123.9988021850586,13.159428590960685,-6.042487823175227,-20.88091151299464,2.4465430738325837,2.0036035006661903,-1.0,2.514453605487419,2.004698831821914,-0.5245313300375973,1.4180881335806756,0.20050817815700772,0.003234002873501396,1.40383758544922,2.4465430738325837,2.0036035006661903,-1.0,0.06791053165483539,0.001095331155723582,0.4754686699624026,-0.0,-0.0,-0.0
14/04/2022,16:10:32,302.750036,-0.5609255288727582,16.05837391410023,2.1647186279296875,3.362213134765625,0.8862923383712769,0.8949093818664551,0.6619675159454346,0.8862923383712769,3.8394150733947754,1.4153691530227661,47.64161255298706,-122.14017006101662,124.16670989990234,11.840134398633548,-5.101224733478645,-22.134558143042753,2.4021215907049083,2.0566506420559914,-1.0,-0.0712882973498501,2.016756934184139,-0.6704775001082307,1.2360593947789575,0.04384357615414003,0.000707154454097747,1.2352813720703137,2.4021215907049083,2.0566506420559914,-1.0,0.016153808848625575,0.00026054530400961625,0.4551293692042392,-2.489563696903384,-0.040154253175862034,-0.12560686931246987
14/04/2022,16:10:32,302.970042,-0.36029068124480546,16.27265729289502,2.2567291259765625,3.362213134765625,0.9866092205047607,1.1397954225540161,0.31294211745262146,0.9866092205047607,3.8394150733947754,1.4153691530227661,47.64161443677118,-122.14016739386024,124.25672912597656,1.4116974965933071,-7.334782021621581,-24.23337640437804,2.325189209259238,2.143244069429424,-1.0,-0.17329369772334546,2.1029459580264773,0.016547098742777933,1.1544423784771336,-0.16019437541078252,-0.0025837802485639827,1.1432708740234387,2.325189209259238,2.143244069429424,-1.0,-0.060992818727445046,-0.000983755140766375,0.43529189459285916,-2.4374900882551382,-0.03931435626218025,0.5812552041499187
14/04/2022,16:10:32,303.176036,-0.16533379489555955,16.542296732775867,2.3227615356445312,3.362213134765625,0.8460975885391235,1.3695701360702515,0.29329630732536316,0.9866092205047607,3.8394150733947754,1.4153691530227661,47.64161684319455,-122.14016475875007,124.32276153564453,-2.0936821666822394,-7.148456070454523,-26.2919934701753,2.2466990983940347,2.22538607016298,-1.0,-0.3266976416423657,2.183879671130129,-0.016662393587139723,1.1356405720436609,-0.35944844989689795,-0.005797555643500374,1.07723846435547,2.2466990983940347,2.22538607016298,-1.0,-0.137818113756564,-0.002222872802526,0.41302994425507383,-2.4355786262798365,-0.03928352623032549,0.5703076621577865
14/04/2022,16:10:33,303.378037,-0.009398546651937068,16.848784419707954,2.3773651123046875,3.362213134765625,0.664578914642334,1.5333967208862305,0.22217056155204773,0.9866092205047607,3.8394150733947754,1.4153691530227661,47.64161962632255,-122.14016261103016,124.3780288696289,-2.4481564795816815,-5.954103286565787,-28.41440828430372,2.1627414156326887,2.3070651419297015,-1.0,-0.4271096489102646,2.2652933505661026,0.11875537131064529,1.1474097919535449,-0.5202852069419628,-0.008391696886164368,1.0226348876953137,2.1627414156326887,2.3070651419297015,-1.0,-0.1986191823503732,-0.0032035351992009717,0.390391467077914,-2.39123188219258,-0.038568256164397886,0.7283639042327312
14/04/2022,16:10:33,303.592037,0.1096529879141599,17.184536105021834,2.4169387817382812,3.362213134765625,0.5033882856369019,1.653696060180664,0.15570349991321564,0.9866092205047607,3.8394150733947754,1.4153691530227661,47.64162263835766,-122.14016098308151,124.41740417480469,-1.999811468238105,-4.66897171857555,-30.557147590609812,2.0749700077720887,2.3863150393119303,-1.0,-0.4919981311491213,2.344912327393841,0.2867802452033731,1.1756619452441675,-0.6447197201699308,-0.01039870516403596,0.98306121826172,2.0749700077720887,2.3863150393119303,-1.0,-0.2434755267937569,-0.0039270246257075755,0.3712486845038617,-2.323492612127453,-0.03747568729238186,0.9155315606995114
14/04/2022,16:10:33,303.807037,0.19677992130164057,17.536536862142384,2.444122314453125,3.362213134765625,0.37639346718788147,1.741087555885315,0.10852465778589249,0.9866092205047607,3.8394150733947754,1.4153691530227661,47.64162579889384,-122.14015977635266,124.44445037841797,-1.4604293046830596,-3.580220332657466,-32.659163545506345,1.986046429087249,2.4608168524922345,-1.0,-0.5338652766806911,2.420173115302425,0.4290958898409649,1.207373106778645,-0.7374999487480712,-0.011895160463684107,0.9558776855468762,1.986046429087249,2.4608168524922345,-1.0,-0.2749973594277408,-0.004435441281094658,0.35642556980174805,-2.2449143463401993,-0.036208295908714556,1.072670320039217
14/04/2022,16:10:33,304.018038,0.26126531523186713,17.90932785719633,2.4633941650390625,3.362213134765625,0.27795660495758057,1.8062430620193481,0.07628340274095535,0.9866092205047607,3.8394150733947754,1.4153691530227661,47.64162914812108,-122.14015886681955,124.463623046875,-1.0017846497846585,-2.7039245969805417,-34.778905957465476,1.893666588690491,2.5325929106110436,-1.0,-0.5696883329626712,2.4928613796166292,0.5390781046411071,1.2370253121967176,-0.807979765643035,-0.01303193170392447,0.9366058349609387,1.893666588690491,2.5325929106110436,-1.0,-0.2975714385689045,-0.004799539331758201,0.34494322448724435,-2.1657834830842577,-0.034931991662656044,1.1941348801538627
14/04/2022,16:10:33,304.220037,0.3070164790842682,18.288133276626468,2.4769058227539062,3.362213134765625,0.2053654044866562,1.8533251285552979,0.05499950423836708,0.9866092205047607,3.8394150733947754,1.4153691530227661,47.64163255284571,-122.1401582047563,124.47706604003906,-0.6634987603632503,-2.0418482427047704,-36.859619157177605,1.800466394054014,2.599677049920266,-1.0,-0.6091989717039901,2.5608114795048067,0.617767792731311,1.2615855149106667,-0.8598272064371308,-0.013868180748989545,0.923094177246095,1.800466394054014,2.599677049920266,-1.0,-0.3133317677300826,-0.005053738189196179,0.33638704168988576,-2.0963335980279214,-0.03381183222626284,1.2813807510414252
14/04/2022,16:10:34,304.426036,0.3395951855927706,18.675214355811477,2.4867172241210938,3.362213134765625,0.1514473259449005,1.88788640499115,0.04028761386871338,0.9866092205047607,3.8394150733947754,1.4153691530227661,47.6416360329868,-122.14015771607626,124.4868392944336,-0.40847659131658653,-1.544716837941306,-39.41402570454398,0.9102366880458737,2.042417482234051,-2.0,-1.4526761894606453,2.004305984209742,-0.32551659186968895,1.2813460379785817,-0.8986390594223462,-0.01449417837778455,0.9132827758789075,0.9102366880458737,2.042417482234051,-2.0,-0.32463187936861165,-0.00523599805433417,0.32992189780748343,-2.0382809981379073,-0.0328754999699745,1.3445615103228277
14/04/2022,16:10:34,304.630038,0.3574907415313646,19.056851630099118,2.5001907348632812,3.362213134765625,0.035971805453300476,1.9128650426864624,0.10929395258426666,0.9866092205047607,3.8394150733947754,1.4153691530227661,47.64163946535591,-122.14015742608046,124.50051879882812,-3.3082291255826175,-4.170859710249442,-44.018561534639204,0.7433380710388283,2.1088974636393,-2.0,-1.5173254085590224,2.0724351494522284,-0.43234392564593294,1.2888846272969685,-0.9226838001333448,-0.01488199677634583,0.89980926513672,0.7433380710388283,2.1088974636393,-2.0,-0.332195870700147,-0.005357997914519062,0.32396030173386997,-1.9284676088977037,-0.03110431627255251,1.2436957726201971
14/04/2022,16:10:34,304.846041,0.3394421038683504,19.459796257317066,2.525146484375,3.362213134765625,-0.1731642633676529,1.9319299459457397,0.11463389545679092,0.9866092205047607,3.8394150733947754,1.4153691530227661,47.64164309287778,-122.14015761522042,124.52549743652344,-3.1631988704914367,-4.976468039892039,-52.03470656043427,0.4419845175223065,2.1919511140238903,-2.0,0.11019369913888505,2.1865996492112543,-1.6814219190984552,1.263232270701289,-0.9111372731400773,-0.014695762470001483,0.8748535156250012,0.4419845175223065,2.1919511140238903,-2.0,-0.33179081838342145,-0.005351464812635917,0.3185780809015449,-0.0,-0.0,0.0
14/04/2022,16:10:34,305.049036,0.28581916459370404,19.871089570224285,2.476776123046875,3.362213134765625,-0.25617915391921997,1.9400275945663452,-0.7372524738311768,0.9866092205047607,3.8394150733947754,1.4153691530227661,47.64164679872131,-122.14015827171308,124.4745864868164,0.06851327440955272,-0.9777044984709209,-61.74055614650655,0.0661169988050363,2.235090276134057,-2.0,-0.6811646547560981,2.2230373462379087,0.8395186401915224,1.2646381504888484,-0.8641603178288957,-0.013938069642399853,0.9232238769531262,0.0661169988050363,2.235090276134057,-2.0,-0.31449046660839197,-0.005072426880779901,0.33598523544387726,-0.43279118695274243,-0.00698050301536864,2.503533404747645
14/04/2022,16:10:34,305.272043,0.22791242541279644,20.27899766806513,2.3806076049804688,3.362213134765625,-0.2394457310438156,1.956728458404541,-0.07934269309043884,0.9866092205047607,3.8394150733947754,1.4153691530227661,47.64165047480989,-122.140158981704,124.38036346435547,0.6807729339003464,0.8744212701775314,-71.79116429601396,-0.3249610503816147,2.212329160801999,-2.0,-1.3450927283411171,2.1958754240607132,0.5281631499804933,1.30386023227541,-0.8128460906909825,-0.013110420817596946,1.0193923950195325,-0.3249610503816147,2.212329160801999,-2.0,-0.2906762005455589,-0.004688325815251112,0.36453777860631154,-0.7294554774139435,-0.011765410926034614,2.1636253713741818
14/04/2022,16:10:35,305.488037,0.17141538835130632,20.701128027401865,2.3723831176757812,3.362213134765625,-0.2729353904724121,1.9626340866088867,-0.0030733849853277206,0.9866092205047607,3.8394150733947754,1.4153691530227661,47.64165427839916,-122.1401596727777,124.37237548828125,-0.1913797997971554,-3.101423028729928,-81.9232658713876,-0.7090823806466522,2.1206607879282524,0.0,-1.535127360145018,2.1073374818073045,2.397433981567934,1.2800692294619072,-0.763170530694756,-0.012309202107978479,1.02761688232422,-0.7090823806466522,2.1206607879282524,0.0,-0.2758509350369511,-0.004449208629627717,0.37143608990094934,-0.5501940444614147,-0.008874097491320575,2.0259978916669845
14/04/2022,16:10:35,305.707043,0.08869272808078676,21.12997166533023,2.441009521484375,3.362213134765625,-0.454140841960907,1.9683204889297485,0.8154761791229248,0.9866092205047607,3.8394150733947754,1.4153691530227661,47.64165814500269,-122.1401607179128,124.44343566894531,0.17272509636756286,-3.442022110736614,-89.52502461494997,-0.9833860603345295,2.0082210675968253,0.0,-1.2425369125630445,2.0040412151415246,0.3615490735850027,1.1799504206237716,-0.6873844187238018,-0.01108684546329286,0.9589904785156262,-0.9833860603345295,2.0082210675968253,0.0,-0.2591508522285152,-0.004179852455300794,0.3615490735850027,0.0,0.0,-0.0
14/04/2022,16:10:35,305.929038,-0.028909096610732377,21.56503585074097,2.5848312377929688,3.362213134765625,-0.5525656342506409,1.9681133031845093,0.2914538085460663,0.9866092205047607,3.8394150733947754,1.4153691530227661,47.64166207089459,-122.14016222318094,124.5857162475586,0.3879513534713471,-3.348722401815563,-92.99192721641545,-1.1030274031323866,1.945078545442066,0.0,-1.1030274031323866,1.945078545442066,0.0,0.9986580043863504,-0.5768285189529999,-0.009303685789568306,0.8151687622070325,-1.1030274031323866,1.945078545442066,0.0,-0.0,-0.0,0.0,0.0,0.0,0.0
14/04/2022,16:10:35,306.151039,-0.16694769298192114,21.989049362018704,2.6388320922851562,3.362213134765625,-0.6649536490440369,1.8876385688781738,0.24452820420265198,0.9866092205047607,3.8394150733947754,1.4153691530227661,47.641665846357355,-122.1401639761069,124.63883209228516,-4.046993714632365,-3.080620402949994,-94.40342251950234,-0.15355717234470212,1.9940963353914223,0.0,-0.15355717234470212,1.9940963353914223,0.0,0.8820678758490753,-0.4456629723335903,-0.0071881124569941335,0.761167907714845,-0.15355717234470212,1.9940963353914223,0.0,-0.0,-0.0,0.0,0.0,0.0,0.0
14/04/2022,16:10:35,306.36904,-0.32375017658341676,22.386040144599974,2.6882781982421875,3.362213134765625,-0.6673246622085571,1.6990028619766235,0.21815520524978638,0.9866092205047607,3.8394150733947754,1.4153691530227661,47.64166947942894,-122.14016603160137,124.68893432617188,-5.213420202840556,2.0305969087212303,-95.41907772767972,0.0,0.0,0.0,1.9570532888834906,0.03156537562715144,0.5476435725366529,0.770567506730318,-0.2953026814508568,-0.004762946475015184,0.7117218017578137,0.0,0.0,0.0,-0.0,-0.0,0.0,1.9570532888834906,0.03156537562715144,0.5476435725366529
14/04/2022,16:10:36,306.593038,-0.45629301900044084,22.736218698322773,2.7685699462890625,3.362213134765625,-0.4214271008968353,1.3909592628479004,0.5074958801269531,0.9866092205047607,3.8394150733947754,1.4153691530227661,47.641672634871355,-122.14016773456774,124.77009582519531,-9.464037350423379,7.272070640897263,-96.30102132916198,0.0,0.0,0.0,0.0,0.0,0.0,0.6535163537799118,-0.1684408827719941,-0.002716788431808226,0.6314300537109387,0.0,0.0,0.0,-0.0,-0.0,0.0,0.0,0.0,-0.0
14/04/2022,16:10:36,306.81304,-0.5247606396442279,23.004321043379605,2.8554763793945312,3.362213134765625,-0.20869840681552887,1.096301555633545,0.2916446626186371,0.9866092205047607,3.8394150733947754,1.4153691530227661,47.641675045789185,-122.14016859788157,124.85635375976562,-8.679659966108037,3.0603206379196983,-95.67858100655172,0.0,0.0,0.0,0.0,0.0,0.0,0.5544278595351396,-0.10431417578598778,-0.0016824867062261717,0.54452362060547,0.0,0.0,0.0,-0.0,-0.0,0.0,0.0,0.0,-0.0
14/04/2022,16:10:36,307.042037,-0.561780748073943,23.216071603819728,2.9073486328125,3.362213134765625,-0.11366830766201019,0.819399893283844,0.18153342604637146,0.9866092205047607,3.8394150733947754,1.4153691530227661,47.6416769470692,-122.14016905561621,124.90789031982422,-6.843776595546639,1.020552223977624,-95.41758717917723,0.0,0.0,0.0,0.0,0.0,0.0,0.49770244700587934,-0.0707181388402045,-0.0011406151425852329,0.49265136718750124,0.0,0.0,0.0,-0.0,-0.0,0.0,0.0,0.0,0.0
14/04/2022,16:10:36,307.259035,-0.5834912521531805,23.372820532880723,2.9395599365234375,3.362213134765625,-0.06983723491430283,0.6009870767593384,0.11230287700891495,0.9866092205047607,3.8394150733947754,1.4153691530227661,47.64167835356277,-122.14016931972803,124.93990325927734,-5.119431433846459,0.34428466293812054,-95.35241141399909,0.0,0.0,-2.0,0.0,0.0,-2.0,0.4633165230194376,-0.051540832187718766,-0.0008313037449667604,0.46044006347656374,0.0,0.0,-2.0,-0.0,-0.0,0.0,0.0,0.0,0.0
14/04/2022,16:10:37,307.480038,-0.598005247535184,23.489771952852607,2.8877944946289062,3.362213134765625,-0.05457141250371933,0.4959103763103485,-0.7578937411308289,0.9866092205047607,3.8394150733947754,1.4153691530227661,47.64167940435207,-122.14016949505928,124.88554382324219,-4.520198039936163,0.1590712776242778,-95.33909478345635,0.0,0.0,-3.0,0.06679751454963616,0.0010773792669262106,-0.5008809273874544,0.5136821610413403,-0.03891643421368385,-0.000627684422802588,0.512205505371095,0.0,0.0,-3.0,-0.0,-0.0,0.0,0.06679751454963616,0.0010773792669262106,2.4991190726125456
14/04/2022,16:10:37,307.700037,-0.6088054592255503,23.580750689841807,2.7723617553710938,3.362213134765625,-0.03313187509775162,0.31890007853507996,-0.20901623368263245,0.9866092205047607,3.8394150733947754,1.4153691530227661,47.641680219186355,-122.14016962454527,124.771728515625,-2.896288471749412,0.05858855902639877,-95.33321396381648,0.0,0.0,-3.0,0.05209325628598141,0.0008402138110635514,-0.9347777569418017,0.6283353627776357,-0.029586048766495843,-0.0004771943349481944,0.6276382446289075,0.0,0.0,-3.0,-0.0,-0.0,0.0,0.05209325628598141,0.0008402138110635514,2.0652222430581983
14/04/2022,16:10:37,307.92804,-0.6154815824702382,23.639232116751373,2.734405517578125,3.362213134765625,-0.02313157357275486,0.2278992384672165,-0.15410716831684113,0.9866092205047607,3.8394150733947754,1.4153691530227661,47.641680743519274,-122.1401697043841,124.73394012451172,-1.9741198932956703,0.02509936801295694,-95.33205193698622,0.0,0.0,-4.0,0.0,0.0,-4.0,0.6660219276596138,-0.023854665337578407,-0.00038475266673998476,0.6655944824218762,0.0,0.0,-4.0,-0.0,-0.0,0.0,0.0,0.0,0.0
14/04/2022,16:10:37,308.138035,-0.6205047132680193,23.683835125528276,2.6254119873046875,3.362213134765625,-0.018539227545261383,0.18394148349761963,-1.0166733264923096,0.9866092205047607,3.8394150733947754,1.4153691530227661,47.64168114412952,-122.14016976448328,124.62238311767578,-2.0130691329334938,0.019209418835195894,-95.33192887275125,0.0,0.0,-4.0,0.011402173444006548,0.00018390602328835024,-1.2363070418340358,0.7748348029107602,-0.01955205721209019,-0.00031535576148655764,0.7745880126953137,0.0,0.0,-4.0,-0.0,-0.0,0.0,0.011402173444006548,0.00018390602328835024,2.763692958165964
14/04/2022,16:10:37,308.348037,-0.6245026260148734,23.719500673934817,2.3237838745117188,3.362213134765625,-0.013889188878238201,0.13840728998184204,-1.5063109397888184,0.9866092205047607,3.8394150733947754,1.4153691530227661,47.641681464151326,-122.14016981225305,124.31925964355469,-1.2519023580002318,0.010045324640184086,-95.33178592790682,0.0,0.0,-4.0,0.006075363493846509,9.798973376450556e-05,3.478235608357094,1.076337030188293,-0.016130285405145717,-0.00026016589363564435,1.0762161254882825,0.0,0.0,-4.0,-0.006312180972845669,-0.00010180937053143662,0.4211500775931531,0.012387544466692178,0.00019979910429594218,7.057085530763941
14/04/2022,16:10:38,308.569037,-0.6272052122512832,23.743691912852228,2.10833740234375,3.362213134765625,-0.008843650110065937,0.08843249827623367,-0.26923802495002747,0.9866092205047607,3.8394150733947754,1.4153691530227661,47.64168168070834,-122.14016984445688,124.10749816894531,-0.5873825641686183,0.004131382940902489,-95.33174607341,0.0,0.0,-4.0,-0.0035872623365565907,-5.7859069950340363e-05,-1.0380065751160261,1.2917365313017946,-0.013818481847309494,-0.00022287873947490766,1.2916625976562512,0.0,0.0,-4.0,-0.004968724026349406,-8.014071010319143e-05,0.46444428945435073,0.0013814616897928152,2.228164015285107e-05,2.4975491354296233
14/04/2022,16:10:38,308.787548,-0.629134422284551,23.76099620666355,2.0277328491210938,3.362213134765625,-0.007189781405031681,0.0719333216547966,-0.7106460332870483,0.9866092205047607,3.8394150733947754,1.4153691530227661,47.64168183421197,-122.14016986722952,124.0277328491211,-0.5420130286387356,0.0036282008311403,-95.33175988218026,0.0,0.0,-4.0,-0.004325415620438366,-6.976476807789479e-05,-0.7748815362833739,1.3723211182728041,-0.012168802484090024,-0.0001962710078124985,1.3722671508789075,0.0,0.0,-4.0,-0.004214374240368881,-6.797377807205715e-05,0.47525196823021093,-0.00011104138006948498,-1.790990005837644e-06,2.7498664954864154
14/04/2022,16:10:38,309.013063,-0.6305722625693306,23.773898143321276,1.9681015014648438,3.362213134765625,-0.00463778804987669,0.04641979932785034,0.21086277067661285,0.9866092205047607,3.8394150733947754,1.4153691530227661,47.64168195168141,-122.14016988465139,123.96873474121094,-0.4075708649769735,0.0026831461957187697,-95.33173933227536,0.0,0.0,-4.0,-0.009989789874516276,-0.00016112564314019778,-1.50324275513666,1.4319402959708594,-0.010939377781381543,-0.00017644157712481956,1.4318984985351575,0.0,0.0,-4.0,-0.0036797351916933643,-5.935056760989581e-05,0.4816551179867271,-0.006310054682822912,-0.00010177507553030198,2.015102126876613
14/04/2022,16:10:38,309.231068,-0.6315618723165244,23.782778076827526,1.9436569213867188,3.362213134765625,-0.0038295467384159565,0.038333144038915634,-0.6251896023750305,0.9866092205047607,3.8394150733947754,1.4153691530227661,47.64168203144911,-122.14016989648167,123.94180297851562,-0.3270652300502033,0.002138994470994924,-95.3317266743535,0.0,0.0,-4.0,-0.006985159690745542,-0.00011266386598414827,-0.8395891202462793,1.4563780628920329,-0.010093212894300763,-0.00016279375636329974,1.4563430786132825,0.0,0.0,-4.0,-0.003353837373252541,-5.409415118269215e-05,0.4839229982049504,-0.003631322317493001,-5.856971480145612e-05,2.6764878815487703
14/04/2022,16:10:39,309.44407,-0.6323227931279689,23.78961013443768,1.8715667724609375,3.362213134765625,-0.002479954855516553,0.02482611872255802,0.09183848649263382,0.9866092205047607,3.8394150733947754,1.4153691530227661,47.641682092626496,-122.14016990554879,123.87184143066406,-0.22605818585857654,0.0014726746208536565,-95.33172941306098,0.0,0.0,-4.0,-0.0122959288922078,-0.00019832143375074748,-1.1511680133381095,1.5284624031979333,-0.009442655800058208,-0.0001523009000017339,1.5284332275390637,0.0,0.0,-4.0,-0.003024167346165696,-4.87768926803465e-05,0.48950612575434405,-0.009271761546042104,-0.00014954454107040098,2.3593258609075463
14/04/2022,16:10:39,309.758067,-0.6330775530077517,23.796385787427425,1.7279052734375,3.362213134765625,-0.001814811141230166,0.018167592585086823,-0.9778153300285339,0.9866092205047607,3.8394150733947754,1.4153691530227661,47.64168215349121,-122.14016991456938,123.7249755859375,-0.1522634326018326,0.000990690381581346,-95.33172558267646,0.0,0.0,-4.0,-0.009998279035567598,-0.00016126256509699563,1.1528014725546574,1.6721178750532657,-0.008797348519818615,-0.00014189271806586135,1.6720947265625012,0.0,0.0,-4.0,-0.0026120551025153402,-4.212992100957999e-05,0.49646817476507404,-0.007386223933052258,-0.00011913264408741563,4.656333297789583
14/04/2022,16:10:39,309.995065,-0.6334544529672712,23.79977144766599,1.6214141845703125,3.362213134765625,-0.0010775213595479727,0.01078690867871046,0.3262802064418793,0.9866092205047607,3.8394150733947754,1.4153691530227661,47.64168218378028,-122.14016991905733,123.62236022949219,-0.09125978116096299,0.0005925032125161698,-95.33171514249115,0.0,0.0,0.0,-0.015205991069797229,-0.0002452579204882929,2.6651090918575444,1.7786060130136023,-0.008475139804707599,-0.0001366958033059973,1.7785858154296887,0.0,0.0,0.0,-0.0023773522132631212,-3.8344390537697434e-05,0.4989091651846852,-0.012828638856534107,-0.00020691352995059545,2.166199926672859
14/04/2022,16:10:39,310.222063,-0.633660662570037,23.80161974579096,1.8523712158203125,3.362213134765625,-0.0006198015762493014,0.00620430801063776,1.7786751985549927,0.9866092205047607,3.8394150733947754,1.7786751985549927,47.641682200325256,-122.14016992151141,123.85768127441406,-0.05637806815973661,0.0003656176926917384,-95.33171994990691,-0.18584364789045216,1.9913468152330396,0.0,-0.19750564570345847,1.9911587184941166,-2.009247149402804,1.5476510399340688,-0.008298787339354297,-0.00013385140869814904,1.5476287841796887,-0.18584364789045216,1.9913468152330396,0.0,-0.0026314591863932685,-4.2442890102764056e-05,0.49073699743379107,-0.009030538626613037,-0.00014565384882024191,-2.4999841468365953
14/04/2022,16:10:40,310.435067,-0.6338264911901206,23.80545663461089,2.1964035034179688,3.362213134765625,-0.0005429265438579023,0.04993290454149246,1.061212420463562,0.9866092205047607,3.8394150733947754,1.7786751985549927,47.64168223467892,-122.14016992312744,124.19640350341797,5.363626096379175,0.5062092886297334,-95.31035695488191,-0.3702023043336424,3.9828319389432014,0.0,-0.37326267351269793,3.9827825781499895,0.4494823160611447,1.2036244015333397,-0.008194871056190323,-0.00013217533961906724,1.2035964965820325,-0.3702023043336424,3.9828319389432014,0.0,-0.0030603691790555285,-4.936079321172861e-05,0.4494823160611447,-0.0,-0.0,-0.0
14/04/2022,16:10:40,310.656066,-0.6342730399919674,23.835602579638362,2.3246536254882812,3.362213134765625,-0.0004054072196595371,0.3287012279033661,0.32637420296669006,0.9866092205047607,3.8394150733947754,1.7786751985549927,47.641682514693116,-122.14016992463775,124.32563018798828,14.885478453042046,1.392166217140898,-95.1622990498669,-0.3599090520106699,3.9837752790890177,0.0,-0.3631324229439973,3.983723289235253,0.42093930815890135,1.0753779105098702,-0.008234536855254992,-0.0001328151105717268,1.07534637451172,-0.3599090520106699,3.9837752790890177,0.0,-0.0032233709333273374,-5.19898537645568e-05,0.42093930815890135,-0.0,-0.0,0.0
14/04/2022,16:10:40,310.87407,-0.6358536912593991,23.977117020636797,2.4007720947265625,3.362213134765625,0.00036015454679727554,0.9362518787384033,0.3070038855075836,0.9866092205047607,3.8394150733947754,1.7786751985549927,47.64168380440773,-122.1401699247569,124.40169525146484,15.072368481679352,1.4150883259987914,-95.16604057261209,-0.36016919930190994,3.983751767853291,0.0,-0.36016919930190994,3.983751767853291,0.0,0.999267873502956,-0.008936194038582812,-0.00014413216191755396,0.9992279052734387,-0.36016919930190994,3.983751767853291,0.0,-0.0,-0.0,0.0,-0.0,-0.0,0.0
14/04/2022,16:10:40,311.095065,-0.6385660357773304,24.23605276271701,2.4519805908203125,3.362213134765625,0.0010787372011691332,1.4281800985336304,0.15508069097995758,0.9866092205047607,3.8394150733947754,1.7786751985549927,47.64168614753021,-122.14016992260787,124.45244598388672,12.381861208891552,1.16246960953504,-95.23220319980047,-0.3647692181501878,3.9833332044269283,0.0,-0.3647692181501878,3.9833332044269283,0.0,0.9480764659209727,-0.010399851693211004,-0.00016773954344273534,0.9480194091796887,-0.3647692181501878,3.9833332044269283,0.0,-0.0,-0.0,0.0,-0.0,-0.0,0.0
14/04/2022,16:10:40,311.32307,-0.6422711717896163,24.59713461343199,2.4725723266601562,3.362213134765625,0.001593141001649201,1.8242783546447754,0.037184424698352814,0.9866092205047607,3.8394150733947754,1.7786751985549927,47.641689407154,-122.14016991860274,124.4726791381836,9.502350050721923,0.8874430288722118,-95.2881497298543,-0.3686585739425046,3.9829751261913096,0.0,-0.3686585739425046,3.9829751261913096,0.0,0.9275121735075106,-0.012518065454745875,-0.0002019042815284422,0.927427673339845,-0.3686585739425046,3.9829751261913096,0.0,-0.0,-0.0,0.0,-0.0,-0.0,0.0
14/04/2022,16:10:41,311.543064,-0.6467408349271864,25.03577754460275,2.4731597900390625,3.362213134765625,0.0019516042666509748,2.127659320831299,-0.025723453611135483,0.9866092205047607,3.8394150733947754,1.7786751985549927,47.64169330484121,-122.1401699134091,124.47315979003906,7.115679064034914,0.6589393833883341,-95.3234305870456,-0.37111108902166595,3.9827473632663613,0.0,-0.37111108902166595,3.9827473632663613,0.0,0.92696360643215,-0.015122610742591913,-0.00024391307649551663,0.9268402099609387,-0.37111108902166595,3.9827473632663613,0.0,-0.0,-0.0,0.0,-0.0,-0.0,0.0
14/04/2022,16:10:41,311.771064,-0.651788784423843,25.533004282042384,2.4641189575195312,3.362213134765625,0.002247271593660116,2.3537533283233643,-0.05200503021478653,0.9866092205047607,3.8394150733947754,1.7786751985549927,47.641697842155175,-122.140169907111,124.46395874023438,5.285016068803035,0.48386829993961294,-95.34369802998218,-0.37251989737752533,3.982615839628251,0.0,-0.5671328085153883,3.97947692170667,2.0546889441625082,0.9360559769027015,-0.018093674424284778,-0.0002918334584585125,0.93588104248047,-0.37251989737752533,3.982615839628251,0.0,-0.0,-0.0,0.0,-0.19461291113786292,-0.0031389179215807407,2.0546889441625082
14/04/2022,16:10:41,311.987069,-0.6573499657679349,26.08067761734128,2.5572433471679688,3.362213134765625,0.002323531312867999,2.5906505584716797,1.1334832906723022,0.9866092205047607,3.8394150733947754,1.7786751985549927,47.64170277636654,-122.14016990028485,124.56061553955078,3.2815907795893176,0.29478865868846443,-95.35883084523655,-0.3735717627171789,3.9825173117138335,0.0,-0.5375723739243143,3.9825173117138335,-2.4005988493643864,0.843027497421695,-0.02136508292931527,-0.0003445981117664587,0.8427566528320325,-0.3735717627171789,3.9825173117138335,0.0,-0.0,-0.0,0.0,-0.16400061120713547,0.0,-2.4005988493643864
14/04/2022,16:10:41,312.213064,-0.6631828900426626,26.65678726322949,2.7674407958984375,3.362213134765625,0.002890445990487933,2.663142681121826,0.4376261532306671,0.9866092205047607,3.8394150733947754,1.7786751985549927,47.64170796203572,-122.14016989285838,124.7687759399414,3.2891136758924584,0.4462202530297768,-98.05552173147777,-0.5605305675394411,3.9605309597141027,0.0,-0.5605305675394411,3.9605309597141027,0.0,0.6330462113490916,-0.024823350064039795,-0.00040037661393910184,0.6325592041015637,-0.5605305675394411,3.9605309597141027,0.0,-0.0,-0.0,0.0,-0.0,0.0,-0.0
14/04/2022,16:10:42,312.441585,-0.669246485340409,27.277033222839236,2.753448486328125,3.362213134765625,0.004320248030126095,2.722073793411255,-0.3716670274734497,0.9866092205047607,3.8394150733947754,1.7786751985549927,47.64171347107477,-122.14016988212411,124.75344848632812,2.2103897659465974,0.6197674878061066,-106.0356077278312,-1.1049387994568072,3.8443608375716956,0.0,-1.2582150382126671,3.8443608375716956,2.383117510261199,0.6471911369833273,-0.028762697052665875,-0.0004639144685967267,0.6465515136718762,-1.1049387994568072,3.8443608375716956,0.0,-0.0,-0.0,0.0,-0.15327623875586002,0.0,2.383117510261199
14/04/2022,16:10:42,312.661582,-0.683288389001973,27.890199614688754,2.7648162841796875,3.362213134765625,-0.12431355565786362,2.8119194507598877,0.7169785499572754,0.9866092205047607,3.8394150733947754,1.7786751985549927,47.641719064714785,-122.14016998343371,124.76693725585938,3.0058332320720482,-3.0864553972009996,-115.91120934993293,-1.7479110781925147,3.597889223243523,0.0,-1.7479110781925147,3.597889223243523,0.0,0.6356604784978227,-0.024611653780785114,-0.00039696215775109067,0.6351837158203137,-1.7479110781925147,3.597889223243523,0.0,-0.0,-0.0,0.0,0.0,0.0,-0.0
14/04/2022,16:10:42,312.890583,-0.7344785365276039,28.533362668938935,2.8863067626953125,3.362213134765625,-0.252416729927063,2.83786678314209,0.0913936048746109,0.9866092205047607,3.8394150733947754,1.7786751985549927,47.64172478044895,-122.14017056503039,124.88630676269531,4.000828233441349,-3.3819050144198184,-126.77253553757063,-2.3945588115772645,3.2040736723579997,0.0,-2.3945588115772645,3.2040736723579997,0.0,0.5139485042311313,0.016194280608035183,0.0002611980743232323,0.5136932373046887,-2.3945588115772645,3.2040736723579997,0.0,0.0,0.0,0.0,0.0,0.0,0.0
14/04/2022,16:10:42,313.123583,-0.831111196312122,29.19947406463325,2.91387939453125,3.362213134765625,-0.5529809594154358,2.8726706504821777,0.18007446825504303,0.9866092205047607,3.8394150733947754,1.7786751985549927,47.641730860329226,-122.14017177510952,124.91442108154297,7.333218736718616,-5.292919694279503,-138.49735571626547,-2.995700556441525,2.650618451632739,0.0,-0.7702545268624479,2.650618451632739,0.23616333901197104,0.4967216263777189,0.10206087038141387,0.0016461430706584679,0.48612060546875124,-2.995700556441525,2.650618451632739,0.0,0.0,0.0,0.0,2.2254460295790772,0.0,0.23616333901197104
14/04/2022,16:10:42,313.359583,-0.9869255045196041,29.848554798401892,2.9210662841796875,3.362213134765625,-0.6876585483551025,2.8059725761413574,-0.012364877387881279,0.9866092205047607,3.8394150733947754,1.7786751985549927,47.64173671373848,-122.14017375900607,124.92102813720703,-2.5247337693120797,-2.819361816475935,-149.67543848657144,-3.4527167629769804,2.019590788911893,0.0,-1.08079275975718,2.019590788911893,0.7409874137679717,0.5390589161775089,0.24736833338685082,0.0039898118288128614,0.47893371582031374,-3.4527167629769804,2.019590788911893,0.0,0.0,0.0,0.0,2.3719240032198003,0.0,0.7409874137679717
14/04/2022,16:10:43,313.593582,-1.1540129710920155,30.489795399829745,2.9233856201171875,3.362213134765625,-0.6803767085075378,2.6204757690429688,0.021708447486162186,0.9866092205047607,3.8394150733947754,1.7786751985549927,47.641742494479985,-122.14017588833242,124.92344665527344,-0.5360357006452717,-4.538904455179681,-158.328791252041,-3.717273011030292,1.4771192780089857,0.0,-1.2923192937343626,1.4771192780089857,0.5952537732111384,0.6248826146150842,0.4040724437160633,0.006517297479291528,0.47661437988281374,-3.717273011030292,1.4771192780089857,0.0,0.0,0.0,0.0,2.4249537172959292,0.0,0.5952537732111384
14/04/2022,16:10:43,313.836586,-1.3339188823010772,31.09233278594911,2.9486465454101562,3.362213134765625,-0.7481724619865417,2.3226287364959717,0.17390406131744385,0.9866092205047607,3.8394150733947754,1.7786751985549927,47.641747925301395,-122.14017819702954,124.94917297363281,-0.9594703094900003,-8.395644449566957,-161.75586211638313,0.0,0.0,0.0,2.4971926761548096,0.0,0.12429800673744948,0.7380252042294535,0.5839188823010772,0.0,0.451353454589845,0.0,0.0,0.0,0.0,0.0,0.0,2.4971926761548096,0.0,0.12429800673744948
14/04/2022,16:10:43,314.195589,-1.5321952074300498,31.78060996066779,3.1566009521484375,3.362213134765625,-0.1123148500919342,1.4802014827728271,0.889059841632843,0.9866092205047607,3.8394150733947754,1.7786751985549927,47.64175411463891,-122.14018070964178,125.15926361083984,-16.724318204761744,-7.3629063149991,-163.72591211616913,0.0,0.0,0.0,1.3701008332113633,0.0,-2.088468417324735,0.8191901116478314,0.7821952074300498,0.0,0.24339904785156374,0.0,0.0,0.0,0.0,0.0,0.0,1.3701008332113633,0.0,-2.088468417324735
