date,fly_time,fly_time_s,x,y,z,z_max,vx,vy,vz,vx_max,vy_max,vz_max,latitude,longitude,altitude,pitch,roll,yaw,cx,cy,cz,scx,scy,scz,d,dx,dy,dz,gc_pow_x,gc_pow_y,gc_pow_z,gpc_pow_x,gpc_pow_y,gpc_pow_z,gfc_pow_x,gfc_pow_y,gfc_pow_z
21/04/2022,17:38:21,8.979198,0.03251594060566276,-0.03528503328561783,1.69610595703125,1.69610595703125,0.00019402476027607918,-0.0002202021423727274,-0.033327266573905945,0.00019402476027607918,0,0,47.641467679299595,-122.14016457234443,123.69600677490234,-0.0013941491206182469,-0.0014459367950072344,2.59247901286545,0,0,0,0,0,0,0,0,0,0,0,0,0,0,0,0,0,0,0
21/04/2022,17:38:21,9.125199,0.032543007051572204,-0.035314979031682014,1.691375732421875,1.69610595703125,0.00016101567598525435,-0.00018270607688464224,-0.029355322942137718,0.00019402476027607918,0,0,47.64146767903344,-122.14016457199635,123.69137573242188,-0.001277463612435426,-0.0013245740229225692,2.5924790099122577,0,0,0,0,0,0,0,0,0,0,0,0,0,0,0,0,0,0,0
21/04/2022,17:38:21,9.277197,0.03256529965437949,-0.03533965069800615,1.6872634887695312,1.69610595703125,0.00013173534534871578,-0.00014947066665627062,-0.025372197851538658,0.00019402476027607918,0,0,47.641467678805206,-122.14016457169795,123.68718719482422,-0.0011002910492823625,-0.0011404824448863007,2.5924790059239804,0,0,0,0,0,0,0,0,0,0,0,0,0,0,0,0,0,0,0
21/04/2022,17:38:21,9.428202,0.03258346836082637,-0.035359750501811504,1.6837158203125,1.69610595703125,0.00010694345110096037,-0.00012132193660363555,-0.02196761593222618,0.00019402476027607918,0,0,47.64146767862332,-122.14016457146005,123.68364715576172,-0.000918126689899664,-0.0009516258883819469,2.5924790024472784,0,0,0,0,0,0,0,0,0,0,0,0,0,0,0,0,0,0,0
21/04/2022,17:38:21,9.589205,0.03259923169389367,-0.035377176478505135,1.6804046630859375,1.69610595703125,8.495934889651835e-05,-9.637243783799931e-05,-0.018869642168283463,0.00019402476027607918,0,0,47.641467678468246,-122.14016457125706,123.68040466308594,-0.0007415357491806657,-0.0007681644064448104,2.5924789996734647,0,0,0,0,0,0,0,0,0,0,0,0,0,0,0,0,0,0,0
21/04/2022,17:38:22,9.735199,0.03261069708969444,-0.035389856435358524,1.6778030395507812,1.69610595703125,6.87728970660828e-05,-7.801556057529524e-05,-0.016499022021889687,0.00019402476027607918,0,0,47.64146767835092,-122.14016457110353,123.67774963378906,-0.0006055787972272747,-0.0006271633559746643,2.592478997941957,0,0,0,0,0,0,0,0,0,0,0,0,0,0,0,0,0,0,0
21/04/2022,17:38:22,9.8872,0.0326201404677704,-0.03540029935538769,1.67547607421875,1.69610595703125,5.5364602303598076e-05,-6.279273657128215e-05,-0.014445386826992035,0.00019402476027607918,0,0,47.64146767825642,-122.14016457097992,123.67543029785156,-0.0004898493986364014,-0.0005076276155215029,2.59247899674579,0,0,0,0,0,0,0,0,0,0,0,0,0,0,0,0,0,0,0
21/04/2022,17:38:22,10.040205,0.03262787696439773,-0.03540885169059038,1.67340087890625,1.69610595703125,4.434547372511588e-05,-5.0277401896892115e-05,-0.012672670185565948,0.00019402476027607918,0,0,47.64146767817905,-122.14016457087862,123.6733627319336,-0.00039450485511837775,-0.0004063365080647028,2.592478995939797,0,0,0,0,0,0,0,0,0,0,0,0,0,0,0,0,0,0,0
21/04/2022,17:38:22,10.195198,0.03263407514896244,-0.03541570622473955,1.6715774536132812,1.69610595703125,3.551574991433881e-05,-4.0253635233966634e-05,-0.011174973100423813,0.00019402476027607918,0,0,47.64146767811706,-122.14016457079748,123.67153930664062,-0.000314725180357741,-0.00032728016532550806,2.592478995417161,0,0,0,0,0,0,0,0,0,0,0,0,0,0,0,0,0,0,0
21/04/2022,17:38:22,10.349205,0.03263903851620853,-0.035421185195446014,1.6699600219726562,1.69610595703125,2.8423961339285597e-05,-3.221208316972479e-05,-0.009909376502037048,0.00019402476027607918,0,0,47.64146767806747,-122.14016457073252,123.66992950439453,-0.00025099956972945747,-0.0002634323135896388,2.592478995080747,0,0,0,0,0,0,0,0,0,0,0,0,0,0,0,0,0,0,0
21/04/2022,17:38:22,10.499201,0.032643013168126345,-0.0354255735874176,1.6685256958007812,1.69610595703125,2.2754973542760126e-05,-2.5780682335607708e-05,-0.008840423077344894,0.00019402476027607918,0,0,47.64146767802846,-122.14016457068138,123.66852569580078,-0.0002010894247981431,-0.00020850673819780907,2.592478994860055,0,0,0,0,0,0,0,0,0,0,0,0,0,0,0,0,0,0,0
21/04/2022,17:38:22,10.654207,0.03264618862885982,-0.03542908560484648,1.6672439575195312,1.69610595703125,1.818567398004234e-05,-2.062119347101543e-05,-0.007937366142868996,0.00019402476027607918,0,0,47.64146767799656,-122.14016457063963,123.66724395751953,-0.00016503157151478382,-0.00016878409315197805,2.5924789947316746,0,0,0,0,0,0,0,0,0,0,0,0,0,0,0,0,0,0,0
21/04/2022,17:38:23,10.806197,0.03264872159343213,-0.03543188236653805,1.6660842895507812,1.69610595703125,1.4513274436467327e-05,-1.645859083510004e-05,-0.007174238562583923,0.00019402476027607918,0,0,47.641467677971136,-122.14016457060632,123.66608428955078,-0.0001317198668016897,-0.00013524848029829463,2.5924789946400972,0,0,0,0,0,0,0,0,0,0,0,0,0,0,0,0,0,0,0
21/04/2022,17:38:23,10.960201,0.032650753390043974,-0.03543412312865257,1.6650390625,1.69610595703125,1.1598672244872432e-05,-1.3146155652066227e-05,-0.006529671140015125,0.00019402476027607918,0,0,47.64146767795042,-122.14016457057919,123.6650161743164,-0.00010248972371964477,-0.00010616825911449038,2.5924789945768527,0,0,0,0,0,0,0,0,0,0,0,0,0,0,0,0,0,0,0
21/04/2022,17:38:23,11.1152,0.03265237505547702,-0.035435919649899006,1.6640777587890625,1.69610595703125,9.226381735061295e-06,-1.0499157724552788e-05,-0.005985149182379246,0.00019402476027607918,0,0,47.641467677934195,-122.14016457055791,123.6640625,-8.75691139574106e-05,-9.271140363895694e-05,2.5924789945516578,0,0,0,0,0,0,0,0,0,0,0,0,0,0,0,0,0,0,0
21/04/2022,17:38:23,11.274199,0.03265371429733932,-0.03543741349130869,1.66314697265625,1.69610595703125,7.244079370138934e-06,-8.226436875702348e-06,-0.005500363651663065,0.00019402476027607918,0,0,47.64146767792088,-122.14016457054066,123.66314697265625,-6.71313817174412e-05,-6.511474778270861e-05,2.5924789945174713,0,0,0,0,0,0,0,0,0,0,0,0,0,0,0,0,0,0,0
21/04/2022,17:38:23,11.431196,0.032654747483320534,-0.0354385357350111,1.662322998046875,1.69610595703125,5.550102287088521e-06,-6.387112989614252e-06,-0.005108651239424944,0.00019402476027607918,0,0,47.64146767791068,-122.14016457052708,123.66232299804688,-6.223307144885352e-05,-6.564400612162774e-05,2.5924789945148636,0,0,0,0,0,0,0,0,0,0,0,0,0,0,0,0,0,0,0
21/04/2022,17:38:23,11.586203,0.032655502087436616,-0.03543936740607023,1.6615753173828125,1.69610595703125,4.334926870797062e-06,-4.963153060089098e-06,-0.004790210630744696,0.00019402476027607918,0,0,47.641467677903,-122.140164570517,123.66156005859375,-3.8739818346955646e-05,-3.995947358219267e-05,2.592478994491719,0,0,0,0,0,0,0,0,0,0,0,0,0,0,0,0,0,0,0
21/04/2022,17:38:24,11.736202,0.032656092662364244,-0.035440053790807724,1.6608505249023438,1.69610595703125,3.3243927646253724e-06,-3.873486548400251e-06,-0.004510585684329271,0.00019402476027607918,0,0,47.64146767789689,-122.1401645705094,123.66085052490234,-3.9756871062157235e-05,-3.9022724600606466e-05,2.59247899449175,0,0,0,0,0,0,0,0,0,0,0,0,0,0,0,0,0,0,0
21/04/2022,17:38:24,11.8922,0.03265650919638574,-0.03544055297970772,1.6602020263671875,1.69610595703125,2.3761926968290936e-06,-2.8437025321181864e-06,-0.004287753254175186,0.00019402476027607918,0,0,47.64146767789228,-122.14016457050383,123.66019439697266,-3.9204903277588746e-05,-3.93413814753344e-05,2.5924789944916675,0,0,0,0,0,0,0,0,0,0,0,0,0,0,0,0,0,0,0
21/04/2022,17:38:24,12.043201,0.032656807568855584,-0.035440919920802116,1.6595611572265625,1.69610595703125,1.4878843330734526e-06,-1.7934748939296696e-06,-0.004091096110641956,0.00019402476027607918,0,0,47.641467677889025,-122.1401645705,123.65956115722656,-2.5246957425317818e-05,-3.115413398081872e-05,2.5924789944847806,0,0,0,0,0,0,0,0,0,0,0,0,0,0,0,0,0,0,0
21/04/2022,17:38:24,12.1982,0.032657002680934966,-0.03544111084192991,1.658935546875,1.69610595703125,1.1028525932488265e-06,-1.2609957593667787e-06,-0.003921967931091785,0.00019402476027607918,0,0,47.6414676778873,-122.14016457049743,123.658935546875,-1.1616120712435379e-05,-1.1665806678288388e-05,2.5924789944788347,0,0,0,0,0,0,0,0,0,0,0,0,0,0,0,0,0,0,0
21/04/2022,17:38:24,12.352201,0.03265719208866358,-0.03544129431247711,1.6583633422851562,1.69610595703125,8.13272379218688e-07,-9.559200861986028e-07,-0.0037846174091100693,0.00019402476027607918,0,0,47.641467677885586,-122.14016457049489,123.6583480834961,-1.151240039495219e-05,-1.132386697015562e-05,2.5924789944787885,0,0,0,0,0,0,0,0,0,0,0,0,0,0,0,0,0,0,0
21/04/2022,17:38:24,12.500204,0.03265732794534415,-0.035441478714346886,1.6577987670898438,1.69610595703125,5.425230824585014e-07,-6.47418062271754e-07,-0.003668147837743163,0.00019402476027607918,0,0,47.64146767788391,-122.14016457049317,123.65779113769531,-1.0606092211445888e-05,-1.1744544878551929e-05,2.592478994478735,0,0,0,0,0,0,0,0,0,0,0,0,0,0,0,0,0,0,0
21/04/2022,17:38:24,12.6552,0.032657328178174794,-0.03544149547815323,1.6572265625,1.69610595703125,2.8144643238192657e-07,-3.097782439454022e-07,-0.003563926089555025,0.00019402476027607918,0,0,47.64146767788379,-122.14016457049317,123.6572265625,-9.645405536929208e-06,-1.2190463461452017e-05,2.5924789944786726,0,0,0,0,0,0,0,0,0,0,0,0,0,0,0,0,0,0,0
21/04/2022,17:38:25,12.808198,0.032657328178174794,-0.03544149547815323,1.6567001342773438,1.69610595703125,6.380152228757652e-08,1.210997790934698e-08,-0.0034824267495423555,0.00019402476027607918,1.210997790934698e-08,0,47.64146767788379,-122.14016457049317,123.65670013427734,-8.757223517093032e-06,-1.26027278116804e-05,2.592478994478608,0,0,0,0,0,0,0,0,0,0,0,0,0,0,0,0,0,0,0
21/04/2022,17:38:25,12.963201,0.032657328178174794,-0.03544149547815323,1.6561737060546875,1.69610595703125,-1.4272261239511863e-07,3.531760341957124e-07,-0.0034094105940312147,0.00019402476027607918,3.531760341957124e-07,0,47.64146767788379,-122.14016457049317,123.65617370605469,-7.81466182457868e-06,-1.1736696158621507e-05,2.5924789944784385,0,0,0,0,0,0,0,0,0,0,0,0,0,0,0,0,0,0,0
21/04/2022,17:38:25,13.123197,0.03265732794534415,-0.03544148430228233,1.6556549072265625,1.69610595703125,-3.2279714901051193e-07,6.40551547803625e-07,-0.0033490334171801805,0.00019402476027607918,6.40551547803625e-07,0,47.64146767788391,-122.14016457049317,123.6556396484375,-6.750750907757222e-06,-9.182168073319764e-06,2.5924789944781654,0,0,0,0,0,0,0,0,0,0,0,0,0,0,0,0,0,0,0
21/04/2022,17:38:25,13.267198,0.03265732596628368,-0.03544129803776741,1.6551513671875,1.69610595703125,-4.5978455887052405e-07,8.263048130174866e-07,-0.0032989203464239836,0.00019402476027607918,8.263048130174866e-07,0,47.64146767788557,-122.14016457049317,123.6551513671875,-4.4724824530974085e-06,-4.434565020535663e-06,2.5924789944777795,0,0,0,0,0,0,0,0,0,0,0,0,0,0,0,0,0,0,0
21/04/2022,17:38:34,22.194197,0.032657318050041795,-0.03544058836996555,2.5257797241210938,2.5257797241210938,6.189512191667745e-08,1.1841537883583442e-07,0.02214379794895649,0.00019402476027607918,8.263048130174866e-07,0.02214379794895649,47.64146767789195,-122.14016457049317,124.52584838867188,2.6888218765960134e-07,9.985376501159847e-07,2.592478994477601,0.0,0.0,0.0,0.0,0.0,0.0,0.9211006139021338,-0.29007475009243766,-0.004678625001491021,0.8742202758789075,0.0,0.0,0.0,-0.0,-0.0,0.0,-0.0,-0.0,0.0
21/04/2022,17:38:34,22.383202,0.032657318050041795,-0.03544058836996555,2.5295181274414062,2.5295181274414062,6.663873364232131e-08,8.474452073414795e-08,0.017411738634109497,0.00019402476027607918,8.263048130174866e-07,0.02214379794895649,47.64146767789195,-122.14016457049317,124.52957153320312,1.1434557699899584e-07,5.869665510946853e-07,2.592478994477599,0.0,0.0,0.0,0.0,0.0,0.0,0.9175532358540363,-0.29007475009243766,-0.004678625001491021,0.870481872558595,0.0,0.0,0.0,-0.0,-0.0,0.0,-0.0,-0.0,0.0
21/04/2022,17:38:34,22.572203,0.032657318050041795,-0.03544058836996555,2.5324478149414062,2.5324478149414062,6.753965919870097e-08,7.643311050742341e-08,0.01356939971446991,0.00019402476027607918,8.263048130174866e-07,0.02214379794895649,47.64146767789195,-122.14016457049317,124.53248596191406,-4.01911794735009e-08,-2.3384694730002487e-08,2.5924789944775988,0.0,0.0,0.0,0.0,0.0,0.0,0.9147743131357796,-0.29007475009243766,-0.004678625001491021,0.867552185058595,0.0,0.0,0.0,-0.0,-0.0,0.0,-0.0,-0.0,0.0
21/04/2022,17:38:35,22.725197,0.032657318050041795,-0.03544058836996555,2.5343246459960938,2.5343246459960938,6.519186257492038e-08,8.254625072368071e-08,0.01099498849362135,0.00019402476027607918,8.263048130174866e-07,0.02214379794895649,47.64146767789195,-122.14016457049317,124.5343246459961,-1.6529226494964585e-07,-4.524925031913126e-07,2.5924789944775997,0.0,0.0,0.0,0.0,0.0,0.0,0.9129945611573408,-0.29007475009243766,-0.004678625001491021,0.8656753540039075,0.0,0.0,0.0,-0.0,-0.0,0.0,-0.0,-0.0,0.0
21/04/2022,17:38:35,22.878198,0.032657318050041795,-0.03544058836996555,2.5358428955078125,2.5358428955078125,6.007888941894635e-08,9.992847083140077e-08,0.008819825947284698,0.00019402476027607918,8.263048130174866e-07,0.02214379794895649,47.64146767789195,-122.14016457049317,124.53584289550781,-2.9039356434320113e-07,-7.630955468079902e-07,2.5924789944776006,0.0,0.0,0.0,0.0,0.0,0.0,0.911555128018826,-0.29007475009243766,-0.004678625001491021,0.8641571044921887,0.0,0.0,0.0,-0.0,-0.0,0.0,-0.0,-0.0,0.0
21/04/2022,17:38:35,23.042196,0.032657318050041795,-0.03544058836996555,2.5370712280273438,2.5370712280273438,5.107585465680131e-08,1.0846375886330861e-07,0.006949282716959715,0.00019402476027607918,8.263048130174866e-07,0.02214379794895649,47.64146767789195,-122.14016457049317,124.53709411621094,-4.1794773641136907e-07,1.908477323087306e-07,2.592478994477598,0.0,0.0,0.0,0.0,0.0,0.0,0.9103907488937558,-0.29007475009243766,-0.004678625001491021,0.8629287719726575,0.0,0.0,0.0,-0.0,-0.0,0.0,-0.0,-0.0,0.0
21/04/2022,17:38:35,23.230197,0.032657318050041795,-0.03544058836996555,2.5382232666015625,2.5382232666015625,3.392234759758139e-08,8.81634107940954e-08,0.005047717597335577,0.00019402476027607918,8.263048130174866e-07,0.02214379794895649,47.64146767789195,-122.14016457049317,124.53823852539062,-5.749373688632863e-07,7.532987587007401e-07,2.592478994477595,0.0,0.0,0.0,0.0,0.0,0.0,0.9092988443850452,-0.29007475009243766,-0.004678625001491021,0.8617767333984387,0.0,0.0,0.0,-0.0,-0.0,0.0,-0.0,-0.0,0.0
21/04/2022,17:38:35,23.420198,0.032657318050041795,-0.03544058836996555,2.5390243530273438,2.5390243530273438,1.2428074569470482e-08,6.953564479772467e-08,0.003552103415131569,0.00019402476027607918,8.263048130174866e-07,0.02214379794895649,47.64146767789195,-122.14016457049317,124.53903198242188,-7.270208212370688e-07,4.6864573118420635e-07,2.592478994477596,0.0,0.0,0.0,0.0,0.0,0.0,0.9085396605834447,-0.29007475009243766,-0.004678625001491021,0.8609756469726575,0.0,0.0,0.0,-0.0,-0.0,0.0,-0.0,-0.0,0.0
21/04/2022,17:38:35,23.608198,0.032657318050041795,-0.03544058836996555,2.5395889282226562,2.5395889282226562,-1.4403283010722134e-08,6.002293417850524e-08,0.002298397710546851,0.00019402476027607918,8.263048130174866e-07,0.02214379794895649,47.64146767789195,-122.14016457049317,124.53958892822266,-8.840109036913494e-07,1.748103640580438e-07,2.5924789944775974,0.0,0.0,0.0,0.0,0.0,0.0,0.908004660015649,-0.29007475009243766,-0.004678625001491021,0.860411071777345,0.0,0.0,0.0,-0.0,-0.0,0.0,-0.0,-0.0,0.0
21/04/2022,17:38:36,23.7982,0.032657318050041795,-0.03544058836996555,2.5399246215820312,2.5399246215820312,-4.4895333672911875e-08,6.022274590122834e-08,0.0013123693643137813,0.00019402476027607918,8.263048130174866e-07,0.02214379794895649,47.64146767789195,-122.14016457049317,124.53992462158203,-1.0360975034610638e-06,-1.0984228682934575e-07,2.5924789944776,0.0,0.0,0.0,0.0,0.0,0.0,0.907686568554316,-0.29007475009243766,-0.004678625001491021,0.86007537841797,0.0,0.0,0.0,-0.0,-0.0,0.0,-0.0,-0.0,0.0
21/04/2022,17:38:36,23.950201,0.032657318050041795,-0.03544058836996555,2.5400772094726562,2.5400772094726562,-7.388366896066145e-08,6.753646175639005e-08,0.0006274713086895645,0.00019402476027607918,8.263048130174866e-07,0.02214379794895649,47.64146767789195,-122.14016457049317,124.54007720947266,-1.1636540122868314e-06,-3.485834758521109e-07,2.5924789944776028,0.0,0.0,0.0,0.0,0.0,0.0,0.9075419857182535,-0.29007475009243766,-0.004678625001491021,0.859922790527345,0.0,0.0,0.0,-0.0,-0.0,0.0,-0.0,-0.0,0.0
21/04/2022,17:38:36,24.106198,0.032657318050041795,-0.03544058836996555,2.5401229858398438,2.5401229858398438,-1.0469463518347766e-07,8.071780399632189e-08,7.14139750925824e-05,0.00019402476027607918,8.263048130174866e-07,0.02214379794895649,47.64146767789195,-122.14016457049317,124.54013061523438,-1.2863045015423766e-06,-5.781423114509236e-07,2.5924789944776054,0.0,0.0,0.0,0.0,0.0,0.0,0.9074986113785973,-0.29007475009243766,-0.004678625001491021,0.8598770141601575,0.0,0.0,0.0,-0.0,-0.0,0.0,-0.0,-0.0,0.0
21/04/2022,17:38:36,24.262202,0.032657318050041795,-0.03544058836996555,2.54010009765625,2.5401229858398438,-1.3979315838241746e-07,1.008219783216191e-07,-0.0004172005283180624,0.00019402476027607918,8.263048130174866e-07,0.02214379794895649,47.64146767789195,-122.14016457049317,124.54010009765625,-1.4138610103681442e-06,-8.168835004736887e-07,2.5924789944776094,0.0,0.0,0.0,0.0,0.0,0.0,0.9075202985189299,-0.29007475009243766,-0.004678625001491021,0.8598999023437512,0.0,0.0,0.0,-0.0,-0.0,0.0,-0.0,-0.0,0.0
21/04/2022,17:38:36,24.448198,0.032657318050041795,-0.03544058836996555,2.53997802734375,2.5401229858398438,-1.7253245232495829e-07,1.2996081011351635e-07,-0.0008999182027764618,0.00019402476027607918,8.263048130174866e-07,0.02214379794895649,47.64146767789195,-122.14016457049317,124.53997802734375,-5.735639329874322e-07,-8.95110544960497e-07,2.5924789944776037,0.0,0.0,0.0,0.0,0.0,0.0,0.9076359642635612,-0.29007475009243766,-0.004678625001491021,0.8600219726562512,0.0,0.0,0.0,-0.0,-0.0,0.0,-0.0,-0.0,0.0
21/04/2022,17:38:36,24.600201,0.032657318050041795,-0.03544058836996555,2.5398178100585938,2.5401229858398438,-1.763015831102166e-07,1.5408474496325653e-07,-0.0012289099395275116,0.00019402476027607918,8.263048130174866e-07,0.02214379794895649,47.64146767789195,-122.14016457049317,124.53981018066406,2.3426257026770496e-07,-9.343029955360597e-07,2.592478994477597,0.0,0.0,0.0,0.0,0.0,0.0,0.9077877780987638,-0.29007475009243766,-0.004678625001491021,0.8601821899414075,0.0,0.0,0.0,-0.0,-0.0,0.0,-0.0,-0.0,0.0
21/04/2022,17:38:37,24.755204,0.032657318050041795,-0.03544058836996555,2.5396041870117188,2.5401229858398438,-1.584293016776428e-07,1.7682083353065536e-07,-0.0015121286269277334,0.00019402476027607918,8.263048130174866e-07,0.02214379794895649,47.64146767789195,-122.14016457049317,124.53959655761719,1.0579297559230424e-06,-4.046805379498388e-07,2.5924789944775952,0.0,0.0,0.0,0.0,0.0,0.0,0.907990201037909,-0.29007475009243766,-0.004678625001491021,0.8603958129882825,0.0,0.0,0.0,-0.0,-0.0,0.0,-0.0,-0.0,0.0
21/04/2022,17:38:37,24.950199,0.032657318050041795,-0.03544058836996555,2.5392837524414062,2.5401229858398438,-1.1910903907619286e-07,1.6385193646328844e-07,-0.0017999933334067464,0.00019402476027607918,8.263048130174866e-07,0.02214379794895649,47.64146767789195,-122.14016457049317,124.5392837524414,1.3856951283013426e-06,6.47076660555667e-07,2.5924789944776068,0.0,0.0,0.0,0.0,0.0,0.0,0.9082938450658153,-0.29007475009243766,-0.004678625001491021,0.860716247558595,0.0,0.0,0.0,-0.0,-0.0,0.0,-0.0,-0.0,0.0
21/04/2022,17:38:37,25.139206,0.032657318050041795,-0.03544058836996555,2.5389251708984375,2.5401229858398438,-9.243698428917924e-08,1.4405438264475379e-07,-0.0020297495648264885,0.00019402476027607918,8.263048130174866e-07,0.02214379794895649,47.64146767789195,-122.14016457049317,124.53892517089844,4.3085362266667314e-07,6.101319662876878e-07,2.592478994477601,0.0,0.0,0.0,0.0,0.0,0.0,0.9086336508656181,-0.29007475009243766,-0.004678625001491021,0.8610748291015637,0.0,0.0,0.0,-0.0,-0.0,0.0,-0.0,-0.0,0.0
21/04/2022,17:38:37,25.298199,0.032657318050041795,-0.03544058836996555,2.5385894775390625,2.5401229858398438,-8.469032763969153e-08,1.307684414086907e-07,-0.0021864823065698147,0.00019402476027607918,8.263048130174866e-07,0.02214379794895649,47.64146767789195,-122.14016457049317,124.53858947753906,1.8439668751395263e-07,3.102279641558111e-07,2.592478994477599,0.22615928279443445,4.994882579080905,0.0,0.22615928279443445,4.994882579080905,0.0,0.9089517800078958,-0.29007475009243766,-0.004678625001491021,0.8614105224609387,0.22615928279443445,4.994882579080905,0.0,-0.0,-0.0,0.0,-0.0,-0.0,0.0
21/04/2022,17:38:37,25.483198,0.0324042463907972,-0.01812224555760622,2.5713653564453125,2.5713653564453125,-0.0007094069151207805,0.36573538184165955,0.6298055052757263,0.00019402476027607918,0.36573538184165955,0.6298055052757263,47.641467833725784,-122.14016457130532,124.57136535644531,-0.7489470658330346,-16.059034418953093,2.692248335343057,0.23485654199639547,4.994481194747007,0.0,0.23485654199639547,4.994481194747007,0.0,0.8779611927802012,-0.29010099971434405,-0.0046790483824895035,0.8286346435546887,0.23485654199639547,4.994481194747007,0.0,-0.0,-0.0,0.0,-0.0,-0.0,-0.0
21/04/2022,17:38:37,25.673201,0.030725631630048156,0.12409343756735325,2.7524185180664062,2.7524185180664062,-0.00018489024660084397,1.147925853729248,1.1123125553131104,0.00019402476027607918,1.147925853729248,1.1123125553131104,47.64146914416603,-122.14016457266322,124.7557601928711,-0.9200119413688419,-20.229828311341553,2.7410838080897677,0.2391134512299781,4.9942792029922485,0.0,-0.26301059553189243,4.9861804280444755,-2.4189137896543595,0.709858838158801,-0.2907160262978104,-0.004688968166093765,0.647581481933595,0.2391134512299781,4.9942792029922485,0.0,-0.0,-0.0,0.0,-0.5021240467618705,-0.00809877494777259,-2.4189137896543595
21/04/2022,17:38:38,25.861202,0.027961514540947974,0.3753677187487483,2.8970794677734375,2.8970794677734375,0.00041108610457740724,1.5265051126480103,0.28394582867622375,0.00041108610457740724,1.5265051126480103,1.1123125553131104,47.641471374294944,-122.14016457235536,124.89707946777344,-0.965417052066387,-21.484626227224744,2.7554801896768146,0.24036832753222798,4.994218964674993,0.0,0.24036832753222798,4.994218964674993,0.0,0.581564961411921,-0.29200438503454523,-0.004709748145718562,0.5029205322265637,0.24036832753222798,4.994218964674993,0.0,-0.0,-0.0,0.0,-0.0,-0.0,-0.0
21/04/2022,17:38:38,26.0102,0.025138597120530903,0.6431050039827824,2.9398193359375,2.9398193359375,0.0016363841714337468,2.101274251937866,0.42914673686027527,0.0016363841714337468,2.101274251937866,1.1123125553131104,47.641473839847706,-122.1401645703424,124.94110870361328,-0.7618690678730956,-17.26895759778884,2.6846430863834954,0.23419358930311798,4.994512324815038,0.0,0.23419358930311798,4.994512324815038,0.0,0.5458301601557214,-0.29349942199694495,-0.004733861645112025,0.46018066406250124,0.23419358930311798,4.994512324815038,0.0,-0.0,-0.0,0.0,-0.0,-0.0,-0.0
21/04/2022,17:38:38,26.173205,0.021325924433767796,1.0146922431886196,2.9976577758789062,2.9976577758789062,0.0020610284991562366,2.484792470932007,0.26230236887931824,0.0020610284991562366,2.484792470932007,1.1123125553131104,47.64147712679189,-122.14016456630367,124.9976577758789,-0.5910187731609858,-13.276588999475887,2.63246789643113,0.22964534580253748,4.994723517388248,0.0,0.22964534580253748,4.994723517388248,0.0,0.49932793858647956,-0.29567952473370557,-0.004769024592478965,0.402342224121095,0.22964534580253748,4.994723517388248,0.0,-0.0,-0.0,0.0,-0.0,-0.0,-0.0
21/04/2022,17:38:38,26.329199,0.017192389932461083,1.4156594090163708,3.027313232421875,3.027313232421875,0.0019594517070800066,2.76664662361145,0.13115698099136353,0.0020610284991562366,2.76664662361145,1.1123125553131104,47.64148080909542,-122.14016456205523,125.0277099609375,-0.4750045355015963,-10.525487939422788,2.604120788292147,0.22717417648680166,4.9948365232044925,0.0,0.22717417648680166,4.9948365232044925,0.0,0.4772106849407748,-0.29801259564613664,-0.004806654768486407,0.37268676757812624,0.22717417648680166,4.9948365232044925,0.0,-0.0,-0.0,0.0,-0.0,-0.0,0.0
21/04/2022,17:38:38,26.516199,0.011341326055116951,1.9732587449252605,3.0430831909179688,3.0430831909179688,0.0014346415409818292,3.0474395751953125,0.04070678725838661,0.0020610284991562366,3.0474395751953125,1.1123125553131104,47.64148575175921,-122.14016455770364,125.04308319091797,-0.36412359541652783,-7.9756500276644156,2.583435070546858,0.22537085649652405,4.994918215250578,0.0,0.22537085649652405,4.994918215250578,0.0,0.46701936343081507,-0.3011542521563682,-0.0048573266476834576,0.3569168090820325,0.22537085649652405,4.994918215250578,0.0,-0.0,-0.0,0.0,-0.0,-0.0,0.0
21/04/2022,17:38:39,26.705199,0.004948853747919202,2.5685130935162306,3.0462646484375,3.0462646484375,0.0007377256406471133,3.2588958740234375,-0.003137606894597411,0.0020610284991562366,3.2588958740234375,1.1123125553131104,47.64149110774409,-122.14016455492172,125.0462646484375,-0.28046680573963934,-6.132826957059999,2.5719528594855317,0.22436985843730756,4.994963279807452,0.0,0.22436985843730756,4.994963279807452,0.0,0.4666786008858973,-0.30436182200390316,-0.004909061645224977,0.35373535156250124,0.22436985843730756,4.994963279807452,0.0,-0.0,-0.0,0.0,-0.0,-0.0,0.0
21/04/2022,17:38:39,26.861197,-0.0007270147325471044,3.08665834274143,3.044281005859375,3.0462646484375,0.00014369150449056178,3.3947834968566895,-0.020989861339330673,0.0020610284991562366,3.3947834968566895,1.1123125553131104,47.64149576992713,-122.14016455398415,125.04428100585938,-0.22577155957390643,-4.969188782524477,2.5662582140661323,0.22387340636959574,4.994985555326509,0.0,0.22387340636959574,4.994985555326509,0.0,0.46993147004267855,-0.3070424376119786,-0.004952297380838466,0.35571899414062624,0.22387340636959574,4.994985555326509,0.0,-0.0,-0.0,0.0,-0.0,-0.0,0.0
21/04/2022,17:38:39,27.017197,-0.006586895557120442,3.6133224898949265,3.040374755859375,3.0462646484375,-0.0004071321163792163,3.500999689102173,-0.029349369928240776,0.0020610284991562366,3.500999689102173,1.1123125553131104,47.641500508770825,-122.1401645542385,125.04037475585938,-0.18223183930256784,-4.06610224140556,2.5626931922061678,0.2235626110952379,4.994999475367368,-1.0,0.2235626110952379,4.994999475367368,-1.0,0.4746101248241679,-0.30967645457787113,-0.004994781525449632,0.35962524414062624,0.2235626110952379,4.994999475367368,-1.0,-0.0,-0.0,0.0,-0.0,-0.0,0.0
21/04/2022,17:38:39,27.2102,-0.013997932197526097,4.269630807451904,2.9816207885742188,3.0462646484375,-0.0010303524322807789,3.5582597255706787,-0.7617341876029968,0.0020610284991562366,3.5582597255706787,1.1123125553131104,47.64150651002989,-122.14016455604325,124.97935485839844,-0.1521259095395597,-3.482070725608775,2.5607372014106065,0.22339208927769857,4.995007104544311,0.0,-0.31176313712373926,4.986375568634611,2.442033987318161,0.522438398739552,-0.3128502103237263,-0.005045971134254756,0.4183792114257825,0.22339208927769857,4.995007104544311,0.0,-0.0,-0.0,0.0,-0.5351552264014379,-0.00863153590970016,2.442033987318161
21/04/2022,17:38:39,27.389199,-0.02166404004674405,4.939717570319772,2.8788375854492188,3.0462646484375,-0.001466573914512992,3.6711907386779785,0.03079918399453163,0.0020610284991562366,3.6711907386779785,1.1123125553131104,47.64151244350334,-122.14016455912734,124.87883758544922,-0.09659890079879647,-2.300490092407232,2.5579997846352525,0.22315344288942704,4.9950177718329085,0.0,0.22315344288942704,4.9950177718329085,0.0,0.6094970354870141,-0.31599113639015386,-0.005096631232099469,0.5211624145507825,0.22315344288942704,4.9950177718329085,0.0,-0.0,-0.0,0.0,-0.0,-0.0,0.0
21/04/2022,17:38:39,27.540201,-0.027924572001211345,5.482639021240175,2.9131317138671875,3.0462646484375,-0.0018106523202732205,3.721597194671631,0.26292553544044495,0.0020610284991562366,3.721597194671631,1.1123125553131104,47.641517428935785,-122.14016456238733,124.91392517089844,-0.08384504198283022,-2.078193632348222,2.5575389351285036,0.2231132662497255,4.995019566570623,0.0,0.2231132662497255,4.995019566570623,0.0,0.5818083252444509,-0.3184867528073431,-0.005136883109797097,0.48686828613281374,0.2231132662497255,4.995019566570623,0.0,-0.0,-0.0,0.0,-0.0,-0.0,-0.0
21/04/2022,17:38:40,27.726226,-0.03600749175529927,6.177814085036516,2.9579086303710938,3.0462646484375,-0.002196007641032338,3.765495538711548,0.21652217209339142,0.0020610284991562366,3.765495538711548,1.1123125553131104,47.641523685235235,-122.14016456737268,124.95855712890625,-0.06887077197994386,-1.8170042382136993,2.5571157095413453,0.22307636963263383,4.995021214500648,0.0,0.22307636963263383,4.995021214500648,0.0,0.5467250044306204,-0.3216155201469164,-0.005187347099144368,0.4420913696289075,0.22307636963263383,4.995021214500648,0.0,-0.0,-0.0,0.0,-0.0,-0.0,0.0
21/04/2022,17:38:40,27.911226,-0.04410313942935318,6.868979413062334,2.9938201904296875,3.0462646484375,-0.0025011529214680195,3.80022931098938,0.17595234513282776,0.0020610284991562366,3.80022931098938,1.1123125553131104,47.64152980280428,-122.14016457301624,124.99382019042969,-0.054556355289123636,-1.552622361262954,2.5567922912609657,0.22304817416363074,4.995022473623344,0.0,0.22304817416363074,4.995022473623344,0.0,0.5200173646105378,-0.32466690653925384,-0.005236563008698347,0.40617980957031374,0.22304817416363074,4.995022473623344,0.0,-0.0,-0.0,0.0,-0.0,-0.0,0.0
21/04/2022,17:38:40,28.093228,-0.05231202102731913,7.565792253240943,3.0229873657226562,3.0462646484375,-0.002748425817117095,3.8272619247436523,0.1428837776184082,0.0020610284991562366,3.8272619247436523,1.1123125553131104,47.64153617580455,-122.14016457953103,125.0234146118164,-0.042476069098046396,-1.3263954767964112,2.5565789129673875,0.22302957193028156,4.995023304254405,0.0,0.22302957193028156,4.995023304254405,0.0,0.4995510296462706,-0.32769615367280197,-0.0052854218334346115,0.377012634277345,0.22302957193028156,4.995023304254405,0.0,-0.0,-0.0,0.0,-0.0,-0.0,0.0
21/04/2022,17:38:40,28.241229,-0.05897171015385538,8.128733733668923,3.0423965454101562,3.0462646484375,-0.002912709955126047,3.8442933559417725,0.12088065594434738,0.0020610284991562366,3.8442933559417725,1.1123125553131104,47.641541241568135,-122.14016458508331,125.04275512695312,-0.034561106578483894,-1.1782204974981678,2.556468644375565,0.17841596700625925,3.996018986781372,0.0,0.17841596700625925,3.996018986781372,0.0,0.48670817524120125,-0.33011553645150926,-0.0053244441363169415,0.357603454589845,0.17841596700625925,3.996018986781372,0.0,-0.0,-0.0,0.0,-0.0,-0.0,0.0
21/04/2022,17:38:40,28.422227,-0.067426846944727,8.841155065223575,3.0631866455078125,3.0631866455078125,-0.003035217523574829,3.7998416423797607,0.12264283746480942,0.0020610284991562366,3.8442933559417725,1.1123125553131104,47.6415475482777,-122.14016459234558,125.06318664550781,0.15811196391366128,3.0923407440514534,2.560336033964181,0.04467142315339671,0.9990017337089312,0.0,0.04467142315339671,0.9990017337089312,0.0,0.47377338047749434,-0.33315027682401327,-0.0053733915616778205,0.33681335449218874,0.04467142315339671,0.9990017337089312,0.0,-0.0,-0.0,0.0,-0.0,-0.0,0.0
21/04/2022,17:38:40,28.577226,-0.07388888031709939,9.384532223455608,3.1017990112304688,3.1017990112304688,-0.0028078577015548944,3.4893429279327393,0.6120027899742126,0.0020610284991562366,3.8442933559417725,1.1123125553131104,47.64155253174622,-122.14016459826078,125.10360717773438,0.6833781804744873,14.600420182942965,2.6408303828979287,0.046074867569681044,0.998937989355914,0.0,-0.8326010040380842,0.9847657978783718,-1.8389275096517523,0.4488663591761088,-0.3354517924357133,-0.005410512781221399,0.2982009887695325,0.046074867569681044,0.998937989355914,0.0,-0.0,-0.0,0.0,-0.8786758716077653,-0.014172191477542248,-1.8389275096517523
21/04/2022,17:38:41,28.757226,-0.08090664225164801,9.969707141630352,3.1960067749023438,3.1960067749023438,-0.003164325375109911,3.0278067588806152,0.24894116818904877,0.0020610284991562366,3.8442933559417725,1.1123125553131104,47.64155778463757,-122.14016460530485,125.19676208496094,0.9451594887831628,20.475887155037864,2.7168932356377784,-0.9988759425567375,0.04740096392890364,0.0,-0.9988759425567375,0.04740096392890364,0.0,0.3947153698509896,-0.33787170610292505,-0.0054495436468222636,0.2039932250976575,-0.9988759425567375,0.04740096392890364,0.0,-0.0,-0.0,0.0,-0.0,-0.0,-0.0
21/04/2022,17:38:41,28.931232,-0.0866893349448219,10.434170544147491,3.2820968627929688,3.2820968627929688,-0.004006550181657076,2.1913115978240967,0.8163642287254333,0.0020610284991562366,3.8442933559417725,1.1123125553131104,47.64156194133859,-122.14016461374815,125.2845458984375,0.8280239533952197,18.27111008851607,2.674506253037909,-0.9989107360879118,0.0466619901880132,0.0,-1.630113632089615,0.036481298317015715,-2.377105509258144,0.3595075332795312,-0.3395799142286734,-0.005477095390785891,0.1179031372070325,-0.9989107360879118,0.0466619901880132,0.0,-0.0,-0.0,0.0,-0.6312028960017031,-0.010180691870997492,-2.377105509258144
21/04/2022,17:38:41,29.070767,-0.09090052742976695,10.71525321342051,3.368988037109375,3.368988037109375,-0.02059967815876007,1.9210021495819092,0.28845447301864624,0.0020610284991562366,3.8442933559417725,1.1123125553131104,47.64156446321862,-122.14016462895677,125.369873046875,-2.723170775648865,17.817321878147414,2.6659276036859816,-3.995670845557027,0.1860497083190157,0.0,-3.995670845557027,0.1860497083190157,0.0,0.34135805673337977,-0.33990222933473274,-0.005482294021529555,0.031011962890626243,-3.995670845557027,0.1860497083190157,0.0,-0.0,-0.0,0.0,-0.0,-0.0,-0.0
21/04/2022,17:38:41,29.247262,-0.11903464864008129,11.007126287557185,3.4332962036132812,3.4332962036132812,-0.37152957916259766,1.3191750049591064,0.7185904383659363,0.0020610284991562366,3.8442933559417725,1.1123125553131104,47.64156704010096,-122.14016495958683,125.43329620361328,-12.140157350546621,13.900581046446211,3.2158831919128614,-3.993701005263631,0.22439313838944172,0.0,-3.3762710888815324,0.23435168542786164,-2.365344721615995,0.3182694502423485,-0.3164818310678993,-0.005104545662387494,-0.03329620361328001,-3.993701005263631,0.22439313838944172,0.0,-0.0,-0.0,-0.0,0.6174299163820985,0.009958547038419929,-2.365344721615995
21/04/2022,17:38:41,29.395264,-0.19332420208957046,11.17921682447195,3.5134963989257812,3.5134963989257812,-0.608749270439148,1.1203032732009888,0.19956143200397491,0.0020610284991562366,3.8442933559417725,1.1123125553131104,47.64156862599697,-122.14016594739992,125.51412200927734,-16.0230235933642,12.698254529813696,3.4783468506426733,-3.9926311941238284,0.2426852853168718,0.0,-2.1558627157648638,0.27231058335491354,-1.0058724006384594,0.27002860272288737,-0.24498653063327747,-0.00395139565537761,-0.11349639892578,-3.9926311941238284,0.2426852853168718,0.0,-0.0,-0.0,-0.0,1.8367684783589646,0.02962529803804171,-1.0058724006384594
21/04/2022,17:38:41,29.581263,-0.328824361669831,11.367768861353397,3.4672088623046875,3.5134963989257812,-0.8432028293609619,0.9589428305625916,-0.7113504409790039,0.0020610284991562366,3.8442933559417725,1.1123125553131104,47.64157033151845,-122.14016773275002,125.465087890625,-11.029868944428152,9.598480601495025,4.240859583070326,-3.9890479798574,0.2957975902464305,0.0,-2.111203529226558,0.3260854039662806,1.6502022830903138,0.13111265079977807,-0.11256198261250461,-0.0018155158485892997,-0.06720886230468626,-3.9890479798574,0.2957975902464305,0.0,-0.0,-0.0,-0.0,1.877844450630842,0.030287813719850117,1.6502022830903138
21/04/2022,17:38:42,29.771263,-0.5272026224993169,11.518126098439097,3.3802032470703125,3.5134963989257812,-1.2566081285476685,0.6369746923446655,0.10174043476581573,0.0020610284991562366,3.8442933559417725,1.1123125553131104,47.64157169538581,-122.1401703678974,125.38047790527344,-6.239306794098952,5.9917784136177055,4.805722589420572,-3.9859379868051783,0.3351094826224423,0.0,-1.3941690085726228,0.37691220807780523,-0.18485442227626075,0.08566975521174483,0.08334019838339413,0.0013441967481178096,0.019796752929688743,-3.9859379868051783,0.3351094826224423,0.0,0.0,0.0,0.0,2.5917689782325555,0.04180272545536298,-0.18485442227626075
21/04/2022,17:38:42,29.952261,-0.7698636279674247,11.61566836386919,3.4063644409179688,3.5134963989257812,-1.3782638311386108,0.4932226836681366,0.04303349554538727,0.0020610284991562366,3.8442933559417725,1.1123125553131104,47.64157259325101,-122.14017358881482,125.406494140625,-0.5258829594401997,4.208241913743011,4.94336817740641,-2.988841071657707,0.2585131493212831,-1.0,0.11512674942924139,0.3085771464355857,-1.0936288959363247,0.3244698531603126,0.32436523988215626,0.005231697417451997,-0.0063644409179675066,-2.988841071657707,0.2585131493212831,-1.0,0.0,0.0,-0.0,3.1039678210869486,0.05006399711430261,-0.09362889593632483
21/04/2022,17:38:42,30.133264,-1.0178107848623767,11.694258101284504,3.366119384765625,3.5134963989257812,-1.3411204814910889,0.420965313911438,-0.6511224508285522,0.0020610284991562366,3.8442933559417725,1.1123125553131104,47.64157332308023,-122.14017687648061,125.36418914794922,5.84449029098859,3.017561514695857,4.573332069285235,-1.834162253633493,2.1531021404815207,-5.0,2.049307114531634,2.2157387431938624,-3.3979976056280954,0.5720591120285714,0.5709806644294765,0.009209365555312488,0.03388061523437624,-1.834162253633493,2.1531021404815207,-5.0,0.0,0.0,0.0,3.883469368165127,0.06263660271234157,1.6020023943719044
21/04/2022,17:38:42,30.31526,-1.250428125844337,11.765775523148477,3.1820831298828125,3.5134963989257812,-1.1515158414840698,0.42108553647994995,-1.432318925857544,0.0020610284991562366,3.8442933559417725,1.1123125553131104,47.64157398968016,-122.1401799550436,125.17780303955078,16.506177050227564,-6.105750295990998,2.0219756011172607,-0.8935289467036703,3.033414910855854,0.0,5.564537771601136,3.1375772772801214,6.43992781315778,0.8315502475669696,0.802384299950696,0.012941682257268994,0.21791687011718874,-0.8935289467036703,3.033414910855854,0.0,0.0,0.0,0.0,6.458066718304806,0.10416236642426745,6.43992781315778
21/04/2022,17:38:42,30.497258,-1.4012749589746818,11.867297244258225,2.9435806274414062,3.5134963989257812,-0.310995876789093,0.7567030191421509,-0.8001972436904907,0.0020610284991562366,3.8442933559417725,1.1123125553131104,47.64157490676743,-122.1401819020041,124.9435806274414,18.77613993894127,-8.62994562545385,0.9353955531798672,-0.9508917171751534,3.0159252215875125,-1.0,0.9849685444932633,3.0471487741950662,1.2526240305823715,1.0554671400502196,0.9515548798841786,0.015347659352970666,0.456419372558595,-0.9508917171751534,3.0159252215875125,-1.0,0.3748045926240612,0.006045235364904229,0.17977741548482823,1.5610556690443556,0.025178317242649316,2.0728466150975433
21/04/2022,17:38:42,30.678265,-1.398778434842825,12.037031234242022,2.86279296875,3.5134963989257812,0.2673594057559967,1.1803501844406128,0.017871154472231865,0.2673594057559967,3.8442933559417725,1.1123125553131104,47.64157643357048,-122.14018184371194,124.86279296875,5.295861872009555,-10.328401343630874,0.40118817525050265,-0.9719674962707572,4.006903940225315,0.0,-0.6030881298407578,4.012853607425798,0.2094050167307411,1.0882783768623239,0.946322072044945,0.015263259226530934,0.5372070312500012,-0.9719674962707572,4.006903940225315,0.0,0.36887936642999936,0.00594966720048369,0.2094050167307411,0.0,0.0,0.0
21/04/2022,17:38:43,30.82726,-1.3518900389317423,12.241362282074988,2.921051025390625,3.5134963989257812,0.37220799922943115,1.6406527757644653,0.7869385480880737,0.37220799922943115,3.8442933559417725,1.1123125553131104,47.64157831129027,-122.14018117447998,124.92339324951172,0.49196948565157406,-13.918228508804665,0.17372866997035485,-0.9848347398256165,5.003009148026077,0.0,-0.43560355653550287,5.011867715498498,-1.9353105275417681,1.0162124643182433,0.8961510658426446,0.014454049449074802,0.47894897460937624,-0.9848347398256165,5.003009148026077,0.0,0.35696156239950266,0.005757444554830644,0.19077852027709655,0.19226962089061103,0.0031011229175905,-2.1260890478188648
21/04/2022,17:38:43,31.014261,-1.28882614930626,12.570409875363111,3.032470703125,3.5134963989257812,0.35670167207717896,2.0451955795288086,0.38238203525543213,0.37220799922943115,3.8442933559417725,1.1123125553131104,47.641581276270024,-122.14018028698163,125.03362274169922,-1.6116798360344282,-19.525462882801712,0.16689744302627169,-0.9883441343825412,4.002895935698507,0.0,-0.9883441343825412,4.002895935698507,0.0,0.9058173905408183,0.8277977387934332,0.013351576432150125,0.36752929687500124,-0.9883441343825412,4.002895935698507,0.0,0.0,0.0,0.0,0.0,0.0,-0.0
21/04/2022,17:38:43,31.188264,-1.2359585587400943,12.990752779878676,3.1258163452148438,3.5134963989257812,0.2888210415840149,2.686927318572998,0.6697313785552979,0.37220799922943115,3.8442933559417725,1.1123125553131104,47.641585070023524,-122.14017952385367,125.1278305053711,-1.9340387189648203,-14.350894181660207,-0.05803098187754715,-1.0040508132010684,3.9989851168152994,0.0,-0.8001305363363416,4.002274153538912,-2.0883365292943443,0.8157261119209718,0.7681659369166306,0.012389773176073149,0.2741836547851575,-1.0040508132010684,3.9989851168152994,0.0,0.0,0.0,0.0,0.20392027686472677,0.00328903672361275,-2.0883365292943443
21/04/2022,17:38:43,31.334261,-1.2004085208754987,13.401391515508294,3.1906890869140625,3.5134963989257812,0.25828245282173157,2.878302812576294,0.07647577673196793,0.37220799922943115,3.8442933559417725,1.1123125553131104,47.641588766096426,-122.14017899121224,125.1909408569336,-2.0684720925582556,-12.068072834049167,-0.15702041647759887,-1.0109583240882916,3.9972444592439667,0.0,-1.0109583240882916,3.9972444592439667,0.0,0.755664934652075,0.7260036619724064,0.011709736483425104,0.20931091308593874,-1.0109583240882916,3.9972444592439667,0.0,0.0,0.0,0.0,0.0,0.0,0.0
21/04/2022,17:38:43,31.513264,-1.1678759986534715,13.941560784354806,3.1904449462890625,3.5134963989257812,0.1358470916748047,3.1177215576171875,0.07225382328033447,0.37220799922943115,3.8442933559417725,1.1123125553131104,47.64159354508458,-122.14017848872943,125.19044494628906,-5.6274036527194795,-4.274951257761605,-0.6724321842359492,-1.0468746768975081,3.987988642269526,0.0,-1.0468746768975081,3.987988642269526,0.0,0.7162014502514339,0.6847694590881526,0.011044668694969673,0.20955505371093874,-1.0468746768975081,3.987988642269526,0.0,0.0,0.0,0.0,0.0,0.0,0.0
21/04/2022,17:38:43,31.691353,-1.1666119054425508,14.50848317425698,3.2077102661132812,3.5134963989257812,-0.06079942360520363,3.172471523284912,0.1049233078956604,0.37220799922943115,3.8442933559417725,1.1123125553131104,47.64159873091009,-122.14017839057087,125.20802307128906,-6.423245426433382,-0.7201644712467324,-1.759107424464201,-1.1223182968890273,3.967417502666957,-1.0,-1.1223182968890273,3.967417502666957,-1.0,0.70132779220494,0.6743641632554571,0.010876841342827959,0.19228973388672,-1.1223182968890273,3.967417502666957,-1.0,0.0,0.0,0.0,0.0,0.0,-0.0
21/04/2022,17:38:44,31.873361,-1.1953415074385703,15.077567890286446,3.17510986328125,3.5134963989257812,-0.17725792527198792,3.1593637466430664,-0.6165264248847961,0.37220799922943115,3.8442933559417725,1.1123125553131104,47.64160385333046,-122.1401786937033,125.17327880859375,-6.265303633106131,0.14643153702691686,-4.413586486226292,-1.2279008999199033,2.9141481396757944,0.0,0.12840501258385584,2.936024041490366,2.089309473910647,0.7295284632194083,0.6939098947714186,0.011192095076959063,0.22489013671875124,-1.2279008999199033,2.9141481396757944,0.0,0.0,0.0,0.0,1.356305912503759,0.021875901814571497,2.089309473910647
21/04/2022,17:38:44,32.049359,-1.2453988719498739,15.628890562802553,3.0845184326171875,3.5134963989257812,-0.3048045337200165,3.0435950756073,-0.07402509450912476,0.37220799922943115,3.8442933559417725,1.1123125553131104,47.641608733282006,-122.14017927162477,125.08451843261719,-1.3238100210153076,4.111931393253076,-7.700287450345786,-0.990982527499706,-0.13399115713469478,0.0,1.2109599595869973,-0.09847595573007326,0.8189210296232083,0.7999928972666354,0.7350642519848003,0.011855875032011909,0.31548156738281374,-0.990982527499706,-0.13399115713469478,0.0,0.0,0.0,0.0,2.2019424870867033,0.03551520140462153,0.8189210296232083
21/04/2022,17:38:44,32.198392,-1.2923981341300532,16.050379066728055,3.1201019287109375,3.5134963989257812,-0.24195189774036407,2.751512289047241,0.6234337687492371,0.37220799922943115,3.8442933559417725,1.1123125553131104,47.6416125299926,-122.1401798350626,125.12010192871094,2.4147670104228496,12.706514700973882,-9.035541357018955,-0.9875911121336078,-0.15704711151340395,0.0,0.8963999362180539,-0.12666015912063527,-1.5566656668301726,0.824329652817212,0.7752548570764071,0.01250411059800527,0.27989807128906374,-0.9875911121336078,-0.15704711151340395,0.0,0.0,0.0,0.0,1.8839910483516618,0.030386952392768687,-1.5566656668301726
21/04/2022,17:38:44,32.369398,-1.3285802262835205,16.48998510837555,3.2101898193359375,3.5134963989257812,-0.14874978363513947,2.4414966106414795,0.13839641213417053,0.37220799922943115,3.8442933559417725,1.1123125553131104,47.64161648862265,-122.14018025182561,125.21018981933594,0.11692746598622974,16.8209530216386,-9.886314621198467,0.1716937971684583,-0.9851503641647179,0.0,2.2032999122910284,-0.9523825235982314,-0.17273741868840453,0.826533348629283,0.8043389630987174,0.012973209082232984,0.18981018066406374,0.1716937971684583,-0.9851503641647179,0.0,0.0,0.0,0.0,2.03160611512257,0.032767840566486524,-0.17273741868840453
21/04/2022,17:38:44,32.540392,-1.3449931282084435,16.854257943108678,3.2526702880859375,3.5134963989257812,0.08104546368122101,1.8168561458587646,0.6515285968780518,0.37220799922943115,3.8442933559417725,1.1123125553131104,47.64161981666712,-122.14018041344542,125.25460052490234,6.013696110621262,16.296571267326428,-10.44496440554665,0.18129097377514092,-0.9834295006901416,0.0,1.2458543414576806,-0.9662591237920445,-2.070479564586383,0.8281896064288073,0.8148737561405771,0.013143125099038144,0.14732971191406374,0.18129097377514092,-0.9834295006901416,0.0,0.0,0.0,0.0,1.0645633676825397,0.017170376898097056,-2.070479564586383
21/04/2022,17:38:45,32.70939,-1.3139172126539052,17.132773627527058,3.34698486328125,3.5134963989257812,0.27351808547973633,1.5075271129608154,0.14620430767536163,0.37220799922943115,3.8442933559417725,1.1123125553131104,47.641622270159075,-122.140179961733,125.34698486328125,5.310696214691025,15.542791454411304,-10.786398481845847,0.0,0.0,-1.0,0.0,0.0,-1.0,0.781217202111365,0.7793149026098658,0.012569595203380857,0.05301513671875124,0.0,0.0,-1.0,0.0,0.0,0.0,0.0,0.0,-0.0
21/04/2022,17:38:45,32.878396,-1.2629569973796606,17.370245300233364,3.3036575317382812,3.5134963989257812,0.3502163589000702,1.3123894929885864,-0.6661626696586609,0.37220799922943115,3.8442933559417725,1.1123125553131104,47.641624436966744,-122.1401792342875,125.30167388916016,-0.2885622877983481,11.6702244327752,-11.093385791438088,0.0,0.0,-5.0,-0.03038185965649157,-0.0004900299944645789,-2.5933833362607372,0.7310094629416405,0.72453874884602,0.011686108852355659,0.09634246826172,0.0,0.0,-5.0,0.0,0.0,0.0,-0.03038185965649157,-0.0004900299944645789,2.4066166637392628
21/04/2022,17:38:45,33.051428,-1.2040366585133597,17.57915741018951,3.1331863403320312,3.5134963989257812,0.3561673164367676,1.135425329208374,-1.4037476778030396,0.37220799922943115,3.8442933559417725,1.1123125553131104,47.64162630582128,-122.14017841883063,125.12899780273438,-2.7979622292071733,9.309467718401127,-11.116694163153275,0.0,0.0,0.0,-0.08781023011785934,-0.0014162940341616468,3.1208252949837565,0.7140718712753399,0.6622650600503525,0.010681694516939899,0.26681365966797,0.0,0.0,0.0,0.0,0.0,0.0,-0.08781023011785934,-0.0014162940341616468,3.1208252949837565
21/04/2022,17:38:45,33.222393,-1.1495555540313944,17.74772014375776,2.9218978881835938,3.5134963989257812,0.3027152419090271,0.8413243293762207,-0.7626394033432007,0.37220799922943115,3.8442933559417725,1.1123125553131104,47.641627786272366,-122.14017768293407,124.9218978881836,-2.412642520043115,5.111591121127537,-10.960721054355279,0.0,0.0,0.0,-0.03409591309450474,-0.0005499340821753301,2.4997674451385046,0.7712319854766622,0.60508007822723,0.009759356100435213,0.4781021118164075,0.0,0.0,0.0,0.0,0.0,0.0,-0.03409591309450474,-0.0005499340821753301,2.4997674451385046
21/04/2022,17:38:45,33.390397,-1.1047488214680925,17.872096087783575,2.88372802734375,3.5134963989257812,0.23415687680244446,0.6121567487716675,0.35908740758895874,0.37220799922943115,3.8442933559417725,1.1123125553131104,47.641628900779494,-122.14017706809652,124.88372802734375,-2.124230529165874,3.7448832656629003,-10.928201994364235,0.0,0.0,0.0,0.0,0.0,0.0,0.7604562992343558,0.5582794570301082,0.009004507371454196,0.5162719726562512,0.0,0.0,0.0,0.0,0.0,0.0,0.0,0.0,-0.0
21/04/2022,17:38:45,33.537391,-1.0746713251573965,17.952385565266013,2.9542236328125,3.5134963989257812,0.19821235537528992,0.5099074840545654,0.42892223596572876,0.37220799922943115,3.8442933559417725,1.1123125553131104,47.64162963387897,-122.14017664790507,124.95551300048828,-2.1106231957559416,3.507612409082331,-10.929011888974593,0.0,0.0,-5.0,0.0,0.0,-5.0,0.6902378929429439,0.5269151284417528,0.008498631103893928,0.44577636718750124,0.0,0.0,-5.0,0.0,0.0,0.0,0.0,0.0,-0.0
21/04/2022,17:38:46,33.707395,-1.044003056595102,18.03339692018926,2.9808273315429688,3.5134963989257812,0.17099131643772125,0.4371196925640106,-0.2571209669113159,0.37220799922943115,3.8442933559417725,1.1123125553131104,47.64163034589987,-122.14017623562421,124.98082733154297,-2.7276335927909523,4.416911851293906,-10.97316499665433,0.0,0.0,0.0,0.0,0.0,0.0,0.6486474491232853,0.4949485410922855,0.007983040985358514,0.4191726684570325,0.0,0.0,0.0,0.0,0.0,0.0,0.0,0.0,0.0
21/04/2022,17:38:46,33.881399,-1.0191309564979747,18.098645895719528,2.9098587036132812,3.5134963989257812,0.1300860196352005,0.3294483721256256,-0.4395833909511566,0.37220799922943115,3.8442933559417725,1.1123125553131104,47.64163093044616,-122.14017589488925,124.90985870361328,-1.9035167632454832,3.0447730165336275,-10.918656329138859,0.0,0.0,0.0,0.34152513873320955,0.0055084699795641505,2.358289855886648,0.6784435075594119,0.46903078055750425,0.007565012589640929,0.49014129638672,0.0,0.0,0.0,0.0,0.0,0.0,0.34152513873320955,0.0055084699795641505,2.358289855886648
21/04/2022,17:38:46,34.047391,-1.001312802778557,18.14492707978934,2.890167236328125,3.5134963989257812,0.08673287183046341,0.2176271677017212,0.42348015308380127,0.37220799922943115,3.8442933559417725,1.1123125553131104,47.6416313509495,-122.14017564737523,124.89140319824219,-1.1068366675073154,1.7462792308936896,-10.883056104206933,-0.9820145903418831,-0.18880504324742886,0.0,-0.9820145903418831,-0.18880504324742886,0.0,0.6803722102718563,0.4504709843781103,0.0072656610383567966,0.5098327636718762,-0.9820145903418831,-0.18880504324742886,0.0,0.0,0.0,0.0,0.0,0.0,-0.0
21/04/2022,17:38:46,34.214394,-0.988692459766753,18.177497139200568,2.9587860107421875,3.5134963989257812,0.07161659002304077,0.17933118343353271,0.047535497695207596,0.37220799922943115,3.8442933559417725,1.1123125553131104,47.64163164164632,-122.1401754751763,124.95894622802734,-0.8570180353274321,1.344851584519288,-10.874743601146472,-0.9820419719459288,-0.18866257004650272,0.0,-0.9820419719459288,-0.18866257004650272,0.0,0.6212696377711232,0.4373287367263885,0.007053689302036759,0.44121398925781374,-0.9820419719459288,-0.18866257004650272,0.0,0.0,0.0,0.0,0.0,0.0,0.0
21/04/2022,17:38:46,34.356395,-0.9795684071723372,18.201017326675355,2.947265625,3.5134963989257812,0.060340121388435364,0.1509767323732376,-0.13309906423091888,0.37220799922943115,3.8442933559417725,1.1123125553131104,47.64163185158534,-122.14017535069362,124.94686889648438,-0.7140160839509958,1.116362427131054,-10.870907562527783,-0.9820546009877535,-0.18859682043657117,0.0,-0.9820546009877535,-0.18859682043657117,0.0,0.6229387250348927,0.4278277978976832,0.006900448353185595,0.45273437500000124,-0.9820546009877535,-0.18859682043657117,0.0,0.0,0.0,0.0,0.0,0.0,0.0
21/04/2022,17:38:46,34.529395,-0.9706009917426854,18.224115850403905,2.9250564575195312,3.5134963989257812,0.04737519472837448,0.11846452206373215,-0.12125107645988464,0.37220799922943115,3.8442933559417725,1.1123125553131104,47.64163205761608,-122.14017522842603,124.92469024658203,-0.5659213910150748,0.8834770006983977,-10.8678034656584,0.0,0.0,0.0,0.0,0.0,0.0,0.6330489888208238,0.41849025475522517,0.00674984281863189,0.47494354248047,0.0,0.0,0.0,0.0,0.0,0.0,0.0,0.0,0.0
21/04/2022,17:38:46,34.697403,-0.9636832907563075,18.241932390257716,2.9062652587890625,3.5134963989257812,0.037230342626571655,0.0930815115571022,-0.10218973457813263,0.37220799922943115,3.8442933559417725,1.1123125553131104,47.64163221653919,-122.14017513411325,124.90595245361328,-0.44800964046648467,0.698803515470287,-10.865903115291104,0.0,0.0,-2.0,0.0,0.0,-2.0,0.6426313478596495,0.4112870641017601,0.006633662324222911,0.49373474121093874,0.0,0.0,-2.0,0.0,0.0,0.0,0.0,0.0,0.0
21/04/2022,17:38:47,34.870392,-0.9579710873076692,18.256638227030635,2.8466033935546875,3.5134963989257812,0.03195613995194435,0.07991454005241394,-0.7537954449653625,0.37220799922943115,3.8442933559417725,1.1123125553131104,47.64163234792205,-122.14017505611291,124.8443603515625,-0.4228469002268862,0.6287896189202942,-12.11416880880314,0.0,0.0,0.0,0.40565775833279133,0.006542867069882608,2.4672133689040825,0.6859959378915103,0.4053392170441563,0.00653772930716201,0.5533966064453137,0.0,0.0,0.0,0.0,0.0,0.0,0.40565775833279133,0.006542867069882608,2.4672133689040825
21/04/2022,17:38:47,35.038393,-0.9533226253697649,18.26860996708274,2.7414016723632812,3.5134963989257812,0.023042133077979088,0.05764646455645561,-0.15870079398155212,0.37220799922943115,3.8442933559417725,1.1123125553131104,47.641632453002295,-122.14017499374407,124.74140167236328,-0.2848576995355957,0.3792391047668075,-14.892231257161832,0.0,0.0,-2.0,0.6980066521889327,0.0112581718094932,-0.06773365341721727,0.7708390692367518,0.4004989217066961,0.006459660027527292,0.65859832763672,0.0,0.0,-2.0,0.0,0.0,0.0,0.6980066521889327,0.0112581718094932,1.9322663465827827
21/04/2022,17:38:47,35.208393,-0.9500146033242345,18.277143700048327,2.7462005615234375,3.5134963989257812,0.017847731709480286,0.04477139562368393,0.05958760529756546,0.37220799922943115,3.8442933559417725,1.1123125553131104,47.641632530659535,-122.1401749477318,124.74638366699219,-0.24516806280800063,0.29723807844373207,-17.614344954539163,0.0,0.0,0.0,0.0,0.0,0.0,0.7649488350218632,0.3970541549480784,0.006404099273353836,0.6537994384765637,0.0,0.0,0.0,0.0,0.0,0.0,0.0,0.0,0.0
21/04/2022,17:38:47,35.378392,-0.9474012759746984,18.283906023949385,2.7555084228515625,3.5134963989257812,0.01410073135048151,0.035446763038635254,0.05036637932062149,0.37220799922943115,3.8442933559417725,1.1123125553131104,47.64163259099014,-122.14017491209478,124.75566101074219,-0.214765660095634,0.2309583580591916,-21.064379673761227,0.0,0.0,0.0,0.0,0.0,0.0,0.7555845014495538,0.3943324658938566,0.006360201062804549,0.6444915771484387,0.0,0.0,0.0,0.0,0.0,0.0,0.0,0.0,0.0
21/04/2022,17:38:47,35.549394,-0.9453101856634021,18.289328921586275,2.7633438110351562,3.5134963989257812,0.01103143859654665,0.027782924473285675,0.04118938744068146,0.37220799922943115,3.8442933559417725,1.1123125553131104,47.64163263860585,-122.14017488402216,124.76334381103516,-0.17667904336994542,0.1786635463868593,-22.89014344872971,0.0,0.0,0.0,0.0,0.0,0.0,0.7477675057128524,0.39215447608628573,0.006325072194940162,0.636656188964845,0.0,0.0,0.0,0.0,0.0,0.0,0.0,0.0,0.0
21/04/2022,17:38:48,35.717393,-0.9437018623575568,18.293504054658115,2.7696304321289062,3.5134963989257812,0.008642947301268578,0.021800372749567032,0.03368363901972771,0.37220799922943115,3.8442933559417725,1.1123125553131104,47.64163267600795,-122.14017486199546,124.7696304321289,-0.14252967927929927,0.13845042632654603,-24.09238407314538,0.0,0.0,0.0,0.0,0.0,0.0,0.7415386034913669,0.39047924772786624,0.006298052382703645,0.630369567871095,0.0,0.0,0.0,0.0,0.0,0.0,0.0,0.0,0.0
21/04/2022,17:38:48,35.880394,-0.9424627475673333,18.29672228731215,2.774688720703125,3.5134963989257812,0.006791511084884405,0.017153272405266762,0.02755882777273655,0.37220799922943115,3.8442933559417725,1.1123125553131104,47.64163270530692,-122.14017484475251,124.77477264404297,-0.11454847891691693,0.10722420975090251,-25.189946934577303,0.0,0.0,0.0,0.0,0.0,0.0,0.7365604769953497,0.38918856172574146,0.006277234866544745,0.6253112792968762,0.0,0.0,0.0,0.0,0.0,0.0,0.0,0.0,0.0
21/04/2022,17:38:48,36.050391,-0.9414737859042361,18.2992991656065,2.7788848876953125,3.5134963989257812,0.005309926345944405,0.013426942750811577,0.022376282140612602,0.37220799922943115,3.8442933559417725,1.1123125553131104,47.641632728287505,-122.14017483126665,124.7789535522461,-0.09058974141528145,0.08320549790594636,-25.77186267830257,0.0,0.0,0.0,0.0,0.0,0.0,0.7324548096762503,0.3881583055262109,0.00626061783106735,0.6211151123046887,0.0,0.0,0.0,0.0,0.0,0.0,0.0,0.0,0.0
21/04/2022,17:38:48,36.224394,-0.9406883042538539,18.30134815443307,2.7823410034179688,3.5134963989257812,0.00413242494687438,0.010459679178893566,0.01800481043756008,0.37220799922943115,3.8442933559417725,1.1123125553131104,47.641632746278574,-122.14017482072036,124.78234100341797,-0.07089848678765279,0.06452048223809333,-26.070316573939554,0.0,0.0,0.0,0.0,0.0,0.0,0.729091169220538,0.3873399885505757,0.006247419170168911,0.6176589965820325,0.0,0.0,0.0,0.0,0.0,0.0,0.0,0.0,0.0
21/04/2022,17:38:48,36.391391,-0.9400866075884551,18.302914355881512,2.7850723266601562,3.5134963989257812,0.0032301275059580803,0.008182317949831486,0.014445487409830093,0.37220799922943115,3.8442933559417725,1.1123125553131104,47.641632760530705,-122.14017481234934,124.78511047363281,-0.05556358505377488,0.05035078826707901,-26.21785704265227,-0.8971207245356274,-0.44178547464654255,0.0,-0.8971207245356274,-0.44178547464654255,0.0,0.7264447959735141,0.3867131936294844,0.006237309574668615,0.614927673339845,-0.8971207245356274,-0.44178547464654255,0.0,0.0,0.0,0.0,0.0,0.0,0.0
21/04/2022,17:38:48,36.556396,-0.9396236935863271,18.304122800938785,2.7872161865234375,3.5134963989257812,0.0025361112784594297,0.006428464315831661,0.011537990532815456,0.37220799922943115,3.8442933559417725,1.1123125553131104,47.64163277130449,-122.14017480603633,124.78724670410156,-0.04367544740222518,0.03950496107577166,-26.291657382225303,-1.7931018695390106,-0.8858813043832139,0.0,-1.7931018695390106,-0.8858813043832139,0.0,0.724373610835393,0.38623091404099785,0.006229530871628697,0.6127838134765637,-1.7931018695390106,-0.8858813043832139,0.0,0.0,0.0,0.0,0.0,0.0,0.0
21/04/2022,17:38:49,36.722394,-0.9414745249086991,18.305026119574904,2.7910919189453125,3.5134963989257812,-0.04922599345445633,0.0046497732400894165,0.05314738675951958,0.37220799922943115,3.8442933559417725,1.1123125553131104,47.641632779563956,-122.14017483257241,124.79125213623047,-3.446626562188489,-1.669662648959328,-26.282426271094796,-1.7932445735113416,-0.8855924003581596,0.0,-1.7932445735113416,-0.8855924003581596,0.0,0.7220830909345419,0.38806669813664385,0.006259140292524279,0.6089080810546887,-1.7932445735113416,-0.8855924003581596,0.0,0.0,0.0,0.0,0.0,0.0,0.0
21/04/2022,17:38:49,36.897393,-0.9609770396491513,18.30551357846707,2.8034744262695312,3.5134963989257812,-0.1890563666820526,0.003723506350070238,0.08210987597703934,0.37220799922943115,3.8442933559417725,1.1123125553131104,47.64163278577809,-122.14017509019291,124.80347442626953,-4.637074955348481,-2.2687473198176478,-26.268416117429478,-0.8967305339419278,-0.4425769418939774,0.0,-0.8967305339419278,-0.4425769418939774,0.0,0.7224874342465797,0.4075562805062104,0.006573488395261506,0.59652557373047,-0.8967305339419278,-0.4425769418939774,0.0,0.0,0.0,0.0,0.0,0.0,0.0
