date,fly_time,fly_time_s,x,y,z,z_max,vx,vy,vz,vx_max,vy_max,vz_max,latitude,longitude,altitude,pitch,roll,yaw,cx,cy,cz,scx,scy,scz,d,dx,dy,dz,gc_pow_x,gc_pow_y,gc_pow_z,gpc_pow_x,gpc_pow_y,gpc_pow_z,gfc_pow_x,gfc_pow_y,gfc_pow_z
22/04/2022,11:40:08,8.183882,1.0828254744410515e-05,-7.099471986293793e-06,1.6783523559570312,1.6783523559570312,8.748765623067811e-08,-1.811076444369064e-08,-0.0315731056034565,8.748765623067811e-08,0,0,47.64146799993505,-122.1401649998569,123.67835235595703,4.984704029535658e-07,5.160643238107253e-07,0.048402291837813916,0.0,0.0,0.0,-0.4309799820151169,-0.006951290032501908,2.9632671605510064,1.7408779717669625,-0.25800811018048747,-0.004161421131943399,1.72164764404297,0.0,0.0,0.0,-0.07384501414157864,-0.0011910486151867675,0.4927561948817514,-0.35713496787353827,-0.005760241417315141,2.4705109656692548
22/04/2022,11:40:08,8.370884,1.0847463272511959e-05,-7.10412859916687e-06,1.672149658203125,1.6783523559570312,1.0134445460607822e-07,-3.293204287047047e-08,-0.031068965792655945,1.0134445460607822e-07,0,0,47.641467999935,-122.14016499985665,123.67205810546875,3.5441566170424935e-07,3.956501218426214e-07,0.048402291837812896,0.0,0.0,0.0,-0.42976476435955036,-0.006931689747734874,2.9638593970712455,1.7470123971699463,-0.25800812930893274,-0.004161421440466717,1.7278503417968762,0.0,0.0,0.0,-0.07360354212112222,-0.0011871539051794078,0.4929143347230134,-0.3561612222384281,-0.005744535842555466,2.470945062348232
22/04/2022,11:40:08,8.551891,1.0866671800613403e-05,-7.1106478571891785e-06,1.666839599609375,1.6783523559570312,1.1046024184224734e-07,-4.374044593191684e-08,-0.025970958173274994,1.1046024184224734e-07,0,0,47.64146799993494,-122.1401649998564,123.66676330566406,2.1264750364936652e-07,2.771472564136937e-07,0.04840229183781219,0.0,0.0,0.0,-0.43047464206501407,-0.006943139388145624,2.963582110086929,1.7522643908833366,-0.25800814840734315,-0.004161421748505534,1.7331604003906262,0.0,0.0,0.0,-0.07339748074419793,-0.0011838303345838373,0.4930449208659832,-0.3570771613208161,-0.005759309053561787,2.470537189220946
22/04/2022,11:40:08,8.709885,1.088390126824379e-05,-7.116235792636871e-06,1.6631393432617188,1.6783523559570312,1.1456665305331626e-07,-4.978986822834486e-08,-0.02241191267967224,1.1456665305331626e-07,0,0,47.64146799993488,-122.14016499985617,123.66307067871094,9.603116905339055e-08,1.7966886416566003e-07,0.04840229183781182,0.0,0.0,0.0,-0.43097385775204344,-0.006951191254065397,2.963376508462898,1.7559243924056271,-0.2580081655422252,-0.004161422024874684,1.7368606567382825,0.0,0.0,0.0,-0.07325425394908656,-0.0011815202249852907,0.49313335240958,-0.35771960380295686,-0.005769671029080106,2.470243156053318
22/04/2022,11:40:09,8.872884,1.0903109796345234e-05,-7.125549018383026e-06,1.659820556640625,1.6783523559570312,1.1559240675751425e-07,-5.336115549425813e-08,-0.019294876605272293,1.1559240675751425e-07,0,0,47.64146799993481,-122.14016499985591,123.65975952148438,-2.5157750078061265e-08,7.836735331579669e-08,0.04840229183781165,0.0,0.0,2.0,-0.43139474676946526,-0.006957979786604332,4.963197487141756,1.7592072179947091,-0.25800818459558333,-0.004161422332186804,1.7401794433593762,0.0,0.0,2.0,-0.07312605033372473,-0.0011794524247374888,0.49321090245363164,-0.35826869643574055,-0.005778527361866843,2.4699865846881246
22/04/2022,11:40:09,9.028883,1.0920455679297447e-05,-7.13299959897995e-06,1.7011260986328125,1.7011260986328125,1.1195758986559667e-07,-5.439435213361321e-08,0.7697321176528931,1.1559240675751425e-07,0,0.7697321176528931,47.64146799993473,-122.14016499985568,123.70112609863281,-1.4634688548184482e-07,-2.2934144720495236e-08,0.0484022918378117,0.0,0.0,4.0,-0.0747385709781458,-0.001205460822228184,4.492121594453808,1.7183591249763415,-0.2580082018168156,-0.004161422609948728,1.6988739013671887,0.0,0.0,4.0,-0.0747385709781458,-0.001205460822228184,0.49212159445380765,-0.0,-0.0,0.0
22/04/2022,11:40:09,9.187885,1.0937685146927834e-05,-7.141381502151489e-06,1.8895111083984375,1.8895111083984375,1.0343501344323158e-07,-5.144291392866762e-08,1.6485933065414429,1.1559240675751425e-07,0,1.6485933065414429,47.641467999934655,-122.14016499985546,123.8944320678711,-2.5550340911287255e-07,-1.3164480827468532e-07,-0.4217486607193431,0.0,0.0,4.0,-0.43924202012332425,-0.0070845487116667095,2.0121080393924196,1.5323714465218714,-0.25800821890664544,-0.004161422885591182,1.5104888916015637,0.0,0.0,4.0,-0.08246416640264363,-0.0013300672000426798,0.48277999760715307,-0.3567778537206806,-0.005754481511624029,-2.4706719582147336
22/04/2022,11:40:09,9.383881,1.0956893675029278e-05,-7.148832082748413e-06,2.3033676147460938,2.3033676147460938,9.655053645474254e-08,-3.3225358464505916e-08,2.690340518951416,1.1559240675751425e-07,0,2.690340518951416,47.641467999934584,-122.1401649998552,124.31140899658203,-1.9874228698411385e-07,-4.250906396600224e-07,-2.5365303798988372,0.0,0.0,0.0,-0.6113676580873295,-0.009860768678828203,-8.081506052134342,1.1265825121585162,-0.2580082379900384,-0.004161423193387748,1.0966323852539075,0.0,0.0,0.0,-0.09924989399197989,-0.0016008047418061395,0.42184950694800943,-0.5121177640953496,-0.008259963937022063,-8.503355559082351
22/04/2022,11:40:09,9.537883,1.0972260497510433e-05,-7.1534886956214905e-06,2.7219696044921875,2.7219696044921875,9.336653761238267e-08,-2.4166187273522155e-08,2.230895519256592,1.1559240675751425e-07,0,2.690340518951416,47.64146799993454,-122.14016499985499,124.72196960449219,-4.4315468671553364e-08,-5.788805039347049e-07,-4.52556091036797,0.0,0.0,0.0,-0.36599913021706065,-0.005903211777694575,-5.3674721209704686,0.7254728068211644,-0.2580082532777772,-0.004161423439964229,0.6780303955078137,0.0,0.0,0.0,-0.0,-0.0,0.0,-0.36599913021706065,-0.005903211777694575,-5.3674721209704686
22/04/2022,11:40:09,9.728881,1.098948996514082e-05,-7.157213985919952e-06,3.0512466430664062,3.0512466430664062,9.178661741771066e-08,-1.1661703602783291e-08,1.2362927198410034,1.1559240675751425e-07,0,2.690340518951416,47.641467999934505,-122.14016499985476,125.0512466430664,-2.930236483476127e-08,-1.0656913809101647e-06,-5.747088812294528,0.0,0.0,-5.0,-0.30165267806827517,-0.004865365775294805,-7.483095521130625,0.4338369383035898,-0.25800827044269414,-0.004161423716817658,0.348753356933595,0.0,0.0,-5.0,-0.0,-0.0,0.0,-0.30165267806827517,-0.004865365775294805,-2.483095521130626
22/04/2022,11:40:10,9.880884,1.1002877727150917e-05,-7.158145308494568e-06,3.1828231811523438,3.1828231811523438,9.006789980503527e-08,2.4791162456239135e-09,0.4925670623779297,1.1559240675751425e-07,2.4791162456239135e-09,2.690340518951416,47.6414679999345,-122.14016499985456,125.18431854248047,2.6382910382971094e-08,-1.107649903696287e-06,-6.230913224990488,0.0,0.0,-5.0,0.0,0.0,-5.0,0.33727045914151016,-0.25800828381195684,-0.004161423932451003,0.2171768188476575,0.0,0.0,-5.0,-0.0,-0.0,0.0,-0.0,-0.0,-0.0
22/04/2022,11:40:10,10.033881,1.1018128134310246e-05,-7.1553513407707214e-06,3.2034835815429688,3.2034835815429688,8.827338859873635e-08,1.6271066272111057e-08,-0.2507082223892212,1.1559240675751425e-07,1.6271066272111057e-08,2.690340518951416,47.64146799993452,-122.14016499985438,125.2027587890625,-7.683923697881669e-08,-1.1505238707413944e-06,-6.4983629675585775,0.0,0.0,-4.0,0.0,0.0,-4.0,0.3243521274489087,-0.25800829910344997,-0.004161424179087936,0.1965164184570325,0.0,0.0,-4.0,-0.0,-0.0,0.0,-0.0,-0.0,0.0
22/04/2022,11:40:10,10.219881,1.1033378541469574e-05,-7.150694727897644e-06,3.0729827880859375,3.2034835815429688,8.366924220126748e-08,3.8181749317800495e-08,-1.1536693572998047,1.1559240675751425e-07,3.8181749317800495e-08,2.690340518951416,47.64146799993456,-122.14016499985418,125.07298278808594,-1.3309030513863873e-07,-1.6155331716762253e-06,-6.665102610449556,0.0,0.0,0.0,-0.2568810589830301,-0.0041432428868231445,2.622844537513953,0.41656435835741035,-0.25800831442497796,-0.004161424426209259,0.32701721191406374,0.0,0.0,0.0,-0.0,-0.0,0.0,-0.2568810589830301,-0.0041432428868231445,2.622844537513953
22/04/2022,11:40:10,10.381883,1.1046649888157845e-05,-7.141381502151489e-06,2.9203643798828125,3.2034835815429688,7.14075127916658e-08,1.0276814776943866e-07,-0.5901838541030884,1.1559240675751425e-07,1.0276814776943866e-07,2.690340518951416,47.641467999934655,-122.14016499985401,124.9185791015625,-9.812940784987434e-08,-1.7948249722077172e-06,-6.733063981363724,-0.586219259649001,4.965515781831388,0.0,-0.9676565520335656,4.959363567438088,2.454133250926221,0.5446429498089752,-0.25800832784304734,-0.004161424642629863,0.47963562011718874,-0.586219259649001,4.965515781831388,0.0,-0.0,-0.0,0.0,-0.38143729238456464,-0.0061522143932994135,2.454133250926221
22/04/2022,11:40:10,10.537882,-0.0009898972930386662,0.0077106161043047905,2.8576736450195312,3.2034835815429688,-0.027445103973150253,0.23242636024951935,-0.048285048454999924,1.1559240675751425e-07,0.23242636024951935,2.690340518951416,47.64146806946916,-122.14016501203932,124.85767364501953,0.009753585987389188,-15.779010537129345,-6.77110954643615,-0.5895163338258619,4.9651254256214425,0.0,-0.5895163338258619,4.9651254256214425,0.0,0.6002099532443342,-0.2571320918085894,-0.004147291803364372,0.54232635498047,-0.5895163338258619,4.9651254256214425,0.0,-0.0,-0.0,0.0,-0.0,-0.0,0.0
22/04/2022,11:40:10,10.688881,-0.01312974956817925,0.10124447103589773,2.9091339111328125,3.2034835815429688,-0.1278107613325119,1.0805836915969849,0.7415953278541565,1.1559240675751425e-07,1.0805836915969849,2.690340518951416,47.64146891217994,-122.14016515983812,124.90913391113281,0.012091793934035715,-23.380974572011702,-6.793991682649695,-0.591499202034161,4.964889595347811,0.0,-0.591499202034161,4.964889595347811,0.0,0.5492989686251668,-0.24650361504919238,-0.003975864758858028,0.49086608886718874,-0.591499202034161,4.964889595347811,0.0,-0.0,-0.0,0.0,-0.0,-0.0,-0.0
22/04/2022,11:40:11,10.843883,-0.04199421685189009,0.3232259079813957,3.0628738403320312,3.2034835815429688,-0.2271537035703659,1.916733980178833,1.2169971466064453,1.1559240675751425e-07,1.916733980178833,2.690340518951416,47.64147096366122,-122.14016552037134,125.06652069091797,0.005409584716102413,-23.4564799813959,-6.805525199277272,-0.5924986115922188,4.96477042724649,0.0,-0.38907627953930224,4.968051432602181,-2.4922697188371514,0.4032465165169216,-0.22122606936701716,-0.003568162409145481,0.33712615966797,-0.5924986115922188,4.96477042724649,0.0,-0.0,-0.0,0.0,0.2034223320529166,0.0032810053556907005,-2.4922697188371514
22/04/2022,11:40:11,11.026883,-0.09581380558665842,0.7364602629095316,3.2653579711914062,3.2653579711914062,-0.29985445737838745,2.5258848667144775,0.908536434173584,1.1559240675751425e-07,2.5258848667144775,2.690340518951416,47.64147470325644,-122.14016617873496,125.2680892944336,-0.002884554010133431,-20.376999313509305,-6.8128474612486745,-0.5931330923984095,4.96469466681506,0.0,-0.09458178248330495,4.97273581697498,-2.4382363918167815,0.22009437573887294,-0.17408381472698986,-0.002807803463338532,0.134642028808595,-0.5931330923984095,4.96469466681506,0.0,-0.0,-0.0,0.0,0.49855130991510455,0.008041150159920116,-2.4382363918167815
22/04/2022,11:40:11,11.17888,-0.1500487825833261,1.1523321513086557,3.38275146484375,3.38275146484375,-0.34857630729675293,2.9326255321502686,0.624093770980835,1.1559240675751425e-07,2.9326255321502686,2.690340518951416,47.64147838220087,-122.14016682734932,125.38275146484375,-0.0074094914420410945,-17.239135776945158,-6.81607702138332,-0.5934129337081494,4.964661226116832,0.0,0.2512070819535638,4.978284129595246,-2.1849901674640977,0.12775501160152014,-0.12656880965691314,-0.0020414324138213757,0.017248535156251243,-0.5934129337081494,4.964661226116832,0.0,-0.0,-0.0,0.0,0.8446200156617132,0.013622903478413825,-2.1849901674640977
22/04/2022,11:40:11,11.337883,-0.21190731914248317,1.626141445711255,3.4613265991210938,3.4613265991210938,-0.39077824354171753,3.2839465141296387,0.4063124358654022,1.1559240675751425e-07,3.2839465141296387,2.690340518951416,47.64148273952699,-122.14016759648507,125.46255493164062,-0.00969433491733144,-14.274452307822274,-6.818078335714974,-0.5935863466018179,4.964640495456635,-4.0,0.5918075453299994,4.983759751778117,-5.717808221316074,0.09486421087979295,-0.07236645899880167,-0.0011672009515937276,-0.06132659912109251,-0.5935863466018179,4.964640495456635,-4.0,-0.0,-0.0,-0.0,1.1853938919318172,0.019119256321481794,-1.7178082213160737
22/04/2022,11:40:11,11.519879,-0.29333581461105496,2.2492724750190973,3.4771728515625,3.4771728515625,-0.4203649163246155,3.5296592712402344,-0.3756713271141052,1.1559240675751425e-07,3.5296592712402344,2.690340518951416,47.64148836045805,-122.140168589669,125.47606658935547,-0.013607321190543099,-15.316995516468413,-6.8187685191612495,-0.593646150486994,4.964633344770989,0.0,-0.593646150486994,4.964633344770989,0.0,0.07717942334064692,-0.0010070278507903208,-1.6242384690556833e-05,-0.07717285156249876,-0.593646150486994,4.964633344770989,0.0,-0.0,-0.0,-0.0,0.0,0.0,0.0
22/04/2022,11:40:11,11.677881,-0.3686045843642205,2.8247637264430523,3.413604736328125,3.4771728515625,-0.46383383870124817,3.8901562690734863,-0.3181321620941162,1.1559240675751425e-07,3.8901562690734863,2.690340518951416,47.641493555204136,-122.14016950843153,125.41265106201172,-0.010744353529345175,-10.795513382337306,-6.820181489068805,-1.5866923236892216,4.845864986764045,-1.0,0.11435951025124425,4.873301306666312,0.22175153434404993,0.06638002960622387,0.06496246326569421,0.00104778166557562,-0.013604736328123757,-1.5866923236892216,4.845864986764045,-1.0,0.0,0.0,-0.0,1.7010518339404659,0.027436319902266266,1.22175153434405
22/04/2022,11:40:12,11.829881,-0.4486539145000279,3.4308475432917476,3.3344192504882812,3.4771728515625,-0.5001519322395325,4.02866268157959,-0.8794364333152771,1.1559240675751425e-07,4.02866268157959,2.690340518951416,47.64149912834523,-122.14017050605395,125.32913970947266,-3.5707851283335574,-8.194812307854345,-6.872664864098876,-1.5911305070211663,4.844409531576225,-5.0,-0.3844910878854577,4.863871457691314,-2.8102326773364275,0.15029800712903862,0.13521797130143537,0.002180935020990038,0.06558074951172,-1.5911305070211663,4.844409531576225,-5.0,0.0,0.0,0.0,1.2066394191357086,0.019461926115089075,2.1897673226635725
22/04/2022,11:40:12,11.980884,-0.5354526730952784,4.0389983262866735,3.1500167846679688,3.4771728515625,-0.5755206346511841,4.108828544616699,-1.606341004371643,1.1559240675751425e-07,4.108828544616699,2.690340518951416,47.6415045019433,-122.1401715547214,125.14521789550781,-6.397363847208685,-8.522947929310273,-6.824277041824609,-1.587038706330273,4.845751556220101,0.0,0.03652219508145049,4.8719380223719,4.569042862162644,0.32791308735622016,0.21218782292548155,0.0034223842407339333,0.2499832153320325,-1.587038706330273,4.845751556220101,0.0,0.0,0.0,0.0,1.6235609014117236,0.026186466151799176,4.569042862162644
22/04/2022,11:40:12,12.140883,-0.6483793017687276,4.691519148647785,2.9090728759765625,3.4771728515625,-0.8178015351295471,4.31608247756958,-1.1266298294067383,1.1559240675751425e-07,4.31608247756958,2.690340518951416,47.64151038931868,-122.14017297131198,124.9056625366211,-5.30260222239464,-5.789917222563305,-7.118549647545775,-1.611905570243702,4.837536607883947,-1.0,0.3528547643387634,4.869226290699791,1.9779200557993795,0.5830825376752825,0.31456328967043595,0.0050736014462966494,0.49092712402343874,-1.611905570243702,4.837536607883947,-1.0,0.0,0.0,0.0,1.9647603345824654,0.031689682815843764,2.9779200557993795
22/04/2022,11:40:12,12.291885,-0.793030253960751,5.357733317650855,2.74798583984375,3.4771728515625,-0.9533129930496216,4.406386375427246,-1.1974689960479736,1.1559240675751425e-07,4.406386375427246,2.690340518951416,47.641516399980226,-122.14017480405013,124.74439239501953,-4.495663436466823,-4.292049451644516,-7.253557233573348,-1.6232999024219508,4.833725005293214,-5.0,1.4625900066577198,4.883497423181596,-0.7501782873551832,0.7913708702908522,0.44843402614584493,0.007232806873319397,0.6520141601562512,-1.6232999024219508,4.833725005293214,-5.0,0.0,0.0,0.0,3.0858899090796705,0.049772417888381576,4.249821712644817
22/04/2022,11:40:12,12.450881,-0.9565540623152629,6.045838753692806,2.5286483764648438,3.4771728515625,-1.0364359617233276,4.446173191070557,-1.7593353986740112,1.1559240675751425e-07,4.446173191070557,2.690340518951416,47.64152260808405,-122.14017688266125,124.52339172363281,-4.973803408279498,-4.462926928045989,-7.242873952839026,-1.6223985854635221,4.834027599206066,0.0,7.063556441065613,4.974123648021054,15.005751348657611,1.0584573175070338,0.6008197172460121,0.009690640600741318,0.8713516235351575,-1.6223985854635221,4.834027599206066,0.0,0.23643904280365213,0.0038135329484456824,0.34290077023171855,8.449515983725483,0.13628251586654258,14.662850578425893
22/04/2022,11:40:12,12.63988,-1.1752486956538633,6.878271888010204,2.2310562133789062,3.4771728515625,-1.2336194515228271,4.557852268218994,-1.042168140411377,1.1559240675751425e-07,4.557852268218994,2.690340518951416,47.6415301220826,-122.14017967892279,124.22789764404297,-3.1851858720429043,-2.8574196214042273,-7.363867615053709,-1.632603159095356,4.830590742850388,0.0,5.861160833720018,4.95145790402483,7.911439366815703,1.4199614099632973,0.8060346239367536,0.013000558450593225,1.168943786621095,-1.632603159095356,4.830590742850388,0.0,0.2727450670000133,0.004399113983871327,0.3955458511745479,7.221018925815361,0.11646804719056962,7.515893515641155
22/04/2022,11:40:12,12.818882,-1.4238714282400906,7.715399952605367,2.1303863525390625,3.4771728515625,-1.3621209859848022,4.623394012451172,-0.2628716826438904,1.1559240675751425e-07,4.623394012451172,2.690340518951416,47.641537555492576,-122.14018281576008,124.13038635253906,-2.1424941896669214,-1.9834836972791323,-7.410696160360062,-1.2496085465141262,1.854313479560253,0.0,5.089096068921429,1.9565506507769503,3.3746870147824226,1.6419737484749666,1.0410941412466517,0.016791840987849582,1.2696136474609387,-1.2496085465141262,1.854313479560253,0.0,0.31411537360571135,0.005066376993640614,0.3830634996462048,6.024589241829844,0.09717079422305686,2.991623515136218
22/04/2022,11:40:13,12.972883,-1.6440222366945818,8.415603045374155,2.100738525390625,3.4771728515625,-1.403525710105896,4.49613094329834,0.017604995518922806,1.1559240675751425e-07,4.623394012451172,2.690340518951416,47.64154399826792,-122.1401856992062,124.10077667236328,-1.6817256818169999,8.991558000012898,-7.77358786583981,0.0,0.0,0.0,7.1991644786022215,0.11611555610647799,2.574576569233694,1.8029779203642187,1.2498970322602796,0.02015962955258388,1.2992614746093762,0.0,0.0,0.0,0.34608998526116286,0.005582096536470015,0.35975874251401363,6.853074493341059,0.11053345957000797,2.2148178267196803
22/04/2022,11:40:13,13.159879,-1.904286790988408,9.18092593178153,2.1634597778320312,3.4771728515625,-1.2814384698867798,3.7566545009613037,0.7917327284812927,1.1559240675751425e-07,4.623394012451172,2.690340518951416,47.641550889855296,-122.14018904612168,124.16580963134766,2.5772387556413587,21.304480737576917,-7.7963836756749485,-0.1356530393641176,0.9907564044260714,0.0,6.4586103496911065,1.0971154913463093,-0.2285652422969887,1.9423902583577144,1.497753190322233,0.024157309521324777,1.23654022216797,-0.1356530393641176,0.9907564044260714,0.0,0.385529094838131,0.006218211207066228,0.31829158212695574,6.208734294217093,0.10014087571317158,-0.5468568244239445
22/04/2022,11:40:13,13.334882,-2.11798324494157,9.773024022579193,2.33245849609375,3.4771728515625,-1.0716224908828735,3.0604453086853027,0.8690267205238342,1.1559240675751425e-07,4.623394012451172,2.690340518951416,47.64155621923729,-122.14019179504626,124.33507537841797,3.864849564298057,19.065864819078463,-8.020641023057774,-0.41858951930760624,2.9706536005273025,0.0,5.363616410355136,3.0639149864896082,-0.6935444081526223,2.009149099297826,1.7018465810547423,0.027449138404108453,1.0675415039062512,-0.41858951930760624,2.9706536005273025,0.0,0.4235242775949632,0.006831036735402559,0.26567009581105844,5.358681652067779,0.08643034922690308,-0.9592145039636807
22/04/2022,11:40:13,13.51588,-2.3060918184928596,10.293247617781162,2.4295272827148438,3.4771728515625,-0.9625750780105591,2.807523488998413,0.10563196241855621,1.1559240675751425e-07,4.623394012451172,2.690340518951416,47.64156091142873,-122.14019421799777,124.42986297607422,3.8787458442036473,7.340299135235007,-8.871786714193949,-0.771119407859827,4.940179638314978,0.0,4.945236634556477,5.032378929321692,1.3064514029373921,2.1172735144637196,1.8815177107891081,0.030347059851436597,0.9704727172851575,-0.771119407859827,4.940179638314978,0.0,0.4444689425491094,0.007168853912082261,0.2292537455008004,5.271887099867195,0.08503043709463173,1.0771976574365918
22/04/2022,11:40:13,13.700884,-2.475927766878158,10.79134305473417,2.4230194091796875,3.4771728515625,-0.8570845127105713,2.8317501544952393,0.04636826738715172,1.1559240675751425e-07,4.623394012451172,2.690340518951416,47.64156541017406,-122.14019640112285,124.42314910888672,3.3831075231970344,-6.382667176440402,-9.76729818485882,-0.8482352281628067,4.92752442893017,0.0,4.735321154893839,5.017581789947214,1.4541385269519087,2.265074230063714,2.0432777806205773,0.032956093235814166,0.9769805908203137,-0.8482352281628067,4.92752442893017,0.0,0.45272006377766694,0.007301936512542661,0.21646528904718068,5.130836319278979,0.08275542450450145,1.237673237904728
22/04/2022,11:40:14,13.879893,-2.63601208885666,11.343726157210767,2.4573593139648438,3.4771728515625,-0.8062930703163147,3.1608469486236572,0.26597869396209717,1.1559240675751425e-07,4.623394012451172,2.690340518951416,47.64157031952828,-122.14019841633502,124.45735931396484,2.4367319781495476,-10.758620680242425,-10.019885142170043,0.0,0.0,0.0,5.512243518288276,0.08890715352077694,0.7591855284109308,2.388571595283899,2.1944133804467967,0.03539376420075335,0.9426406860351575,0.0,0.0,0.0,0.4647468925136942,0.007495917621188314,0.19963846989604966,5.047496625774582,0.08141123589958862,0.5595470585148812
22/04/2022,11:40:14,14.025881,-2.7564179562032223,11.809003534726799,2.4757537841796875,3.4771728515625,-0.782489001750946,3.265394687652588,-0.058353058993816376,1.1559240675751425e-07,4.623394012451172,2.690340518951416,47.64157460555334,-122.14019998184166,124.47557067871094,1.9110466470609584,4.240132491848425,-9.478933445536288,0.0,0.0,-1.0,6.232365228676303,0.10052201981736276,0.7813911198750054,2.485796036887365,2.3072854107911898,0.037214280819211965,0.9242462158203137,0.0,0.0,-1.0,0.47473524564037084,0.007657020090973564,0.19016817436087402,5.757629983035932,0.0928649997263892,1.5912229455141313
22/04/2022,11:40:14,14.177888,-2.871693560271524,12.274658545851707,2.4579086303710938,3.4771728515625,-0.7089752554893494,3.0545334815979004,-0.2959778904914856,1.1559240675751425e-07,4.623394012451172,2.690340518951416,47.641578718396644,-122.14020141633648,124.4579086303711,1.690701833630919,15.30194969723913,-9.118700181458404,0.0,0.0,0.0,6.70818472043513,0.10819652774894711,2.745811947883942,2.5925637326588675,2.415022422845496,0.03895197456202304,0.9420913696289075,0.0,0.0,0.0,0.4851414349597648,0.007824861854189536,0.1892518904178384,6.223043285475366,0.10037166589475757,2.5565600574661036
22/04/2022,11:40:14,14.370886,-2.9936993587762117,12.780654903501272,2.4679489135742188,3.4771728515625,-0.510168731212616,2.26377272605896,0.5440140962600708,1.1559240675751425e-07,4.623394012451172,2.690340518951416,47.641583282885584,-122.14020296580026,124.46794891357422,1.2578142549632225,16.805504490560445,-9.066263978358196,-0.15757664602708518,0.9875067597879291,0.0,4.458810666832441,1.0619646196727595,-0.00016458608182104428,2.695440848032277,2.528837381305248,0.04078769969847151,0.9320510864257825,-0.15757664602708518,0.9875067597879291,0.0,0.5006505756864152,0.008075009285264716,0.18452428631348639,4.115736737173111,0.06638285059956564,-0.18468887239530743
22/04/2022,11:40:14,14.539883,-3.077886007144116,13.136628977954388,2.5453948974609375,3.4771728515625,-0.4217820465564728,1.895603895187378,0.2474317103624344,1.1559240675751425e-07,4.623394012451172,2.690340518951416,47.64158654503634,-122.14020405085316,124.54615020751953,0.9622536610775582,10.976895998387102,-9.17779296473341,-0.797492878060293,4.935990793087353,0.0,3.5929285277187257,5.006804041567656,0.5799492667507691,2.7440725239099164,2.6072621104886373,0.042052614685298195,0.8546051025390637,-0.797492878060293,4.935990793087353,0.0,0.5142129175379012,0.008293756734481805,0.16854806478855722,3.8762084882411174,0.06251949174582151,0.4114012019622118
22/04/2022,11:40:14,14.690882,-3.138781226472929,13.398425137624145,2.5568313598632812,3.4771728515625,-0.3911849856376648,1.8176674842834473,-0.019834451377391815,1.1559240675751425e-07,4.623394012451172,2.690340518951416,47.64158890422153,-122.14020482160582,124.55675506591797,0.8239532726532488,-4.978708605628665,-9.422742917751105,-0.491152674392235,2.959521760426396,0.0,4.088361197241351,3.0333848873882268,1.2228212722467768,2.794503465851271,2.66392007178914,0.04296645277079314,0.84316864013672,-0.491152674392235,2.959521760426396,0.0,0.5244440402480485,0.00845877484271057,0.1659940074503691,4.055069831385538,0.0654043521191203,1.0568272647964077
22/04/2022,11:40:15,14.865881,-3.213238709839061,13.740889830514789,2.5768508911132812,3.4771728515625,-0.40761852264404297,2.0619707107543945,0.10415808856487274,1.1559240675751425e-07,4.623394012451172,2.690340518951416,47.64159199929395,-122.14020576288546,124.5771713256836,0.6026333562298631,-7.34359614552618,-9.46160712623946,0.0,0.0,-1.0,4.7830134897332215,0.077145378866665,-0.08819922082176901,2.854454403956318,2.732836002894521,0.04407800004668516,0.82314910888672,0.0,0.0,-1.0,0.538421869031287,0.008684223694052884,0.1621763915686134,4.244591620701935,0.06846115517261211,0.7496243876096176
22/04/2022,11:40:15,15.014883,-3.2784580524312332,14.05670750234276,2.5665969848632812,3.4771728515625,-0.40791305899620056,2.1201775074005127,-0.4063302278518677,1.1559240675751425e-07,4.623394012451172,2.690340518951416,47.641594791606146,-122.14020656817895,124.56659698486328,0.49730888539730833,4.241971000776368,-9.354039114302806,0.0,0.0,-5.0,5.951108235134036,0.09598561669570788,-2.3249639882801065,2.91498482387645,2.7929458747465303,0.04504751410881269,0.83340301513672,0.0,0.0,-5.0,0.5524622064629362,0.008910680749401738,0.16485234203010868,5.3986460286711,0.08707493594630614,2.5101836696897846
22/04/2022,11:40:15,15.195883,-3.3524238476529717,14.420304413884878,2.4224166870117188,3.4771728515625,-0.3753550052642822,1.9722093343734741,-1.2454372644424438,1.1559240675751425e-07,4.623394012451172,2.690340518951416,47.641598070171646,-122.14020749914836,124.42241668701172,0.5495617559196804,13.653386571240848,-9.268334824715861,0.0,0.0,-2.0,11.652736854118585,0.18794736861481223,9.026280123144677,3.0237870804182103,2.86102949199406,0.046145636967644066,0.9775833129882825,0.0,0.0,-2.0,0.5746184549681832,0.009268039596260604,0.19634100748835306,11.078118399150402,0.17867932901855163,10.829939115656323
22/04/2022,11:40:15,15.343879,-3.405815471080132,14.684752594679594,2.203521728515625,3.4771728515625,-0.33783140778541565,1.7842236757278442,-1.8794257640838623,1.1559240675751425e-07,4.623394012451172,2.690340518951416,47.64160050280617,-122.1402081843929,124.1978988647461,0.42554252062111025,13.61040818335807,-9.267546438419796,0.0,0.0,0.0,21.793851935434216,0.35151374089408866,30.01234584385821,3.1468549308249507,2.910143045503743,0.04693779105650897,1.1964782714843762,0.0,0.0,0.0,0.6018855562984503,0.009707831553200187,0.24745965362219022,21.191966379135764,0.34180590934088845,29.76488619023602
22/04/2022,11:40:15,15.515055,-3.4611414540559053,14.960206077434123,1.9054794311523438,3.4771728515625,-0.24110591411590576,1.282178521156311,-1.1361207962036133,1.1559240675751425e-07,4.623394012451172,2.690340518951416,47.641602973038204,-122.14020887639046,123.90203857421875,0.259061746610742,9.859693748613651,-9.29064199206614,0.0,0.0,0.0,12.076370085159706,0.19478016266386,12.98033443876299,3.317147954269289,2.9610129967724275,0.047758274141488144,1.4945205688476575,0.0,0.0,0.0,0.6502951426046238,0.010488631332332068,0.32822532947464333,11.426074942555083,0.18429153133152792,12.652109109288347
22/04/2022,11:40:15,15.660052,-3.4921835398999974,15.11557580344379,1.8080062866210938,3.4771728515625,-0.17479737102985382,0.9328080415725708,-0.2372162938117981,1.1559240675751425e-07,4.623394012451172,2.690340518951416,47.641604364497844,-122.14020926402341,123.8072738647461,0.19071573362067457,7.823671543671917,-9.299434827588717,0.0,0.0,0.0,5.713016443481914,0.09214542650776994,3.505481806913365,3.387348308201116,2.9895416976754423,0.048218414478633065,1.5919937133789075,0.0,0.0,0.0,0.676948891240906,0.010918530503884877,0.36048949575526,5.036067552241008,0.08122689600388507,3.144992311158105
22/04/2022,11:40:16,15.839053,-3.521082007442601,15.26058547012508,1.79010009765625,3.4771728515625,-0.13091552257537842,0.699770987033844,-0.05903404578566551,1.1559240675751425e-07,4.623394012451172,2.690340518951416,47.64160566567657,-122.14020962555828,123.7899169921875,0.1385324872879538,5.974070653606501,-9.305404651662796,0.0,0.0,0.0,5.017003305152282,0.08091940814761979,2.665163783684341,3.41920598636688,3.016094392057634,0.04864668374286474,1.6098999023437512,0.0,0.0,0.0,0.6932001256391004,0.01118064718772735,0.3700092468955257,4.323803179513182,0.06973876095989244,2.2951545367888153
22/04/2022,11:40:16,16.016578,-3.5428562260931358,15.369945435784757,1.7790756225585938,3.4771728515625,-0.1013493463397026,0.5420528054237366,-0.06591024249792099,1.1559240675751425e-07,4.623394012451172,2.690340518951416,47.64160664748489,-122.14020989809198,123.77887725830078,0.10451197662995299,4.61373509988679,-9.30868385688806,0.0,0.0,0.0,4.937846604379409,0.07964268716740507,2.679546492525501,3.4420479699042024,3.036099536042486,0.04896934735552172,1.6209243774414075,0.0,0.0,0.0,0.7055386069095086,0.011379654950152843,0.3766756371421117,4.232307997469901,0.06826303221725222,2.3028708553833894
22/04/2022,11:40:16,16.157575,-3.556630522827618,15.439151901751757,1.769622802734375,3.4771728515625,-0.08268409967422485,0.4423099756240845,-0.06744573265314102,1.1559240675751425e-07,4.623394012451172,2.690340518951416,47.64160725684857,-122.14021006717596,123.76962280273438,0.08446150717374272,3.7627211642381764,-9.31028599704959,0.0,0.0,0.0,4.886432469690966,0.07881342693049587,2.683665753128487,3.457665492916696,3.048754307370807,0.04917345657049488,1.6303771972656262,0.0,0.0,0.0,0.7139634647465561,0.01151553975397624,0.38180503748345174,4.17246900494441,0.06729788717651963,2.3018607156450352
22/04/2022,11:40:16,16.308578,-3.56851017230656,15.49883830267936,1.7596435546875,3.4771728515625,-0.06656838953495026,0.3561294376850128,-0.06503407657146454,1.1559240675751425e-07,4.623394012451172,2.690340518951416,47.64160780463102,-122.14021021917223,123.75944519042969,0.06771333814109577,3.031305179382489,-9.311397048276238,0.0,0.0,0.0,4.836817668912756,0.07801318820826537,2.6770333046501134,3.4719987851543475,3.0596684337009874,0.04934949086614182,1.6403564453125012,0.0,0.0,0.0,0.7216923314564104,0.011640198894457493,0.3869153449431643,4.1151253374563455,0.06637298931380788,2.290117959706949
22/04/2022,11:40:16,16.576576,-3.5842146875802428,15.577759918756783,1.743377685546875,3.4771728515625,-0.045222580432891846,0.2419378012418747,-0.05600747838616371,1.1559240675751425e-07,4.623394012451172,2.690340518951416,47.64160851316041,-122.14021041573196,123.74320983886719,0.045962712466726854,2.0638979607475534,-9.3124931920221,0.0,0.0,0.0,4.763620556991168,0.07683258962888471,2.6532849768802027,3.4924094464769997,3.0740962663447418,0.04958219784426987,1.6566223144531262,0.0,0.0,0.0,0.7326989343535634,0.011817724747638082,0.39484950998929397,4.030921622637605,0.06501486488124664,2.2584354668909086
22/04/2022,11:40:16,16.740576,-3.591284546768293,15.613285694271326,1.734649658203125,3.4771728515625,-0.03559664636850357,0.19043788313865662,-0.049564436078071594,1.1559240675751425e-07,4.623394012451172,2.690340518951416,47.641608832074844,-122.14021050421599,123.73450469970703,0.03621914576670062,1.6270954381038725,-9.312848302329508,0.0,0.0,0.0,4.72796574324814,0.0762575119878727,2.6370548750129204,3.5022712875612956,3.0805914394622875,0.04968695870100248,1.6653503417968762,0.0,0.0,0.0,0.7380140448636271,0.0119034523365096,0.3989662264591197,3.989951698384513,0.06435405965136311,2.2380886485538007
22/04/2022,11:40:17,16.912582,-3.5971150413388386,15.642585647292435,1.7265853881835938,3.4771728515625,-0.027648407965898514,0.14791449904441833,-0.042968541383743286,1.1559240675751425e-07,4.623394012451172,2.690340518951416,47.64160909112769,-122.14021057608115,123.7265853881836,0.028173562307168908,1.265757249408992,-9.313079460591002,0.0,0.0,0.0,4.697308939524518,0.07576304741168129,2.621025275747705,3.5108216510939254,3.085947960669536,0.0497733542043477,1.6734146118164075,0.0,0.0,0.0,0.7426142233219404,0.011977648763257187,0.40269684002707806,3.9546947162025776,0.0637853986484241,2.218328435720627
22/04/2022,11:40:17,17.093578,-3.601574960979633,15.664993694983423,1.7197418212890625,3.4771728515625,-0.021558227017521858,0.11536259204149246,-0.03702056035399437,1.1559240675751425e-07,4.623394012451172,2.690340518951416,47.641609296285566,-122.14021063300483,123.7196273803711,0.04957862589002993,0.987564579722259,-7.751789800438839,0.0,0.0,1.0,4.673052863715774,0.07537182038250737,3.6070750300445056,3.5176884534669655,3.0900453942566286,0.04983944184284539,1.6802581787109387,0.0,0.0,1.0,0.7462980489431836,0.012037065305534386,0.40581067282167516,3.92675481477259,0.06333475507697298,2.2012643572228305
22/04/2022,11:40:17,17.280578,-3.605168951675296,15.683088974095881,1.7660446166992188,3.4771728515625,-0.014539962634444237,0.0781717374920845,0.7412821054458618,1.1559240675751425e-07,4.623394012451172,2.690340518951416,47.641609456329014,-122.14021067731693,123.76604461669922,0.1024406478043652,0.6890629532105658,-2.2944469515048183,0.0,0.0,0.0,3.9454841216889474,0.06363684067239864,0.5462821041269378,3.498727350902518,3.093346666799972,0.04989268817418946,1.6339553833007825,0.0,0.0,0.0,0.7397040480770586,0.011930710452854914,0.3907235565857922,3.205780073611889,0.051706130219543726,0.1555585475411456
22/04/2022,11:40:17,17.454576,-3.6076014353893697,15.69539777096361,1.8798904418945312,3.4771728515625,-0.01197628304362297,0.06466478854417801,0.2404218316078186,1.1559240675751425e-07,4.623394012451172,2.690340518951416,47.64160956905642,-122.14021070836489,123.88063049316406,0.13282213443791488,0.5398168401988679,3.121429009523851,0.0,0.0,0.0,4.103091584734401,0.06617889652797013,1.4816773573053246,3.449034898647051,3.0955800405297773,0.04992871033112323,1.52010955810547,0.0,0.0,0.0,0.7218347222557913,0.011642495520254183,0.3544627650737951,3.3812568624786103,0.054536401007715944,1.1272145922315295
22/04/2022,11:40:17,17.606578,-3.6093667880631983,15.704358880408108,1.8892135620117188,3.4771728515625,-0.009999956004321575,0.05416800454258919,-0.013788747601211071,1.1559240675751425e-07,4.623394012451172,2.690340518951416,47.64160964956667,-122.14021073046051,123.88917541503906,0.12730427315698276,0.43903542914653426,5.545116988207892,0.0,0.0,0.0,4.400969986359335,0.07098338687676373,2.1688123793871132,3.4463925630648418,3.0972004376409963,0.049954845768404255,1.5107864379882825,0.0,0.0,0.0,0.7212732208186734,0.011633439045462726,0.35183057152314917,3.679696765540661,0.05934994783130101,1.8169818078639641
22/04/2022,11:40:17,17.778576,-3.611032459884882,15.712844690307975,1.8855209350585938,3.4771728515625,-0.007742841728031635,0.04209108650684357,-0.022148335352540016,1.1559240675751425e-07,4.623394012451172,2.690340518951416,47.641609724618384,-122.1402107509803,123.8855209350586,0.10816810109711092,0.3415362507331927,7.029303015057965,0.6118847469299786,4.962418468496429,0.0,5.023890836353135,5.033579857035506,2.20065122161848,3.449386211583058,3.0987288439527676,0.04997949748310759,1.5144790649414075,0.6118847469299786,4.962418468496429,0.0,0.7226942230567561,0.011656358436398928,0.35321105081830645,3.6893118663664,0.059505030102678026,1.8474401708001738
22/04/2022,11:40:18,17.93458,-3.6113022200297564,15.726069459691644,1.8966827392578125,3.4771728515625,0.022423235699534416,0.25974974036216736,0.3815556466579437,0.022423235699534416,4.623394012451172,2.690340518951416,47.64160984362507,-122.14021075261908,123.89668273925781,-0.08435296963022047,-15.685742285070745,7.689419274884905,0.6690158988154726,4.955039629219137,0.0,4.528573010820945,5.0172905503805145,1.112582017160002,3.444550925820813,3.098785286682315,0.049980407849712805,1.5033172607421887,0.6690158988154726,4.955039629219137,0.0,0.7209896339687767,0.011628865064012072,0.3497745281738756,3.1385674780366952,0.05062205609736429,0.7628074889861264
22/04/2022,11:40:18,18.08158,-3.602473159902729,15.813793508335948,2.001068115234375,3.4771728515625,0.12568260729312897,1.0441645383834839,1.0882575511932373,0.12568260729312897,4.623394012451172,2.690340518951416,47.641610659866394,-122.14021061716063,124.00431060791016,-0.1561889000957798,-23.683723153015784,8.086910536776184,0.7033752658483218,4.950279106817393,0.0,4.175412204705629,5.006279702605414,-0.4513938366131593,3.3909579668816052,3.0885439867748405,0.049815225593143,1.3989318847656262,0.7033752658483218,4.950279106817393,0.0,0.7005257524968137,0.01129880245962612,0.3172976701848957,2.7715111863604935,0.04470179332839482,-0.768691506798055
22/04/2022,11:40:18,18.233578,-3.576879297499545,16.03728693909943,2.2087020874023438,3.4771728515625,0.24545378983020782,1.9089411497116089,1.5521562099456787,0.24545378983020782,4.623394012451172,2.690340518951416,47.64161269140906,-122.14021023864723,124.21336364746094,-0.06727316534519824,-24.21157395094947,8.315981060291206,0.7231609800651893,4.947427432202635,0.0,3.9838098846262104,5.000018543566518,-1.724158593948746,3.283483862719521,3.0593529855303214,0.049344402992421266,1.1912979125976575,0.7231609800651893,4.947427432202635,0.0,0.6628698293314322,0.010691448860183682,0.2581184478356671,2.597779075229589,0.04189966250369957,-1.982277041784413
22/04/2022,11:40:18,18.415578,-3.529066846240312,16.435433389618993,2.4618911743164062,3.4771728515625,0.332793653011322,2.501326084136963,1.2036652565002441,0.332793653011322,4.623394012451172,2.690340518951416,47.641616284681746,-122.14020953987757,124.46550750732422,0.072074842967727,-21.286236717962378,8.45593548068507,0.7352437206358138,4.9456462339380485,0.0,3.593361057000432,4.991744900653604,-1.2602982787012924,3.1485268587399906,3.005132922442492,0.04846988584584366,0.938108825683595,0.7352437206358138,4.9456462339380485,0.0,0.6218322234391116,0.010029551990952798,0.19411663708657373,2.236285112925507,0.036069114724602294,-1.454414915787866
22/04/2022,11:40:18,18.595581,-3.4668658945010975,16.936810242012143,2.6457443237304688,3.4771728515625,0.4076414406299591,2.9811618328094482,0.8072994351387024,0.4076414406299591,4.623394012451172,2.690340518951416,47.641620802168134,-122.14020863483339,124.6481704711914,0.16532403092470485,-17.381295552597262,8.53047206157399,0.7416769311299297,4.944685564303325,0.0,3.635978916263561,4.9913678543861195,-0.8278868450634924,3.0306049388873126,2.9348635275572086,0.04733650850898741,0.7542556762695325,0.7416769311299297,4.944685564303325,0.0,0.5902114113491195,0.009519538892727768,0.1516834779638481,2.304090573784512,0.03716275119006714,-0.9795703230273405
22/04/2022,11:40:18,18.778707,-3.3926272452808917,17.519152563996613,2.766143798828125,3.4771728515625,0.47348612546920776,3.3844363689422607,0.5176580548286438,0.47348612546920776,4.623394012451172,2.690340518951416,47.64162604484626,-122.14020755795083,124.7677001953125,0.20537422792285964,-13.750690430322527,8.573139850073149,0.7453589998087811,4.944131871360639,0.0,3.7471376161874783,4.992547655495772,-0.4195752321891863,2.921222006558741,2.8512540108951776,0.04598796791766091,0.6338562011718762,0.7453589998087811,4.944131871360639,0.0,0.5643311692081727,0.009102115632389239,0.12545525924744633,2.4374474471705243,0.03931366850274364,-0.5450304914366326
22/04/2022,11:40:19,18.932704,-3.323914475273341,18.04720774758607,2.8314132690429688,3.4771728515625,0.5199285745620728,3.6593854427337646,0.3559814989566803,0.5199285745620728,4.623394012451172,2.690340518951416,47.64163079617722,-122.14020656341725,124.83248138427734,0.21062404616657818,-11.234725494027744,8.594819006500199,0.7472296707303243,4.943849493985456,0.0,3.7566312907859785,4.992388229792799,-0.10653472498209608,2.8320689602678875,2.7740443075683707,0.04474265012206757,0.5685867309570325,0.7472296707303243,4.943849493985456,0.0,0.5461828582434928,0.008809400939410598,0.11194930269360227,2.4632187618121613,0.039729334867932085,-0.21848402767569836
22/04/2022,11:40:19,19.114747,-3.231979809817858,18.741941190324724,2.8841400146484375,3.4771728515625,0.5671882629394531,3.9313955307006836,0.2262323796749115,0.5671882629394531,4.623394012451172,2.690340518951416,47.64163704468667,-122.14020523511152,124.88481903076172,0.19587794093299937,-8.751651012983508,8.611486577719768,0.7486678246667127,4.943631912704344,0.0,3.6717227634377414,4.990777960103878,0.20959832616085228,2.720632325402836,2.670931088462864,0.04307953368488526,0.5158599853515637,0.7486678246667127,4.943631912704344,0.0,0.5276054348143735,0.008509765077651258,0.10190099364614601,2.3954495039566552,0.03863628232188247,0.10769733251470626
22/04/2022,11:40:19,19.305745,-3.1277016245294362,19.518238640390337,2.9191513061523438,3.4771728515625,0.6064818501472473,4.15191125869751,0.142815500497818,0.6064818501472473,4.623394012451172,2.690340518951416,47.64164391252598,-122.14020375501063,124.91915130615234,0.16962268366070105,-6.752475333634933,8.621759563187926,0.4497325158465224,2.9660985594194873,0.0,3.1987308687591307,3.0104372425309793,0.4580247013302623,2.599357212522626,2.5541623534426403,0.04119616699100703,0.4808486938476575,0.4497325158465224,2.9660985594194873,0.0,0.5124628328886416,0.008265529562719365,0.09647667209088695,2.2365355200239665,0.036073153548772934,0.36154802923937535
22/04/2022,11:40:19,19.492744,-3.0234083592658862,20.28628392983228,2.9267959594726562,3.4771728515625,0.6169979572296143,4.19058084487915,0.029050549492239952,0.6169979572296143,4.623394012451172,2.690340518951416,47.64165081202222,-122.14020225325369,124.92679595947266,0.14514158516693995,2.7094557951777007,8.649439336853124,0.0,0.0,0.0,2.542336814578776,0.04100543249319563,0.8899938598961097,2.483330534726465,2.437511607117936,0.0393147033406116,0.473204040527345,0.0,0.0,0.0,0.5018573839193268,0.008094473934182635,0.09742761476319739,2.0404794306594494,0.03291095855901299,0.7925662451329123
22/04/2022,11:40:19,19.673743,-2.9222721450496465,21.025314768776298,2.9748687744140625,3.4771728515625,0.5500869154930115,3.7121996879577637,0.7159342765808105,0.6169979572296143,4.623394012451172,2.690340518951416,47.64165745079803,-122.14020079780698,124.97486877441406,0.12780791686736265,17.712696362750386,8.686890658332818,0.0,0.0,0.0,2.2966644898968123,0.037042975643491474,-1.5494585430561238,2.363339256463716,2.3244849440589626,0.03749169264611041,0.42513122558593874,0.0,0.0,0.0,0.4964975647451961,0.008008025237825338,0.09080575838533159,1.8001669251516164,0.029034950405666133,-1.6402643014414555
22/04/2022,11:40:20,19.854746,-2.841110856621526,21.615364992059767,3.1700286865234375,3.4771728515625,0.4266353249549866,2.8714208602905273,1.2459657192230225,0.6169979572296143,4.623394012451172,2.690340518951416,47.64166282876725,-122.14019961316653,125.17376708984375,0.10416466801796993,21.17469676331415,8.695615168598632,0.4535555118574549,2.9655163795979482,0.0,2.243771341279005,2.994390828459583,-2.216317321221546,2.2459258091980145,2.233830299959803,0.036029520967087336,0.22997131347656374,0.4535555118574549,2.9655163795979482,0.0,0.49878657005568006,0.008044944678316021,0.05134973890462446,1.29142925936587,0.020829504183318664,-2.26766706012617
22/04/2022,11:40:20,20.033746,-2.776983043877408,22.080775309354067,3.3413162231445312,3.4771728515625,0.38098081946372986,2.5608139038085938,0.5631686449050903,0.6169979572296143,4.623394012451172,2.690340518951416,47.6416670010495,-122.14019869263034,125.34302520751953,0.08642924318127938,7.807169491882491,8.673504797144144,0.0,0.0,0.0,2.431669750691829,0.03922047984986354,-1.5511936174631542,2.163291832883863,2.1622144997359696,0.034874427415093834,0.05868377685546999,0.0,0.0,0.0,0.5001861849519534,0.008067519112127716,0.01357534808294625,1.9314835657398757,0.031152960737735824,-1.5647689655461006
22/04/2022,11:40:20,20.217743,-2.715639920439571,22.524833938106894,3.406494140625,3.4771728515625,0.3431187868118286,2.2985973358154297,0.38139405846595764,0.6169979572296143,4.623394012451172,2.690340518951416,47.64167098301219,-122.14019781196116,125.40763092041016,0.0668058583516029,12.134023294525592,8.67919507408941,0.0,0.0,0.0,2.623072329270327,0.042307618214030174,-1.2262845149489159,2.0940093465395933,2.0937269570889683,0.0337697896304654,-0.0064941406249987566,0.0,0.0,0.0,0.5000156440393964,0.00806476845224789,-0.0015509051436228799,2.1230566852309307,0.03424284976178228,-1.224733609805293
22/04/2022,11:40:20,20.359746,-2.6722575842868537,22.837991228327155,3.4691314697265625,3.4771728515625,0.29135066270828247,1.9488062858581543,0.44087618589401245,0.6169979572296143,4.623394012451172,2.690340518951416,47.64167378664579,-122.14019719028468,125.47045135498047,0.0529589214401883,13.520336455738073,8.680922417219806,0.0,0.0,-3.0,2.5554863640854126,0.041217522001374705,-4.413303110788041,2.0467401533396723,2.0453062933270174,0.03298881118269392,-0.06913146972656126,0.0,0.0,-3.0,0.499659924939387,0.008059031047409489,-0.016888534048528574,2.0558264391460255,0.03315849095396522,-1.3964145767395126
22/04/2022,11:40:20,20.511745,-2.634934081812389,23.107133593410254,3.5029754638671875,3.5029754638671875,0.25861066579818726,1.7290230989456177,-0.12868474423885345,0.6169979572296143,4.623394012451172,2.690340518951416,47.64167619835846,-122.14019665501317,125.50260925292969,0.051645914230570814,15.227139092906539,8.682603433701608,0.0,0.0,-5.0,2.896908255220029,0.046724326697092124,-4.766938276950956,2.0065572901859863,2.003652620987097,0.03231697775785847,-0.10297546386718626,0.0,0.0,-5.0,0.4992762339189529,0.00805284248256427,-0.02565973824361696,2.3976320213010758,0.03867148421452785,0.25872146129266094
22/04/2022,11:40:20,20.687744,-2.5959824707824737,23.387924597598612,3.4082717895507812,3.5029754638671875,0.22184869647026062,1.4829342365264893,-0.9849931597709656,0.6169979572296143,4.623394012451172,2.690340518951416,47.64167871404403,-122.14019609649566,125.40534210205078,0.053474655063084235,17.026486472439583,8.684375045191524,0.0,0.0,-5.0,2.0256597176158206,0.03267193092928368,-2.964321278029553,1.960455831901484,1.9601834311148805,0.03161586179217224,-0.008271789550780007,0.0,0.0,-5.0,0.49992434333536045,0.00806329586024692,-0.002109633666799235,1.52573537428046,0.024608635069036756,2.037788355637246
22/04/2022,11:40:21,20.868743,-2.562770299613476,23.627300535328686,3.1623001098632812,3.5029754638671875,0.1815483272075653,1.2134901285171509,-1.812261700630188,0.6169979572296143,4.623394012451172,2.690340518951416,47.64168085707648,-122.14019562064418,125.1568832397461,0.047106411854191184,15.739300552901373,8.683221297752349,0.0,0.0,0.0,3.2354815954880443,0.05218518702398629,7.017325139973569,1.9380025518611417,1.9231199996160786,0.03101806450993294,0.23769989013672,0.0,0.0,0.0,0.496136690433905,0.008002204684416838,0.06132307751595236,2.739344905054139,0.04418298233956945,6.956002062457617
22/04/2022,11:40:21,21.045743,-2.538224481511861,23.804226711392403,2.8628616333007812,3.5029754638671875,0.1069190576672554,0.7148343920707703,-1.136172890663147,0.6169979572296143,4.623394012451172,2.690340518951416,47.641682413621496,-122.14019527504075,124.86286163330078,0.02399883860840766,8.22685778312803,8.678369310439454,0.0,0.0,0.0,2.263983360539803,0.03651586065386294,3.155928655935838,1.9705927766137143,1.8957276595124226,0.03057625257277863,0.53713836669922,0.0,0.0,0.0,0.48100197057216765,0.007758096299550487,0.13628783203948783,1.7829813899676352,0.028757764354312453,3.01964082389635
22/04/2022,11:40:21,21.226744,-2.52451084763743,23.903104085475206,2.7538681030273438,3.5029754638671875,0.06290539354085922,0.42068296670913696,-0.22702471911907196,0.6169979572296143,4.623394012451172,2.690340518951416,47.64168331320007,-122.14019507535919,124.75318145751953,0.01359930128749121,4.617368243612065,8.676980851351491,0.0,0.0,0.0,2.5861213824160654,0.04171163520025455,1.4978567494400907,1.98856675834907,1.880423210668093,0.03032940662367878,0.6461318969726575,0.0,0.0,0.0,0.4728085292331136,0.007625944019888894,0.16246165765508946,2.113312853182952,0.03408569118036566,1.3353950917850013
22/04/2022,11:40:21,21.368745,-2.517138973926194,23.95626919902861,2.7273788452148438,3.5029754638671875,0.048015329986810684,0.32124462723731995,-0.1611565202474594,0.6169979572296143,4.623394012451172,2.690340518951416,47.641683788093445,-122.140194969974,124.72689056396484,-0.047868151837076364,3.2029244176488523,7.692104051737831,0.0,0.0,0.0,2.648358774892872,0.042715464111173385,1.3961223938478193,1.9895850897709468,1.8721959754050757,0.030196709280726708,0.6726211547851575,0.0,0.0,0.0,0.47049899047375787,0.007588693394737951,0.16903549545834148,2.1778597844191143,0.03512677071643543,1.2270868983894778
22/04/2022,11:40:21,21.553745,-2.5101958500454202,24.006446617655456,2.7004241943359375,3.5029754638671875,0.03554205223917961,0.23875029385089874,-0.138374462723732,0.6169979572296143,4.623394012451172,2.690340518951416,47.64168424301559,-122.14019486922446,124.69959259033203,-0.2216927153419697,2.183856863524244,2.860660536028897,0.0,0.0,0.0,2.661418379784098,0.04292610289973898,1.3748457484934187,1.9915993174021591,1.8644455545591567,0.030071702492882935,0.6995758056640637,0.0,0.0,0.0,0.4680774182842125,0.007549635778775941,0.17563164352458602,2.193340961499885,0.03537646712096304,1.1992141049688327
22/04/2022,11:40:21,21.724745,-2.505169920390472,24.042998519726098,2.678070068359375,3.5029754638671875,0.026938939467072487,0.1823793202638626,-0.11810863763093948,0.6169979572296143,4.623394012451172,2.690340518951416,47.64168456341522,-122.14019479867923,124.6777114868164,-0.3498758251374626,1.568678058461927,-3.873057355088046,0.0,0.0,0.0,2.6724089504674913,0.04310337016882987,1.3560569865604553,1.994326047697554,1.858831538558636,0.029981153847717934,0.7219299316406262,0.0,0.0,0.0,0.4660299836116806,0.007516612638897572,0.18099595753154898,2.2063789668558105,0.035586757529932296,1.1750610290289063
22/04/2022,11:40:22,21.868747,-2.5019372669048607,24.06671836413443,2.662139892578125,3.5029754638671875,0.021522842347621918,0.14693903923034668,-0.10272416472434998,0.6169979572296143,4.623394012451172,2.690340518951416,47.641684775542856,-122.1401947523661,124.66183471679688,-0.4118725104796733,1.2023154683064965,-10.22293307626826,0.0,0.0,0.0,2.6806642141429244,0.04323651958294452,1.3413557479025124,1.9967884088801047,1.8552172471797008,0.02992285882547563,0.7378601074218762,0.0,0.0,0.0,0.46455028150159494,0.007492746475831321,0.1847617151752513,2.2161139326413295,0.0357437731071132,1.156594032727261
22/04/2022,11:40:22,22.043741,-2.4989310237579048,24.089031104929745,2.64593505859375,3.5029754638671875,0.016533680260181427,0.11416613310575485,-0.0866699144244194,0.6169979572296143,4.623394012451172,2.690340518951416,47.641684975098904,-122.14019470924816,124.64567565917969,-0.4412586353497266,0.8709060153863541,-18.23559132722409,0.9387749022162399,-2.8493335506691544,0.0,3.627844793054746,-2.8059614556556314,1.3259063306159287,1.999715451051113,1.8518519965721045,0.029868580589869964,0.7540649414062512,0.9387749022162399,-2.8493335506691544,0.0,0.463028876330925,0.0074682076827561825,0.18854306021549627,2.2260410145075813,0.03590388733076692,1.1373632704004324
22/04/2022,11:40:22,22.219745,-2.493347447249107,24.097597312182188,2.6539764404296875,3.5029754638671875,0.08300163596868515,-0.12424936890602112,0.36622926592826843,0.6169979572296143,4.623394012451172,2.690340518951416,47.64168504527835,-122.14019463105076,124.65505981445312,-2.0635449399843853,12.09849258094734,-27.057989812529172,0.0,0.0,0.0,2.947414795407601,0.04753894831302348,0.20731828918114098,1.9913915222880414,1.8461317435293294,0.0297763184440214,0.7460235595703137,0.0,0.0,0.0,0.46352801227765095,0.007476258262542747,0.1873121021248674,2.48388678312995,0.040062690050480736,0.020006187056273578
22/04/2022,11:40:22,22.387744,-2.471326588653028,24.052813560701907,2.6998672485351562,3.5029754638671875,0.15142089128494263,-0.3477821946144104,-0.02675236389040947,0.6169979572296143,4.623394012451172,2.690340518951416,47.64168464341752,-122.14019434778372,124.69986724853516,-1.6771495381476171,4.4030541659048055,-35.12125986099295,0.0,0.0,0.0,2.6990605176030273,0.04353323415488231,1.276292707390547,1.9547604972096668,1.824838742787704,0.02943288294818558,0.700132751464845,0.0,0.0,0.0,0.46675921522217506,0.007528374439066523,0.17908070777029272,2.2323013023808524,0.03600485971581579,1.0972119996202543
22/04/2022,11:40:22,22.560742,-2.443509674631059,23.98789261467755,2.6874618530273438,3.5029754638671875,0.15818682312965393,-0.39706307649612427,-0.07229010760784149,0.6169979572296143,4.623394012451172,2.690340518951416,47.641684045856834,-122.1401939807312,124.68724822998047,-0.0996030581115573,-0.4745990379517553,-43.48804994673133,0.0,0.0,0.0,2.624020872790905,0.04232291730307601,1.4224697577534289,1.9343289882995574,1.7980759030355744,0.029001224242506396,0.7125381469726575,0.0,0.0,0.0,0.4647539442245603,0.007496031358459909,0.1841718214770215,2.159266928566345,0.0348268859446161,1.2382979362764073
22/04/2022,11:40:22,22.731745,-2.4171298830769956,23.922619787976146,2.6776123046875,3.5029754638671875,0.13874125480651855,-0.36219027638435364,-0.04500841349363327,0.6169979572296143,4.623394012451172,2.690340518951416,47.641683456920376,-122.14019363997008,124.67747497558594,0.9111368996529572,-1.7404316169758036,-51.9908837105063,0.0,0.0,0.0,2.6528242072828294,0.04278748721423585,1.3691662885734468,1.9145034723016365,1.772755486006099,0.028592830419452042,0.7223876953125012,0.0,0.0,0.0,0.462922615409555,0.007466493796928001,0.1886383113145212,2.1899015918732743,0.03532099341730785,1.1805279772589257
22/04/2022,11:40:23,22.874746,-2.398010080331005,23.87403319403529,2.67193603515625,3.5029754638671875,0.11799418926239014,-0.31348738074302673,-0.03478992357850075,0.6169979572296143,4.623394012451172,2.690340518951416,47.6416830191947,-122.14019339344522,124.67182922363281,1.3307291054873907,-1.762388458334472,-59.170425674416144,0.0,0.0,0.0,2.6685587259539814,0.04304126977344243,1.3431660078313945,1.8997057174640564,1.75442410683022,0.02829716301339147,0.7280639648437512,0.0,0.0,0.0,0.4616689045519566,0.007446272654064033,0.19158679579503549,2.206889821402025,0.03559499711937839,1.151579212036359
22/04/2022,11:40:23,23.019747,-2.3816174720413983,23.831816649995744,2.6671905517578125,3.5029754638671875,0.09786572307348251,-0.262607604265213,-0.03006739728152752,0.6169979572296143,4.623394012451172,2.690340518951416,47.64168263911592,-122.14019318226076,124.66709899902344,1.4784855718687921,-1.4595596533606239,-66.50367104928546,0.0,0.0,-1.0,2.6788559090139827,0.043207353371189264,0.3278379597904476,1.8870429775804287,1.7387164968081663,0.028043814464645322,0.7328094482421887,0.0,0.0,-1.0,0.4605659044290121,0.007428482329499527,0.1941127532426158,2.2182900045849707,0.03577887104168974,1.1337252065478318
22/04/2022,11:40:23,23.170744,-2.367760236142203,23.79589553643018,2.6356658935546875,3.5029754638671875,0.08636797964572906,-0.23248465359210968,-0.5560434460639954,0.6169979572296143,4.623394012451172,2.690340518951416,47.641682321660575,-122.14019300701611,124.63566589355469,1.5485369335982548,-1.159709681001914,-73.84234197969542,0.0,0.0,-1.0,2.0825916906574626,0.03359018855898882,1.1574665554000458,1.8873609921386696,1.7254420869888056,0.027829711080464392,0.7643341064453137,0.0,0.0,-1.0,0.4569737649466246,0.007370544595913244,0.2024296479918281,1.625617925710838,0.026219643963075575,1.9550369074082177
22/04/2022,11:40:23,23.346745,-2.3532354403287172,23.75817613583058,2.4791259765625,3.5029754638671875,0.07371398061513901,-0.19859938323497772,-1.1031882762908936,0.6169979572296143,4.623394012451172,2.690340518951416,47.64168197550555,-122.14019281627408,124.47582244873047,1.4525014622022536,-0.7877939345302903,-81.90720907534033,0.0,0.0,0.0,2.3188706850957503,0.037401140082184356,3.9775576088588727,1.9437344272775263,1.7115292879589319,0.02760531109611364,0.9208740234375012,0.0,0.0,0.0,0.44025261122072934,0.007100848568076752,0.2368742365531913,1.878618073875021,0.030300291514107607,3.7406833723056816
22/04/2022,11:40:23,23.530754,-2.341385872103274,23.727412366308272,2.320892333984375,3.5029754638671875,0.05277007818222046,-0.14190463721752167,-0.46149319410324097,0.6169979572296143,4.623394012451172,2.690340518951416,47.64168169906092,-122.14019266390815,124.3194808959961,1.145756805783089,-0.46858245038626894,-87.95895823123192,0.0,0.0,-5.0,2.0378693970839343,0.03286886124328251,-2.7093137048271756,2.013910002456418,1.7001788623287053,0.02742223971497637,1.0791076660156262,0.0,0.0,-5.0,0.4221091745495916,0.0068082124927346666,0.26791372145875303,1.6157602225343426,0.026060648750547845,2.022772573714071
22/04/2022,11:40:23,23.697745,-2.332909158547409,23.70546155143529,2.2277145385742188,3.5029754638671875,0.043321121484041214,-0.11622459441423416,-0.9176436066627502,0.6169979572296143,4.623394012451172,2.690340518951416,47.64168150143299,-122.14019255468448,124.22498321533203,1.2981595427526786,-0.4621482988596846,-90.73687585725277,0.0,0.0,-5.0,2.2531184885731332,0.03634062078343309,-1.2723051413248463,2.058654737780123,1.6920583067014958,0.027291263011314015,1.1722854614257825,0.0,0.0,-5.0,0.41097872442006456,0.006628689103549323,0.2847327315405265,1.8421397641530688,0.02971193167988377,3.442962127134627
22/04/2022,11:40:24,23.854744,-2.3268047877354547,23.689676211215556,2.0443572998046875,3.5029754638671875,0.03692884370684624,-0.09900075942277908,-1.5992987155914307,0.6169979572296143,4.623394012451172,2.690340518951416,47.641681359276355,-122.14019247600844,124.0395736694336,1.280557004411913,-0.44437774213866527,-91.26437945986834,0.0,0.0,-5.0,5.0240594520387525,0.08103321696835855,8.376870652291512,2.1637493313375322,1.6862100595473923,0.02719693644430876,1.3556427001953137,0.0,0.0,-5.0,0.3899922186255398,0.006290197074604551,0.3135375105368529,4.634067233413213,0.074743019893754,13.063333141754658
22/04/2022,11:40:24,24.034746,-2.3206408702535555,23.673743829131126,1.6877288818359375,3.5029754638671875,0.029360640794038773,-0.07868141680955887,-2.3766818046569824,0.6169979572296143,4.623394012451172,2.690340518951416,47.64168121374559,-122.14019239543752,123.67346954345703,1.0670142273705532,-0.38254171628387423,-90.73422932891184,0.0,0.0,0.0,13.3425364029914,0.21520220004820967,52.065797693319354,2.399172900796209,1.6803046522362908,0.02710168793929313,1.7122711181640637,0.0,0.0,0.0,0.3546387607489542,0.005719980012079509,0.3613854824503203,12.987897642242444,0.20948222003613015,51.70441221086903
