date,fly_time,fly_time_s,x,y,z,z_max,vx,vy,vz,vx_max,vy_max,vz_max,latitude,longitude,altitude,pitch,roll,yaw,cx,cy,cz,scx,scy,scz,d,dx,dy,dz,gc_pow_x,gc_pow_y,gc_pow_z,gpc_pow_x,gpc_pow_y,gpc_pow_z,gfc_pow_x,gfc_pow_y,gfc_pow_z
21/04/2022,17:32:54,16.728782,0.0,0.0,0.13928985595703125,0.13928985595703125,0.0,0.0,-0.0,0,0,0,47.641468,-122.140165,122.13928985595703,0.0,0.0,0.0,0.0,0.0,0.0,-0.3337781049294127,-0.005383517821442235,4.218467534533941,3.2709036392802715,-0.25799739921976594,-0.004161248374512427,3.26071014404297,0.0,0.0,0.0,-0.05562968415490211,-0.0008972529702403725,0.7030779224223235,-0.2781484207745106,-0.004486264851201863,3.5153896121116173
21/04/2022,17:32:54,16.877782,0.0,0.0,0.13928985595703125,0.13928985595703125,0.0,0.0,-0.0,0,0,0,47.641468,-122.140165,122.13928985595703,0.0,0.0,0.0,0.0,0.0,0.0,-0.3337781049294127,-0.005383517821442235,4.218467534533941,3.2709036392802715,-0.25799739921976594,-0.004161248374512427,3.26071014404297,0.0,0.0,0.0,-0.05562968415490211,-0.0008972529702403725,0.7030779224223235,-0.2781484207745106,-0.004486264851201863,3.5153896121116173
21/04/2022,17:32:54,17.068786,0.0,0.0,0.13928985595703125,0.13928985595703125,0.0,0.0,-0.0,0,0,0,47.641468,-122.140165,122.13928985595703,0.0,0.0,0.0,0.0,0.0,0.0,-0.3337781049294127,-0.005383517821442235,4.218467534533941,3.2709036392802715,-0.25799739921976594,-0.004161248374512427,3.26071014404297,0.0,0.0,0.0,-0.05562968415490211,-0.0008972529702403725,0.7030779224223235,-0.2781484207745106,-0.004486264851201863,3.5153896121116173
21/04/2022,17:32:54,17.263784,0.0,0.0,0.13928985595703125,0.13928985595703125,0.0,0.0,-0.0,0,0,0,47.641468,-122.140165,122.13928985595703,0.0,0.0,0.0,0.0,0.0,0.0,-0.3337781049294127,-0.005383517821442235,4.218467534533941,3.2709036392802715,-0.25799739921976594,-0.004161248374512427,3.26071014404297,0.0,0.0,0.0,-0.05562968415490211,-0.0008972529702403725,0.7030779224223235,-0.2781484207745106,-0.004486264851201863,3.5153896121116173
21/04/2022,17:32:55,17.439785,0.0,0.0,0.13928985595703125,0.13928985595703125,0.0,0.0,-0.0,0,0,0,47.641468,-122.140165,122.13928985595703,0.0,0.0,0.0,0.0,0.0,0.0,-0.3337781049294127,-0.005383517821442235,4.218467534533941,3.2709036392802715,-0.25799739921976594,-0.004161248374512427,3.26071014404297,0.0,0.0,0.0,-0.05562968415490211,-0.0008972529702403725,0.7030779224223235,-0.2781484207745106,-0.004486264851201863,3.5153896121116173
21/04/2022,17:32:55,17.599817,0.0,0.0,0.13928985595703125,0.13928985595703125,0.0,0.0,-0.0,0,0,0,47.641468,-122.140165,122.13928985595703,0.0,0.0,0.0,0.0,0.0,0.0,-0.3337781049294127,-0.005383517821442235,4.218467534533941,3.2709036392802715,-0.25799739921976594,-0.004161248374512427,3.26071014404297,0.0,0.0,0.0,-0.05562968415490211,-0.0008972529702403725,0.7030779224223235,-0.2781484207745106,-0.004486264851201863,3.5153896121116173
21/04/2022,17:32:55,17.786782,0.0,0.0,0.13928985595703125,0.13928985595703125,0.0,0.0,-0.0,0,0,0,47.641468,-122.140165,122.13928985595703,0.0,0.0,0.0,0.0,0.0,0.0,-0.3337781049294127,-0.005383517821442235,4.218467534533941,3.2709036392802715,-0.25799739921976594,-0.004161248374512427,3.26071014404297,0.0,0.0,0.0,-0.05562968415490211,-0.0008972529702403725,0.7030779224223235,-0.2781484207745106,-0.004486264851201863,3.5153896121116173
21/04/2022,17:32:55,17.977802,0.0,0.0,0.13928985595703125,0.13928985595703125,0.0,0.0,-0.0,0,0,0,47.641468,-122.140165,122.13928985595703,0.0,0.0,0.0,0.0,0.0,0.0,-0.3337781049294127,-0.005383517821442235,4.218467534533941,3.2709036392802715,-0.25799739921976594,-0.004161248374512427,3.26071014404297,0.0,0.0,0.0,-0.05562968415490211,-0.0008972529702403725,0.7030779224223235,-0.2781484207745106,-0.004486264851201863,3.5153896121116173
21/04/2022,17:32:55,18.133787,0.0,0.0,0.13928985595703125,0.13928985595703125,0.0,0.0,-0.0,0,0,0,47.641468,-122.140165,122.13928985595703,0.0,0.0,0.0,0.0,0.0,0.0,-0.3337781049294127,-0.005383517821442235,4.218467534533941,3.2709036392802715,-0.25799739921976594,-0.004161248374512427,3.26071014404297,0.0,0.0,0.0,-0.05562968415490211,-0.0008972529702403725,0.7030779224223235,-0.2781484207745106,-0.004486264851201863,3.5153896121116173
21/04/2022,17:32:55,18.286784,0.0,0.0,0.13928985595703125,0.13928985595703125,0.0,0.0,-0.0,0,0,0,47.641468,-122.140165,122.13928985595703,0.0,0.0,0.0,0.0,0.0,0.0,-0.3337781049294127,-0.005383517821442235,4.218467534533941,3.2709036392802715,-0.25799739921976594,-0.004161248374512427,3.26071014404297,0.0,0.0,0.0,-0.05562968415490211,-0.0008972529702403725,0.7030779224223235,-0.2781484207745106,-0.004486264851201863,3.5153896121116173
21/04/2022,17:32:56,18.445787,0.0,0.0,0.13928985595703125,0.13928985595703125,0.0,0.0,-0.0,0,0,0,47.641468,-122.140165,122.13928985595703,0.0,0.0,0.0,0.0,0.0,0.0,-0.3337781049294127,-0.005383517821442235,4.218467534533941,3.2709036392802715,-0.25799739921976594,-0.004161248374512427,3.26071014404297,0.0,0.0,0.0,-0.05562968415490211,-0.0008972529702403725,0.7030779224223235,-0.2781484207745106,-0.004486264851201863,3.5153896121116173
21/04/2022,17:32:56,18.595801,0.0,0.0,0.13928985595703125,0.13928985595703125,0.0,0.0,-0.0,0,0,0,47.641468,-122.140165,122.13928985595703,0.0,0.0,0.0,0.0,0.0,0.0,-0.3337781049294127,-0.005383517821442235,4.218467534533941,3.2709036392802715,-0.25799739921976594,-0.004161248374512427,3.26071014404297,0.0,0.0,0.0,-0.05562968415490211,-0.0008972529702403725,0.7030779224223235,-0.2781484207745106,-0.004486264851201863,3.5153896121116173
21/04/2022,17:32:56,18.751787,0.0,0.0,0.13928985595703125,0.13928985595703125,0.0,0.0,-0.0,0,0,0,47.641468,-122.140165,122.13928985595703,0.0,0.0,0.0,0.0,0.0,0.0,-0.3337781049294127,-0.005383517821442235,4.218467534533941,3.2709036392802715,-0.25799739921976594,-0.004161248374512427,3.26071014404297,0.0,0.0,0.0,-0.05562968415490211,-0.0008972529702403725,0.7030779224223235,-0.2781484207745106,-0.004486264851201863,3.5153896121116173
21/04/2022,17:32:56,18.906786,0.0,0.0,0.13928985595703125,0.13928985595703125,0.0,0.0,-0.0,0,0,0,47.641468,-122.140165,122.13928985595703,0.0,0.0,0.0,0.0,0.0,0.0,-0.3337781049294127,-0.005383517821442235,4.218467534533941,3.2709036392802715,-0.25799739921976594,-0.004161248374512427,3.26071014404297,0.0,0.0,0.0,-0.05562968415490211,-0.0008972529702403725,0.7030779224223235,-0.2781484207745106,-0.004486264851201863,3.5153896121116173
21/04/2022,17:32:56,19.063787,0.0,0.0,0.13928985595703125,0.13928985595703125,0.0,0.0,-0.0,0,0,0,47.641468,-122.140165,122.13928985595703,0.0,0.0,0.0,0.0,0.0,0.0,-0.3337781049294127,-0.005383517821442235,4.218467534533941,3.2709036392802715,-0.25799739921976594,-0.004161248374512427,3.26071014404297,0.0,0.0,0.0,-0.05562968415490211,-0.0008972529702403725,0.7030779224223235,-0.2781484207745106,-0.004486264851201863,3.5153896121116173
21/04/2022,17:32:56,19.247785,0.0,0.0,0.13928985595703125,0.13928985595703125,0.0,0.0,-0.0,0,0,0,47.641468,-122.140165,122.13928985595703,0.0,0.0,0.0,0.0,0.0,0.0,-0.3337781049294127,-0.005383517821442235,4.218467534533941,3.2709036392802715,-0.25799739921976594,-0.004161248374512427,3.26071014404297,0.0,0.0,0.0,-0.05562968415490211,-0.0008972529702403725,0.7030779224223235,-0.2781484207745106,-0.004486264851201863,3.5153896121116173
21/04/2022,17:32:56,19.402784,0.0,0.0,0.13928985595703125,0.13928985595703125,0.0,0.0,-0.0,0,0,0,47.641468,-122.140165,122.13928985595703,0.0,0.0,0.0,0.0,0.0,0.0,-0.3337781049294127,-0.005383517821442235,4.218467534533941,3.2709036392802715,-0.25799739921976594,-0.004161248374512427,3.26071014404297,0.0,0.0,0.0,-0.05562968415490211,-0.0008972529702403725,0.7030779224223235,-0.2781484207745106,-0.004486264851201863,3.5153896121116173
21/04/2022,17:32:57,19.556786,0.0,0.0,0.13928985595703125,0.13928985595703125,0.0,0.0,-0.0,0,0,0,47.641468,-122.140165,122.13928985595703,0.0,0.0,0.0,0.0,0.0,0.0,-0.3337781049294127,-0.005383517821442235,4.218467534533941,3.2709036392802715,-0.25799739921976594,-0.004161248374512427,3.26071014404297,0.0,0.0,0.0,-0.05562968415490211,-0.0008972529702403725,0.7030779224223235,-0.2781484207745106,-0.004486264851201863,3.5153896121116173
21/04/2022,17:32:57,19.748784,0.0,0.0,0.13928985595703125,0.13928985595703125,0.0,0.0,-0.0,0,0,0,47.641468,-122.140165,122.13928985595703,0.0,0.0,0.0,0.0,0.0,0.0,-0.3337781049294127,-0.005383517821442235,4.218467534533941,3.2709036392802715,-0.25799739921976594,-0.004161248374512427,3.26071014404297,0.0,0.0,0.0,-0.05562968415490211,-0.0008972529702403725,0.7030779224223235,-0.2781484207745106,-0.004486264851201863,3.5153896121116173
21/04/2022,17:32:57,19.932786,0.0,0.0,0.13928985595703125,0.13928985595703125,0.0,0.0,-0.0,0,0,0,47.641468,-122.140165,122.13928985595703,0.0,0.0,0.0,0.0,0.0,0.0,-0.3337781049294127,-0.005383517821442235,4.218467534533941,3.2709036392802715,-0.25799739921976594,-0.004161248374512427,3.26071014404297,0.0,0.0,0.0,-0.05562968415490211,-0.0008972529702403725,0.7030779224223235,-0.2781484207745106,-0.004486264851201863,3.5153896121116173
21/04/2022,17:32:57,20.084791,0.0,0.0,0.13928985595703125,0.13928985595703125,0.0,0.0,-0.0,0,0,0,47.641468,-122.140165,122.13928985595703,0.0,0.0,0.0,0.0,0.0,0.0,-0.3337781049294127,-0.005383517821442235,4.218467534533941,3.2709036392802715,-0.25799739921976594,-0.004161248374512427,3.26071014404297,0.0,0.0,0.0,-0.05562968415490211,-0.0008972529702403725,0.7030779224223235,-0.2781484207745106,-0.004486264851201863,3.5153896121116173
21/04/2022,17:32:57,20.246784,0.0,0.0,0.13928985595703125,0.13928985595703125,0.0,0.0,-0.0,0,0,0,47.641468,-122.140165,122.13928985595703,0.0,0.0,0.0,0.0,0.0,0.0,-0.3337781049294127,-0.005383517821442235,4.218467534533941,3.2709036392802715,-0.25799739921976594,-0.004161248374512427,3.26071014404297,0.0,0.0,0.0,-0.05562968415490211,-0.0008972529702403725,0.7030779224223235,-0.2781484207745106,-0.004486264851201863,3.5153896121116173
21/04/2022,17:32:57,20.430786,0.0,0.0,0.13928985595703125,0.13928985595703125,0.0,0.0,-0.0,0,0,0,47.641468,-122.140165,122.13928985595703,0.0,0.0,0.0,0.0,0.0,0.0,-0.3337781049294127,-0.005383517821442235,4.218467534533941,3.2709036392802715,-0.25799739921976594,-0.004161248374512427,3.26071014404297,0.0,0.0,0.0,-0.05562968415490211,-0.0008972529702403725,0.7030779224223235,-0.2781484207745106,-0.004486264851201863,3.5153896121116173
21/04/2022,17:32:58,20.586788,0.0,0.0,0.13928985595703125,0.13928985595703125,0.0,0.0,-0.0,0,0,0,47.641468,-122.140165,122.13928985595703,0.0,0.0,0.0,0.0,0.0,0.0,-0.3337781049294127,-0.005383517821442235,4.218467534533941,3.2709036392802715,-0.25799739921976594,-0.004161248374512427,3.26071014404297,0.0,0.0,0.0,-0.05562968415490211,-0.0008972529702403725,0.7030779224223235,-0.2781484207745106,-0.004486264851201863,3.5153896121116173
21/04/2022,17:32:58,20.747784,0.0,0.0,0.13928985595703125,0.13928985595703125,0.0,0.0,-0.0,0,0,0,47.641468,-122.140165,122.13928985595703,0.0,0.0,0.0,0.0,0.0,0.0,-0.3337781049294127,-0.005383517821442235,4.218467534533941,3.2709036392802715,-0.25799739921976594,-0.004161248374512427,3.26071014404297,0.0,0.0,0.0,-0.05562968415490211,-0.0008972529702403725,0.7030779224223235,-0.2781484207745106,-0.004486264851201863,3.5153896121116173
21/04/2022,17:32:58,20.934787,0.0,0.0,0.13928985595703125,0.13928985595703125,0.0,0.0,-0.0,0,0,0,47.641468,-122.140165,122.13928985595703,0.0,0.0,0.0,0.0,0.0,0.0,-0.3337781049294127,-0.005383517821442235,4.218467534533941,3.2709036392802715,-0.25799739921976594,-0.004161248374512427,3.26071014404297,0.0,0.0,0.0,-0.05562968415490211,-0.0008972529702403725,0.7030779224223235,-0.2781484207745106,-0.004486264851201863,3.5153896121116173
21/04/2022,17:32:58,21.092782,0.0,0.0,0.13928985595703125,0.13928985595703125,0.0,0.0,-0.0,0,0,0,47.641468,-122.140165,122.13928985595703,0.0,0.0,0.0,0.0,0.0,0.0,-0.3337781049294127,-0.005383517821442235,4.218467534533941,3.2709036392802715,-0.25799739921976594,-0.004161248374512427,3.26071014404297,0.0,0.0,0.0,-0.05562968415490211,-0.0008972529702403725,0.7030779224223235,-0.2781484207745106,-0.004486264851201863,3.5153896121116173
21/04/2022,17:32:58,21.281785,0.0,0.0,0.13928985595703125,0.13928985595703125,0.0,0.0,-0.0,0,0,0,47.641468,-122.140165,122.13928985595703,0.0,0.0,0.0,0.0,0.0,0.0,-0.3337781049294127,-0.005383517821442235,4.218467534533941,3.2709036392802715,-0.25799739921976594,-0.004161248374512427,3.26071014404297,0.0,0.0,0.0,-0.05562968415490211,-0.0008972529702403725,0.7030779224223235,-0.2781484207745106,-0.004486264851201863,3.5153896121116173
21/04/2022,17:32:59,21.442786,0.0,0.0,0.13928985595703125,0.13928985595703125,0.0,0.0,-0.0,0,0,0,47.641468,-122.140165,122.13928985595703,0.0,0.0,0.0,0.0,0.0,0.0,-0.3337781049294127,-0.005383517821442235,4.218467534533941,3.2709036392802715,-0.25799739921976594,-0.004161248374512427,3.26071014404297,0.0,0.0,0.0,-0.05562968415490211,-0.0008972529702403725,0.7030779224223235,-0.2781484207745106,-0.004486264851201863,3.5153896121116173
21/04/2022,17:32:59,21.631784,0.0,0.0,0.13928985595703125,0.13928985595703125,0.0,0.0,-0.0,0,0,0,47.641468,-122.140165,122.13928985595703,0.0,0.0,0.0,0.0,0.0,0.0,-0.3337781049294127,-0.005383517821442235,4.218467534533941,3.2709036392802715,-0.25799739921976594,-0.004161248374512427,3.26071014404297,0.0,0.0,0.0,-0.05562968415490211,-0.0008972529702403725,0.7030779224223235,-0.2781484207745106,-0.004486264851201863,3.5153896121116173
21/04/2022,17:32:59,21.817787,0.0,0.0,0.13928985595703125,0.13928985595703125,0.0,0.0,-0.0,0,0,0,47.641468,-122.140165,122.13928985595703,0.0,0.0,0.0,0.0,0.0,0.0,-0.3337781049294127,-0.005383517821442235,4.218467534533941,3.2709036392802715,-0.25799739921976594,-0.004161248374512427,3.26071014404297,0.0,0.0,0.0,-0.05562968415490211,-0.0008972529702403725,0.7030779224223235,-0.2781484207745106,-0.004486264851201863,3.5153896121116173
21/04/2022,17:32:59,21.967789,0.0,0.0,0.13928985595703125,0.13928985595703125,0.0,0.0,-0.0,0,0,0,47.641468,-122.140165,122.13928985595703,0.0,0.0,0.0,0.0,0.0,0.0,-0.3337781049294127,-0.005383517821442235,4.218467534533941,3.2709036392802715,-0.25799739921976594,-0.004161248374512427,3.26071014404297,0.0,0.0,0.0,-0.05562968415490211,-0.0008972529702403725,0.7030779224223235,-0.2781484207745106,-0.004486264851201863,3.5153896121116173
21/04/2022,17:32:59,22.126271,0.0,0.0,0.13928985595703125,0.13928985595703125,0.0,0.0,-0.0,0,0,0,47.641468,-122.140165,122.13928985595703,0.0,0.0,0.0,0.0,0.0,0.0,-0.3337781049294127,-0.005383517821442235,4.218467534533941,3.2709036392802715,-0.25799739921976594,-0.004161248374512427,3.26071014404297,0.0,0.0,0.0,-0.05562968415490211,-0.0008972529702403725,0.7030779224223235,-0.2781484207745106,-0.004486264851201863,3.5153896121116173
21/04/2022,17:32:59,22.311271,0.0,0.0,0.13928985595703125,0.13928985595703125,0.0,0.0,-0.0,0,0,0,47.641468,-122.140165,122.13928985595703,0.0,0.0,0.0,0.0,0.0,0.0,-0.3337781049294127,-0.005383517821442235,4.218467534533941,3.2709036392802715,-0.25799739921976594,-0.004161248374512427,3.26071014404297,0.0,0.0,0.0,-0.05562968415490211,-0.0008972529702403725,0.7030779224223235,-0.2781484207745106,-0.004486264851201863,3.5153896121116173
21/04/2022,17:33:00,22.504273,0.0,0.0,0.13928985595703125,0.13928985595703125,0.0,0.0,-0.0,0,0,0,47.641468,-122.140165,122.13928985595703,0.0,0.0,0.0,0.0,0.0,0.0,-0.3337781049294127,-0.005383517821442235,4.218467534533941,3.2709036392802715,-0.25799739921976594,-0.004161248374512427,3.26071014404297,0.0,0.0,0.0,-0.05562968415490211,-0.0008972529702403725,0.7030779224223235,-0.2781484207745106,-0.004486264851201863,3.5153896121116173
21/04/2022,17:33:00,22.68727,0.0,0.0,0.13928985595703125,0.13928985595703125,0.0,0.0,-0.0,0,0,0,47.641468,-122.140165,122.13928985595703,0.0,0.0,0.0,0.0,0.0,0.0,-0.3337781049294127,-0.005383517821442235,4.218467534533941,3.2709036392802715,-0.25799739921976594,-0.004161248374512427,3.26071014404297,0.0,0.0,0.0,-0.05562968415490211,-0.0008972529702403725,0.7030779224223235,-0.2781484207745106,-0.004486264851201863,3.5153896121116173
21/04/2022,17:33:00,22.844276,0.0,0.0,0.13928985595703125,0.13928985595703125,0.0,0.0,-0.0,0,0,0,47.641468,-122.140165,122.13928985595703,0.0,0.0,0.0,0.0,0.0,0.0,-0.3337781049294127,-0.005383517821442235,4.218467534533941,3.2709036392802715,-0.25799739921976594,-0.004161248374512427,3.26071014404297,0.0,0.0,0.0,-0.05562968415490211,-0.0008972529702403725,0.7030779224223235,-0.2781484207745106,-0.004486264851201863,3.5153896121116173
21/04/2022,17:33:00,23.001272,0.0,0.0,0.13928985595703125,0.13928985595703125,0.0,0.0,-0.0,0,0,0,47.641468,-122.140165,122.13928985595703,0.0,0.0,0.0,0.0,0.0,0.0,-0.3337781049294127,-0.005383517821442235,4.218467534533941,3.2709036392802715,-0.25799739921976594,-0.004161248374512427,3.26071014404297,0.0,0.0,0.0,-0.05562968415490211,-0.0008972529702403725,0.7030779224223235,-0.2781484207745106,-0.004486264851201863,3.5153896121116173
21/04/2022,17:33:00,23.188818,0.0,0.0,0.13928985595703125,0.13928985595703125,0.0,0.0,-0.0,0,0,0,47.641468,-122.140165,122.13928985595703,0.0,0.0,0.0,0.0,0.0,0.0,-0.3337781049294127,-0.005383517821442235,4.218467534533941,3.2709036392802715,-0.25799739921976594,-0.004161248374512427,3.26071014404297,0.0,0.0,0.0,-0.05562968415490211,-0.0008972529702403725,0.7030779224223235,-0.2781484207745106,-0.004486264851201863,3.5153896121116173
21/04/2022,17:33:00,23.357822,0.0,0.0,0.13928985595703125,0.13928985595703125,0.0,0.0,-0.0,0,0,0,47.641468,-122.140165,122.13928985595703,0.0,0.0,0.0,0.0,0.0,0.0,-0.3337781049294127,-0.005383517821442235,4.218467534533941,3.2709036392802715,-0.25799739921976594,-0.004161248374512427,3.26071014404297,0.0,0.0,0.0,-0.05562968415490211,-0.0008972529702403725,0.7030779224223235,-0.2781484207745106,-0.004486264851201863,3.5153896121116173
21/04/2022,17:33:01,23.543827,0.0,0.0,0.13928985595703125,0.13928985595703125,0.0,0.0,-0.0,0,0,0,47.641468,-122.140165,122.13928985595703,0.0,0.0,0.0,0.0,0.0,0.0,-0.3337781049294127,-0.005383517821442235,4.218467534533941,3.2709036392802715,-0.25799739921976594,-0.004161248374512427,3.26071014404297,0.0,0.0,0.0,-0.05562968415490211,-0.0008972529702403725,0.7030779224223235,-0.2781484207745106,-0.004486264851201863,3.5153896121116173
21/04/2022,17:33:01,23.707818,0.0,0.0,0.13928985595703125,0.13928985595703125,0.0,0.0,-0.0,0,0,0,47.641468,-122.140165,122.13928985595703,0.0,0.0,0.0,0.0,0.0,3.0,-0.3337781049294127,-0.005383517821442235,7.218467534533941,3.2709036392802715,-0.25799739921976594,-0.004161248374512427,3.26071014404297,0.0,0.0,3.0,-0.05562968415490211,-0.0008972529702403725,0.7030779224223235,-0.2781484207745106,-0.004486264851201863,3.5153896121116173
21/04/2022,17:33:01,23.893818,0.0,0.0,0.13928985595703125,0.13928985595703125,0.0,0.0,-0.0,0,0,0,47.641468,-122.140165,122.13928985595703,0.0,0.0,0.0,0.0,0.0,4.0,-0.3337781049294127,-0.005383517821442235,8.218467534533941,3.2709036392802715,-0.25799739921976594,-0.004161248374512427,3.26071014404297,0.0,0.0,4.0,-0.05562968415490211,-0.0008972529702403725,0.7030779224223235,-0.2781484207745106,-0.004486264851201863,3.5153896121116173
21/04/2022,17:33:01,24.055824,0.0,0.0,0.13928985595703125,0.13928985595703125,0.0,0.0,-0.0,0,0,0,47.641468,-122.140165,122.13928985595703,0.0,0.0,0.0,0.0,0.0,0.0,-0.3337781049294127,-0.005383517821442235,4.218467534533941,3.2709036392802715,-0.25799739921976594,-0.004161248374512427,3.26071014404297,0.0,0.0,0.0,-0.05562968415490211,-0.0008972529702403725,0.7030779224223235,-0.2781484207745106,-0.004486264851201863,3.5153896121116173
21/04/2022,17:33:01,24.211818,0.0,0.0,0.13928985595703125,0.13928985595703125,0.0,0.0,-0.0,0,0,0,47.641468,-122.140165,122.13928985595703,0.0,0.0,0.0,0.0,0.0,0.0,-0.3337781049294127,-0.005383517821442235,4.218467534533941,3.2709036392802715,-0.25799739921976594,-0.004161248374512427,3.26071014404297,0.0,0.0,0.0,-0.05562968415490211,-0.0008972529702403725,0.7030779224223235,-0.2781484207745106,-0.004486264851201863,3.5153896121116173
21/04/2022,17:33:01,24.363823,0.0,0.0,0.13928985595703125,0.13928985595703125,0.0,0.0,-0.0,0,0,0,47.641468,-122.140165,122.13928985595703,0.0,0.0,0.0,0.0,0.0,0.0,-0.3337781049294127,-0.005383517821442235,4.218467534533941,3.2709036392802715,-0.25799739921976594,-0.004161248374512427,3.26071014404297,0.0,0.0,0.0,-0.05562968415490211,-0.0008972529702403725,0.7030779224223235,-0.2781484207745106,-0.004486264851201863,3.5153896121116173
21/04/2022,17:33:02,24.551823,0.0,0.0,0.13928985595703125,0.13928985595703125,0.0,0.0,-0.0,0,0,0,47.641468,-122.140165,122.13928985595703,0.0,0.0,0.0,0.0,0.0,0.0,-0.3337781049294127,-0.005383517821442235,4.218467534533941,3.2709036392802715,-0.25799739921976594,-0.004161248374512427,3.26071014404297,0.0,0.0,0.0,-0.05562968415490211,-0.0008972529702403725,0.7030779224223235,-0.2781484207745106,-0.004486264851201863,3.5153896121116173
21/04/2022,17:33:02,24.734822,0.0,0.0,0.13928985595703125,0.13928985595703125,0.0,0.0,-0.0,0,0,0,47.641468,-122.140165,122.13928985595703,0.0,0.0,0.0,0.0,0.0,0.0,-0.3337781049294127,-0.005383517821442235,4.218467534533941,3.2709036392802715,-0.25799739921976594,-0.004161248374512427,3.26071014404297,0.0,0.0,0.0,-0.05562968415490211,-0.0008972529702403725,0.7030779224223235,-0.2781484207745106,-0.004486264851201863,3.5153896121116173
21/04/2022,17:33:02,24.888819,0.0,0.0,0.13928985595703125,0.13928985595703125,0.0,0.0,-0.0,0,0,0,47.641468,-122.140165,122.13928985595703,0.0,0.0,0.0,0.0,0.0,0.0,-0.3337781049294127,-0.005383517821442235,4.218467534533941,3.2709036392802715,-0.25799739921976594,-0.004161248374512427,3.26071014404297,0.0,0.0,0.0,-0.05562968415490211,-0.0008972529702403725,0.7030779224223235,-0.2781484207745106,-0.004486264851201863,3.5153896121116173
21/04/2022,17:33:06,28.490181,4.2647006921470165e-05,-9.466242045164108e-05,1.677642822265625,1.677642822265625,-6.41612641629763e-05,0.00014696591824758798,-0.0190334040671587,0,0.00014696591824758798,0,47.6414679991441,-122.14016499944626,123.67764282226562,0.00034370752459888257,0.0007882857402760994,0.030271425521291404,0.0,0.0,0.0,-0.43544444430718005,-0.007023297488825635,2.9610366517938087,1.7415841757382293,-0.2580385087189956,-0.004161911430951626,1.7223571777343762,0.0,0.0,0.0,-0.0738258691622025,-0.0011907398251968385,0.49277340922966634,-0.3616185751449775,-0.005832557663628796,2.4682632425641424
21/04/2022,17:33:06,28.661184,3.2773008570075035e-05,-7.278565317392349e-05,1.7322921752929688,1.7322921752929688,-4.8931346100289375e-05,0.00011196298873983324,0.8796916007995605,0,0.00014696591824758798,0.8796916007995605,47.64146799934492,-122.14016499957643,123.73490142822266,0.00032428001741783825,0.0007423746890441212,0.03027142525753329,0.0,0.0,0.0,-0.07598412607884247,-0.0012255504206265093,0.49110497852064106,1.6875561230735674,-0.25802899004797053,-0.0041617579039995856,1.6677078247070325,0.0,0.0,0.0,-0.07598412607884247,-0.0012255504206265093,0.49110497852064106,-0.0,-0.0,-0.0
21/04/2022,17:33:06,28.809183,2.581486478447914e-05,-5.738157778978348e-05,1.8590927124023438,1.8590927124023438,-4.278643973520957e-05,9.788470197236165e-05,0.5091676712036133,0,0.00014696591824758798,0.8796916007995605,47.64146799948382,-122.14016499966655,123.86064147949219,0.00031887290868930674,0.0007299591398923245,0.03027142518790486,0.0,0.0,0.0,-0.08118997621078987,-0.0013095157453353182,0.4848659774802034,1.5623661819052035,-0.25802228210205685,-0.00416164971132349,1.5409072875976575,0.0,0.0,0.0,-0.08118997621078987,-0.0013095157453353182,0.4848659774802034,-0.0,-0.0,0.0
21/04/2022,17:33:06,29.005186,1.8137739971280098e-05,-4.039052873849869e-05,1.89990234375,1.89990234375,-3.530880712787621e-05,8.075468940660357e-05,0.0884723961353302,0,0.00014696591824758798,0.8796916007995605,47.64146799963699,-122.14016499976591,123.9001693725586,0.00027841434720827477,0.0006368105787193633,0.03027142470351487,0.0,0.0,0.0,-0.5347596070965809,-0.008625154953170629,2.799822484652562,1.5221307353227158,-0.2580148809517992,-0.004161530337932151,1.5000976562500012,0.0,0.0,0.0,-0.08290472720510109,-0.0013371730194370842,0.4820078071219894,-0.4518548798914798,-0.007287981933733544,2.3178146775305724
21/04/2022,17:33:06,29.156182,1.3131299056112766e-05,-2.9317103326320648e-05,1.9617385864257812,1.9617385864257812,-2.5378762074979022e-05,5.800218059448525e-05,0.9066184163093567,0,0.00014696591824758798,0.9066184163093567,47.641467999736506,-122.14016499983055,123.96443176269531,0.00020292382779837722,0.0004621610000641411,0.030271433979355295,0.0,0.0,0.0,-0.08552399527483348,-0.0013794192786263373,0.47674832920284616,1.461226334152043,-0.2580100543701341,-0.0041614524898408445,1.43826141357422,0.0,0.0,0.0,-0.08552399527483348,-0.0013794192786263373,0.47674832920284616,-0.0,-0.0,-0.0
21/04/2022,17:33:06,29.311184,9.508337825536728e-06,-2.1297484636306763e-05,2.0941314697265625,2.0941314697265625,-2.1664371161023155e-05,4.95304302603472e-05,0.520499587059021,0,0.00014696591824758798,0.9066184163093567,47.64146799980743,-122.14016499987657,124.09413146972656,0.00017721426439866177,0.00040446031812912996,0.030271433786294547,0.0,0.0,0.0,-0.09111298363000346,-0.0014695642520968228,0.46115717853592025,1.3311188231857043,-0.2580065616662039,-0.004161396155906494,1.3058685302734387,0.0,0.0,0.0,-0.09111298363000346,-0.0014695642520968228,0.46115717853592025,-0.0,-0.0,0.0
21/04/2022,17:33:07,29.467183,6.328104063868523e-06,-1.4265067875385284e-05,2.13775634765625,2.13775634765625,-1.838781827245839e-05,4.204545621178113e-05,0.16794459521770477,0,0.00014696591824758798,0.9066184163093567,47.64146799987217,-122.14016499991861,124.13825988769531,0.0001515677473384446,0.00034564813478268745,0.03027143361786234,0.0,0.0,0.0,-0.09291191368433356,-0.0014985792529731406,0.45455769107667476,1.2883486168189364,-0.2580034956561283,-0.0041613467041311525,1.2622436523437512,0.0,0.0,0.0,-0.09291191368433356,-0.0014985792529731406,0.45455769107667476,-0.0,-0.0,0.0
21/04/2022,17:33:07,29.625185,3.7142308428883553e-06,-8.478760719299316e-06,2.1599655151367188,2.1599655151367188,-1.4854189430479892e-05,3.3972697565332055e-05,0.1284804791212082,0,0.00014696591824758798,0.9066184163093567,47.64146799992427,-122.14016499995242,124.16034698486328,0.00012534370932824074,0.00028601132968438355,0.030271380112565045,0.0,0.0,1.0,-0.6075789121942642,-0.009799659874101202,3.4087386948790854,1.2665967565150622,-0.25800097576598063,-0.004161306060741665,1.2400344848632825,0.0,0.0,1.0,-0.09381263847893517,-0.0015131070722409052,0.45089328241692195,-0.513766273715329,-0.008286552801860296,1.9578454124621636
21/04/2022,17:33:07,29.814185,1.302105374634266e-06,-3.141351044178009e-06,2.2594146728515625,2.2594146728515625,-9.929413863574155e-06,2.271341327286791e-05,1.146099328994751,0,0.00014696591824758798,1.146099328994751,47.64146799997161,-122.14016499998313,124.25941467285156,7.580058444724468e-05,0.00017258887659252464,0.030271389918900587,0.0,0.0,3.0,-0.5839334084162787,-0.009418280780907973,1.2611199671553819,1.169408187176655,-0.25799865033271663,-0.004161268553753594,1.1405853271484387,0.0,0.0,3.0,-0.09766967657820895,-0.0015753173641646983,0.4317875301625639,-0.4862637318380698,-0.007842963416743275,-2.170667563007182
21/04/2022,17:33:07,29.998694,-3.634486347436905e-07,5.476176738739014e-07,2.5133819580078125,2.5133819580078125,-7.467067916877568e-06,1.7118500181823038e-05,1.348135232925415,0,0.00014696591824758798,1.348135232925415,47.64146800000496,-122.14016500000476,124.51338195800781,6.216143309307572e-05,0.00014119784891142317,0.03027138988130292,0.0,0.0,4.0,-0.3524705323021281,-0.00568500858551821,1.5275503515499347,0.9234020486214698,-0.2579970446959022,-0.004161242656385622,0.8866180419921887,0.0,0.0,4.0,-0.0,-0.0,0.0,-0.3524705323021281,-0.00568500858551821,-2.4724496484500653
21/04/2022,17:33:07,30.154696,-1.4059478417038918e-06,2.8600916266441345e-06,2.7118759155273438,2.7118759155273438,-6.049271178198978e-06,1.388991586281918e-05,1.2970962524414062,0,0.00014696591824758798,1.348135232925415,47.64146800002625,-122.14016500001853,124.71577453613281,5.217662431532204e-05,0.00011828908564816348,0.030271389858552485,0.0,0.0,4.0,-0.33528411792171886,-0.005407808353576197,1.5228173172635042,0.7349108979779176,-0.2579960397560929,-0.004161226447678967,0.6881240844726575,0.0,0.0,4.0,-0.0,-0.0,0.0,-0.33528411792171886,-0.005407808353576197,-2.4771826827364958
21/04/2022,17:33:07,30.353734,-2.466142177581787e-06,5.219131708145142e-06,2.9592514038085938,2.9592514038085938,-4.555041869025445e-06,1.0492399269423913e-05,1.2402149438858032,0,0.00014696591824758798,1.348135232925415,47.64146800004748,-122.14016500003224,124.96297454833984,3.985026437290917e-05,9.142900021073519e-05,0.03027138983647195,0.0,0.0,0.0,-0.31371993550078214,-0.005059998959690056,-2.48032089640907,0.5107230854017049,-0.25799501787662815,-0.0041612099657521995,0.4407485961914075,0.0,0.0,0.0,-0.0,-0.0,0.0,-0.31371993550078214,-0.005059998959690056,-2.48032089640907
21/04/2022,17:33:08,30.539698,-3.2834941521286964e-06,7.043592631816864e-06,3.1367874145507812,3.1367874145507812,-3.8081282127677696e-06,8.77796446729917e-06,0.45418232679367065,0,0.00014696591824758798,1.348135232925415,47.64146800006393,-122.14016500004283,125.13817596435547,3.888008178716513e-05,8.927930642156828e-05,0.030271389834967424,0.0,0.0,0.0,0.0,0.0,0.0,0.3685908347958204,-0.25799423015636475,-0.004161197260586558,0.26321258544922,0.0,0.0,0.0,-0.0,-0.0,0.0,-0.0,-0.0,-0.0
21/04/2022,17:33:08,30.732694,-3.965455107390881e-06,8.56257975101471e-06,3.143707275390625,3.143707275390625,-3.1542258511763066e-06,7.270516562130069e-06,-0.2662259042263031,0,0.00014696591824758798,1.348135232925415,47.64146800007763,-122.14016500005165,125.14291381835938,2.7832770502901347e-05,6.41585434271099e-05,0.03027140316046337,0.0010566712595377885,1.9999997208614428,0.0,0.0010566712595377885,1.9999997208614428,0.0,0.3636811237916718,-0.2579935728661929,-0.004161186659132121,0.25629272460937624,0.0010566712595377885,1.9999997208614428,0.0,-0.0,-0.0,0.0,-0.0,-0.0,0.0
21/04/2022,17:33:08,30.918695,-4.1770865209400654e-05,0.00336578581482172,3.0945968627929688,3.143707275390625,-2.786443928926019e-06,0.06609530001878738,-0.20930182933807373,0,0.06609530001878738,1.348135232925415,47.641468032036755,-122.14016500005926,125.0939712524414,-0.0021554104245762127,-4.0975913192167495,0.030339146697134126,0.001588553932096066,2.999999579416038,0.0,0.001588553932096066,2.999999579416038,0.0,0.3998218460227407,-0.25800991196740025,-0.004161450193022609,0.3054031372070325,0.001588553932096066,2.999999579416038,0.0,-0.0,-0.0,0.0,-0.0,-0.0,0.0
21/04/2022,17:33:08,31.0757,-0.00028234091587364674,0.02502136304974556,3.0762786865234375,3.143707275390625,-2.472473852321855e-06,0.2522273063659668,-0.002911916933953762,0,0.2522273063659668,1.348135232925415,47.64146823186973,-122.14016500006468,125.07626342773438,-0.004525698122730718,-8.60316581034533,0.03058656132359501,0.0016015085298130528,2.9999995725283743,0.0,0.0016015085298130528,2.9999995725283743,0.0,0.4140507592706579,-0.2581185971465451,-0.004163203179783026,0.32372131347656374,0.0016015085298130528,2.9999995725283743,0.0,-0.0,-0.0,0.0,-0.0,-0.0,0.0
21/04/2022,17:33:08,31.270698,-0.0011376466136425734,0.10211595892906189,3.087066650390625,3.143707275390625,-7.723780868218455e-07,0.5757985711097717,0.08281982690095901,0,0.5757985711097717,1.348135232925415,47.641468934273654,-122.14016500006883,125.08731079101562,-0.005139425236146984,-9.766570361876203,0.030663765654762917,0.0016055509385626324,2.9999995703676667,0.0,0.0016055509385626324,2.9999995703676667,0.0,0.4059191479797758,-0.2585066517219141,-0.004169462124547052,0.31293334960937624,0.0016055509385626324,2.9999995703676667,0.0,-0.0,-0.0,0.0,-0.0,-0.0,0.0
21/04/2022,17:33:09,31.457702,-0.002680911449715495,0.24127336218953133,3.1004486083984375,3.143707275390625,7.771402010803286e-07,0.8779430389404297,0.048834048211574554,7.771402010803286e-07,0.8779430389404297,1.348135232925415,47.641470194542634,-122.14016500006865,125.10060119628906,-0.004530315716811135,-8.618330995313864,0.030554496165740682,0.0015998296023128442,2.999999573424177,0.0,0.0015998296023128442,2.999999573424177,0.0,0.39615291967821864,-0.2592076787628204,-0.004180769012303576,0.29955139160156374,0.0015998296023128442,2.999999573424177,0.0,-0.0,-0.0,0.0,-0.0,-0.0,0.0
21/04/2022,17:33:09,31.610692,-0.004303783061914146,0.3876230772584677,3.1052017211914062,3.143707275390625,1.2928331898365286e-06,1.079245924949646,0.01409908290952444,1.2928331898365286e-06,1.079245924949646,1.348135232925415,47.64147151680843,-122.14016500006646,125.1052474975586,-0.003867801862082184,-7.3491664011170865,0.03045527779891854,0.00159463454151065,2.999999576190083,0.0,0.00159463454151065,2.999999576190083,0.0,0.39305859081261957,-0.2599450945903841,-0.004192662815973969,0.294798278808595,0.00159463454151065,2.999999576190083,0.0,-0.0,-0.0,0.0,-0.0,-0.0,0.0
21/04/2022,17:33:09,31.803694,-0.006824757903814316,0.61496177688241,3.1047210693359375,3.143707275390625,1.0470185998201487e-06,1.291011095046997,-0.017248405143618584,1.2928331898365286e-06,1.291011095046997,1.348135232925415,47.641473533330576,-122.14016500006333,125.10472106933594,-0.00305169015026521,-5.793800889399964,0.030355834364985058,0.0015894276962189358,2.9999995789532368,0.0,0.0015894276962189358,2.9999995789532368,0.0,0.39417720497446157,-0.2610905749764492,-0.004211138306071671,0.29527893066406374,0.0015894276962189358,2.9999995789532368,0.0,-0.0,-0.0,0.0,-0.0,-0.0,0.0
21/04/2022,17:33:09,31.989696,-0.009698806679807603,0.8741264026612043,3.0998077392578125,3.143707275390625,8.490169989272545e-08,1.4542242288589478,-0.03314978629350662,1.2928331898365286e-06,1.4542242288589478,1.348135232925415,47.64147590441425,-122.14016500006176,125.0997085571289,-0.0023745009482336577,-4.50629359138872,0.03029117100532191,0.0015860419310985432,2.9999995807451363,0.0,0.0015860419310985432,2.9999995807451363,0.0,0.3987293603037731,-0.26239626114117404,-0.004232197760341672,0.30019226074218874,0.0015860419310985432,2.9999995807451363,0.0,-0.0,-0.0,0.0,-0.0,-0.0,0.0
21/04/2022,17:33:09,32.146694,-0.012250583269633353,1.1042152512818575,3.0942764282226562,3.143707275390625,-9.804859928408405e-07,1.5587151050567627,-0.03850550577044487,1.2928331898365286e-06,1.5587151050567627,1.348135232925415,47.64147797753907,-122.14016500006265,125.09416198730469,-0.0019242752058221129,-3.6569700411874733,0.03025717094554239,0.0015842616923799728,2.9999995816857856,0.0,0.0015842616923799728,2.9999995816857856,0.0,0.4036661555682647,-0.2635552934957099,-0.004250891830576142,0.305723571777345,0.0015842616923799728,2.9999995816857856,0.0,-0.0,-0.0,0.0,-0.0,-0.0,0.0
21/04/2022,17:33:09,32.339206,-0.015675438684411347,1.4130064686760306,3.0867156982421875,3.143707275390625,-2.43827798840357e-06,1.661570429801941,-0.039491135627031326,1.2928331898365286e-06,1.661570429801941,1.348135232925415,47.64148075877242,-122.140165000067,125.08660125732422,-0.0014702718917394783,-2.8079023167368864,0.03023014264526389,0.0015828464940838964,2.9999995824328,0.0,0.0015828464940838964,2.9999995824328,0.0,0.4104253093184385,-0.2651105369974088,-0.004275976403184112,0.31328430175781374,0.0015828464940838964,2.9999995824328,0.0,-0.0,-0.0,0.0,-0.0,-0.0,0.0
21/04/2022,17:33:10,32.493205,-0.018601952004246414,1.6768485568463802,3.0806732177734375,3.143707275390625,-3.6243782233214006e-06,1.7265326976776123,-0.03768095746636391,1.2928331898365286e-06,1.7265326976776123,1.348135232925415,47.64148313453705,-122.14016500007331,125.08055877685547,-0.001178668580207784,-2.266548220306328,0.030216504870065282,0.0015821324219436553,2.9999995828094708,0.0,0.0015821324219436553,2.9999995828094708,0.0,0.41590612701927465,-0.26643919558391477,-0.00429740638038556,0.31932678222656374,0.0015821324219436553,2.9999995828094708,0.0,-0.0,-0.0,0.0,-0.0,-0.0,0.0
21/04/2022,17:33:10,32.643205,-0.021570416865870357,1.9444585898891091,3.0751113891601562,3.143707275390625,-4.71660041512223e-06,1.7773866653442383,-0.034806638956069946,1.2928331898365286e-06,1.7773866653442383,1.348135232925415,47.64148549593554,-122.14016500008165,125.07511138916016,-0.0009464114375296177,-1.8404880887658372,0.030207824688274605,0.0015816779287510835,2.9999995830491257,0.0,0.0015816779287510835,2.9999995830491257,0.0,0.4210474624173559,-0.2677866710378983,-0.0043191398554500715,0.324888610839845,0.0015816779287510835,2.9999995830491257,0.0,-0.0,-0.0,0.0,-0.0,-0.0,0.0
21/04/2022,17:33:10,32.804203,-0.024676947854459286,2.224502056837082,3.0699310302734375,3.143707275390625,-5.735840659326641e-06,1.8187146186828613,-0.031424786895513535,1.2928331898365286e-06,1.8187146186828613,1.348135232925415,47.641488015723034,-122.1401650000925,125.06993103027344,-0.0007562843262736491,-1.4929146446696395,0.030202169801194632,0.0015813818395971051,2.9999995832052173,0.0,0.0015813818395971051,2.9999995832052173,0.0,0.4259474004759614,-0.26919660337356505,-0.0043418806995743076,0.33006896972656374,0.0015813818395971051,2.9999995832052173,0.0,-0.0,-0.0,0.0,-0.0,-0.0,0.0
21/04/2022,17:33:10,32.986208,-0.02846364409197122,2.565844340249896,3.064453125,3.143707275390625,-6.801286417612573e-06,1.857034683227539,-0.02733856625854969,1.2928331898365286e-06,1.857034683227539,1.348135232925415,47.641491087067735,-122.14016500010804,125.064453125,-0.0005784712938926426,-1.169633352952538,0.03019811208287275,0.0015811693779921132,2.999999583317204,0.0,0.0015811693779921132,2.999999583317204,0.0,0.4312838108735546,-0.270914980807791,-0.004369596464641745,0.33554687500000124,0.0015811693779921132,2.999999583317204,0.0,-0.0,-0.0,0.0,-0.0,-0.0,0.0
21/04/2022,17:33:10,33.139206,-0.03156888170633465,2.8457475416362286,3.060577392578125,3.143707275390625,-7.555593583674636e-06,1.8811049461364746,-0.024230336770415306,1.2928331898365286e-06,1.8811049461364746,1.348135232925415,47.641493656283366,-122.14016500012266,125.06050872802734,-0.0004660011410976091,-0.9660781596770603,0.030196043810099972,0.0015810610834980105,2.9999995833742794,0.0,0.0015810610834980105,2.9999995833742794,0.0,0.43518654577589794,-0.2723239444219235,-0.004392321684224321,0.33942260742187624,0.0015810610834980105,2.9999995833742794,0.0,-0.0,-0.0,0.0,-0.0,-0.0,0.0
21/04/2022,17:33:10,33.334207,-0.03553196194116026,3.2029637172818184,3.0563278198242188,3.143707275390625,-8.36650451674359e-06,1.904714822769165,-0.020695170387625694,1.2928331898365286e-06,1.904714822769165,1.348135232925415,47.64149687109725,-122.14016500014277,125.05626678466797,-0.0003526069359868062,-0.7660431787910802,0.03019446350466744,0.0015809783389105464,2.9999995834178863,0.0,0.0015809783389105464,2.9999995834178863,0.0,0.439628203945109,-0.274121947664409,-0.004421321736522987,0.3436721801757825,0.0015809783389105464,2.9999995834178863,0.0,-0.0,-0.0,0.0,-0.0,-0.0,0.0
21/04/2022,17:33:11,33.514205,-0.03947457438334823,3.5583242857828736,3.0527572631835938,3.143707275390625,-9.028840395330917e-06,1.92229425907135,-0.01767919398844242,1.2928331898365286e-06,1.92229425907135,1.348135232925415,47.6415000172478,-122.14016500016399,125.0527572631836,-0.00027132215353204504,-0.616849770233776,0.03019362683511373,0.001580934531001239,2.9999995834409723,0.0,0.001580934531001239,2.9999995834409723,0.0,0.44353570530521647,-0.2759104920127302,-0.004450169226012157,0.3472427368164075,0.001580934531001239,2.9999995834409723,0.0,-0.0,-0.0,0.0,-0.0,-0.0,0.0
21/04/2022,17:33:11,33.675236,-0.04274194943718612,3.852816409431398,3.0502166748046875,3.143707275390625,-9.493587640463375e-06,1.9335169792175293,-0.015537319704890251,1.2928331898365286e-06,1.9335169792175293,1.348135232925415,47.64150271914906,-122.14016500018327,125.0501708984375,-0.00021636902808852578,-0.5214839390284415,0.030193175592751448,0.001580910904009681,2.999999583453423,0.0,0.001580910904009681,2.999999583453423,0.0,0.44644714006982283,-0.27739260435583957,-0.004474074263804084,0.34978332519531374,0.001580910904009681,2.999999583453423,0.0,-0.0,-0.0,0.0,-0.0,-0.0,0.0
21/04/2022,17:33:11,33.855203,-0.046672216267324984,4.207049103453755,3.047576904296875,3.143707275390625,-9.95921618596185e-06,1.9439762830734253,-0.01334668230265379,1.2928331898365286e-06,1.9439762830734253,1.348135232925415,47.64150590675979,-122.14016500020702,125.04753112792969,-0.0001676449678041794,-0.432516673711526,0.03019291402601436,0.001580897208409255,2.9999995834606406,0.0,0.001580897208409255,2.9999995834606406,0.0,0.449623358355066,-0.27917530431275306,-0.004502827488915173,0.35242309570312624,0.001580897208409255,2.9999995834606406,0.0,-0.0,-0.0,0.0,-0.0,-0.0,0.0
21/04/2022,17:33:11,34.045206,-0.0506860394962132,4.56880555767566,3.0452651977539062,3.143707275390625,-1.0394404853286687e-05,1.952049970626831,-0.011487919837236404,1.2928331898365286e-06,1.952049970626831,1.348135232925415,47.6415091620063,-122.14016500023229,125.04522705078125,-0.00012857144198027452,-0.3637834846288274,0.03019262836704422,0.001580882251342631,2.9999995834685222,0.0,0.001580882251342631,2.9999995834685222,0.0,0.4525659665891342,-0.28099578901234,-0.004532190145360104,0.354734802246095,0.001580882251342631,2.9999995834685222,0.0,-0.0,-0.0,0.0,-0.0,-0.0,0.0
21/04/2022,17:33:11,34.234206,-0.05484466324560344,4.943606801331043,3.043212890625,3.143707275390625,-1.0696698154788464e-05,1.9583370685577393,-0.009903846308588982,1.2928331898365286e-06,1.9583370685577393,1.348135232925415,47.64151248180434,-122.1401650002589,125.043212890625,-9.297856893404131e-05,-0.3102231028264837,0.03019238027534463,0.0015808692612934204,2.9999995834753674,0.0,0.0015808692612934204,2.9999995834753674,0.0,0.45534602585603084,-0.2828818559600585,-0.004562610580002513,0.35678710937500124,0.0015808692612934204,2.9999995834753674,0.0,-0.0,-0.0,0.0,-0.0,-0.0,0.0
21/04/2022,17:33:11,34.386204,-0.05816713010426611,5.243044788949192,3.041778564453125,3.143707275390625,-1.1000984159181826e-05,1.9622045755386353,-0.008848674595355988,1.2928331898365286e-06,1.9622045755386353,1.348135232925415,47.64151517610076,-122.14016500028102,125.04177856445312,-7.770373611221517e-05,-0.27725331085696386,0.030192308766925795,0.001580865517121886,2.9999995834773405,0.0,0.001580865517121886,2.9999995834773405,0.0,0.4574063143475986,-0.284388642079077,-0.004586913581920982,0.35822143554687624,0.001580865517121886,2.9999995834773405,0.0,-0.0,-0.0,0.0,-0.0,-0.0,0.0
21/04/2022,17:33:12,34.576205,-0.062148732831701636,5.601883460767567,3.040252685546875,3.143707275390625,-1.1256092875555623e-05,1.9658069610595703,-0.007790988776832819,1.2928331898365286e-06,1.9658069610595703,1.348135232925415,47.641518457855106,-122.14016500030857,125.04022979736328,-6.636043324488054e-05,-0.24653311727893343,0.030192261205767294,0.0015808630268257958,2.999999583478653,0.0,0.0015808630268257958,2.999999583478653,0.0,0.4597244933198013,-0.2861942901332973,-0.004616036937633794,0.35974731445312624,0.0015808630268257958,2.999999583478653,0.0,-0.0,-0.0,0.0,-0.0,-0.0,0.0
21/04/2022,17:33:12,34.758206,-0.06620223342906684,5.967195841483772,3.0388870239257812,3.143707275390625,-1.1661788448691368e-05,1.9685859680175781,-0.006907706148922443,1.2928331898365286e-06,1.9685859680175781,1.348135232925415,47.64152169189928,-122.14016500033658,125.03888702392578,-4.368560968258802e-05,-0.22282237575519614,0.03019216704741515,0.0010539053978044605,1.999999722320834,0.0,0.0010539053978044605,1.999999722320834,0.0,0.46193814967294733,-0.28803244652032794,-0.004645684621296553,0.36111297607422,0.0010539053978044605,1.999999722320834,0.0,-0.0,-0.0,0.0,-0.0,-0.0,0.0
21/04/2022,17:33:12,34.907734,-0.06945965928025544,6.260763509199023,3.0389556884765625,3.143707275390625,-1.1170850484631956e-05,1.9317481517791748,0.024925878271460533,1.2928331898365286e-06,1.9685859680175781,1.348135232925415,47.64152438545963,-122.14016500035996,125.03902435302734,0.001826158582140819,3.3309115828135285,0.030242920296841946,0.0010556770201752426,1.999999721386488,0.0,0.0010556770201752426,1.999999721386488,0.0,0.4628073108625417,-0.28950959877686283,-0.0046695096576918615,0.36104431152343874,0.0010556770201752426,1.999999721386488,0.0,-0.0,-0.0,0.0,-0.0,-0.0,0.0
21/04/2022,17:33:12,35.096677,-0.07336153800133616,6.612405626103282,3.048431396484375,3.143707275390625,-1.1245856512687169e-05,1.7825959920883179,0.06361197680234909,1.2928331898365286e-06,1.9685859680175781,1.348135232925415,47.641527497396574,-122.14016500038775,125.04843139648438,0.0026840463629475607,4.967740779843949,0.03029448115904673,0.0010574768335453698,1.999999720435667,0.0,0.0010574768335453698,1.999999720435667,0.0,0.45658072252723453,-0.2912789068247769,-0.004698046884271001,0.35156860351562624,0.0010574768335453698,1.999999720435667,0.0,-0.0,-0.0,0.0,-0.0,-0.0,0.0
21/04/2022,17:33:12,35.276905,-0.07676581514533609,6.919187480583787,3.0593185424804688,3.143707275390625,-1.1155588254041504e-05,1.6282157897949219,0.053527798503637314,1.2928331898365286e-06,1.9685859680175781,1.348135232925415,47.64153030168136,-122.14016500041515,125.05947875976562,0.0025460361816654897,4.705414245638222,0.030276222334606192,0.0010568394804263447,1.9999997207725586,0.0,0.0010568394804263447,1.9999997207725586,0.0,0.4492561343779937,-0.2928223225949344,-0.004722940687015509,0.3406814575195325,0.0010568394804263447,1.9999997207725586,0.0,-0.0,-0.0,0.0,-0.0,-0.0,0.0
21/04/2022,17:33:13,35.458907,-0.07987794396467507,7.199630721472204,3.0673446655273438,3.143707275390625,-1.0699543963710312e-05,1.4922702312469482,0.03518575057387352,1.2928331898365286e-06,1.9685859680175781,1.348135232925415,47.64153282139881,-122.14016500044146,125.06745147705078,0.0021500820442490625,3.952810498642131,0.030242063661228637,0.0010556471179555237,1.9999997214022711,0.0,0.0010556471179555237,1.9999997214022711,0.0,0.44413422876813086,-0.2942331048455307,-0.004745695239445347,0.3326553344726575,0.0010556471179555237,1.9999997214022711,0.0,-0.0,-0.0,0.0,-0.0,-0.0,0.0
21/04/2022,17:33:13,35.637183,-0.08269651012960821,7.453615909442306,3.0722579956054688,3.143707275390625,-9.975433385989163e-06,1.3824849128723145,0.020600756630301476,1.2928331898365286e-06,1.9685859680175781,1.348135232925415,47.64153510376079,-122.14016500046588,125.07231903076172,0.0017372392290072572,3.171939536905834,0.030213514585928074,0.001054650567369422,1.9999997219280259,0.0,0.001054650567369422,1.9999997219280259,0.0,0.4413209007992397,-0.29551074159875396,-0.004766302283851331,0.3277420043945325,0.001054650567369422,1.9999997219280259,0.0,-0.0,-0.0,0.0,-0.0,-0.0,0.0
21/04/2022,17:33:13,35.779184,-0.08488832099828869,7.6511239893734455,3.0746536254882812,3.143707275390625,-9.265132575819734e-06,1.308445692062378,0.012174955569207668,1.2928331898365286e-06,1.9685859680175781,1.348135232925415,47.64153687890805,-122.14016500048477,125.07469177246094,0.0014304934180705243,2.5947809496535403,0.03019644046616887,0.0010540545682388846,1.9999997222422226,0.0,0.0010540545682388846,1.9999997222422226,0.0,0.4402135004156757,-0.2965042864561071,-0.004782327200906877,0.32534637451172,0.0010540545682388846,1.9999997222422226,0.0,-0.0,-0.0,0.0,-0.0,-0.0,0.0
21/04/2022,17:33:13,35.966187,-0.08742478024214506,7.879693571478128,3.0762100219726562,3.143707275390625,-8.374126991839148e-06,1.2359539270401,0.005485460627824068,1.2928331898365286e-06,1.9685859680175781,1.348135232925415,47.64153893358097,-122.14016500050592,125.07623291015625,0.001115153716778538,2.0049949911483425,0.030182493740515903,0.001053567735741431,1.9999997224987374,0.0,0.001053567735741431,1.9999997224987374,0.0,0.43984199650362277,-0.29765413424729215,-0.004800873133021355,0.323789978027345,0.001053567735741431,1.9999997224987374,0.0,-0.0,-0.0,0.0,-0.0,-0.0,0.0
21/04/2022,17:33:13,36.145183,-0.08987225510645658,8.100251462310553,3.0768280029296875,3.143707275390625,-7.515363449783763e-06,1.1790152788162231,0.0014733579009771347,1.2928331898365286e-06,1.9685859680175781,1.348135232925415,47.64154091658933,-122.1401650005253,125.07683563232422,0.0008600283294651468,1.5305904258442034,0.030173823281287336,0.0010532650796610157,1.9999997226581487,0.0,0.0010532650796610157,1.9999997226581487,0.0,0.44013991203901626,-0.29876375605566585,-0.004818770258964378,0.32317199707031374,0.0010532650796610157,1.9999997226581487,0.0,-0.0,-0.0,0.0,-0.0,-0.0,0.0
21/04/2022,17:33:13,36.325185,-0.0921800477663055,8.30822968762368,3.0768814086914062,3.143707275390625,-6.7568739723355975e-06,1.1359745264053345,-0.0007806140347383916,1.2928331898365286e-06,1.9685859680175781,1.348135232925415,47.64154275615784,-122.14016500054213,125.0768814086914,0.000663616823615845,1.1678118358242535,0.030168782446412763,0.001579633682031286,2.9999995841262095,0.0,0.001579633682031286,2.9999995841262095,0.0,0.4408119222304533,-0.2998101786785409,-0.0048356480432030224,0.323118591308595,0.001579633682031286,2.9999995841262095,0.0,-0.0,-0.0,0.0,-0.0,-0.0,0.0
21/04/2022,17:33:14,36.476183,-0.09402271173894405,8.474294031970203,3.07659912109375,3.143707275390625,-6.7060786932415795e-06,1.1463792324066162,0.013526393100619316,1.2928331898365286e-06,1.9685859680175781,1.348135232925415,47.64154428125426,-122.14016500055556,125.0766372680664,-0.0013226565566828556,-2.6059616977482674,0.030185240793976064,0.0015804954389750114,2.9999995836723325,0.0,0.0015804954389750114,2.9999995836723325,0.0,0.44158749098110267,-0.3006457545013398,-0.004849125072603044,0.32340087890625124,0.0015804954389750114,2.9999995836723325,0.0,-0.0,-0.0,0.0,-0.0,-0.0,0.0
21/04/2022,17:33:14,36.655186,-0.09641134401317686,8.68957450427115,3.08331298828125,3.143707275390625,-5.957750545348972e-06,1.2624098062515259,0.05223958194255829,1.2928331898365286e-06,1.9685859680175781,1.348135232925415,47.641546187439154,-122.14016500057049,125.08331298828125,-0.002286455002185147,-4.439133367884158,0.030228945660121253,0.0015827838200971104,2.9999995824658674,0.0,0.0015827838200971104,2.9999995824658674,0.0,0.4374411967660248,-0.30172910608014547,-0.004866598485165241,0.31668701171875124,0.0015827838200971104,2.9999995824658674,0.0,-0.0,-0.0,0.0,-0.0,-0.0,0.0
21/04/2022,17:33:14,36.832183,-0.09901405370328575,8.924170781858265,3.092529296875,3.143707275390625,-5.4210840971791185e-06,1.3966195583343506,0.048038970679044724,1.2928331898365286e-06,1.9685859680175781,1.348135232925415,47.64154833591045,-122.14016500058408,125.0926742553711,-0.0022641519156387066,-4.393325029053331,0.03021969071486093,0.00158229923236388,2.999999582721494,0.0,0.00158229923236388,2.999999582721494,0.0,0.43164396253873977,-0.30290990014038544,-0.004885643550652574,0.30747070312500124,0.00158229923236388,2.999999582721494,0.0,-0.0,-0.0,0.0,-0.0,-0.0,0.0
21/04/2022,17:33:14,36.976184,-0.10131994169205427,9.132023775018752,3.0986557006835938,3.143707275390625,-5.295257778925588e-06,1.4970165491104126,0.0362696647644043,1.2928331898365286e-06,1.9685859680175781,1.348135232925415,47.64155020884903,-122.14016500059434,125.09876251220703,-0.0020197025634056264,-3.9163672641638017,0.03019861156556171,0.0015811955308409173,2.99999958330342,0.0,0.0015811955308409173,2.99999958330342,0.0,0.42804415375139443,-0.3039562075908728,-0.004902519477274936,0.3013442993164075,0.0015811955308409173,2.99999958330342,0.0,-0.0,-0.0,0.0,-0.0,-0.0,0.0
21/04/2022,17:33:14,37.131185,-0.10382857325021178,9.358156630769372,3.1031570434570312,3.143707275390625,-5.466000402520876e-06,1.585750937461853,0.024856343865394592,1.2928331898365286e-06,1.9685859680175781,1.348135232925415,47.64155224595431,-122.14016500060484,125.10322570800781,-0.0017185701976922937,-3.3393859365804546,0.03017775261402856,0.001580103358844212,2.999999583878867,0.0,0.001580103358844212,2.999999583878867,0.0,0.42570255003657503,-0.3050945840140148,-0.004920880387324189,0.29684295654297,0.001580103358844212,2.999999583878867,0.0,-0.0,-0.0,0.0,-0.0,-0.0,0.0
21/04/2022,17:33:14,37.309182,-0.1070792757673189,9.65118100028485,3.106658935546875,3.143707275390625,-5.921930096519645e-06,1.6749041080474854,0.014427517540752888,1.2928331898365286e-06,1.9685859680175781,1.348135232925415,47.64155488494552,-122.14016500061845,125.10669708251953,-0.0013684740125180321,-2.6728428521684635,0.030158140200720458,0.0,0.0,0.0,0.0,0.0,0.0,0.4243328989833503,-0.3065696972608808,-0.004944672536467465,0.29334106445312624,0.0,0.0,0.0,-0.0,-0.0,0.0,-0.0,-0.0,0.0
21/04/2022,17:33:15,37.484184,-0.11037056881468743,9.94786626752466,3.108978271484375,3.143707275390625,-5.606441845884547e-06,1.6261273622512817,0.09206079691648483,1.2928331898365286e-06,1.9685859680175781,1.348135232925415,47.64155755322918,-122.14016500063194,125.10924530029297,0.0030963491592436733,5.812576004561277,0.030254095254889955,0.0,0.0,0.0,0.0,0.0,0.0,0.4238175414120657,-0.3080632619149207,-0.004968762288951822,0.29102172851562624,0.0,0.0,0.0,-0.0,-0.0,0.0,-0.0,-0.0,0.0
21/04/2022,17:33:15,37.661203,-0.11337864759843796,10.219008514657617,3.138946533203125,3.143707275390625,-6.487711743830005e-06,1.3721559047698975,0.20783327519893646,1.2928331898365286e-06,1.9685859680175781,1.348135232925415,47.641559986091934,-122.14016500064626,125.13956451416016,0.00458190572982664,8.666556022401927,0.0303942669296374,0.0,0.0,0.0,0.0,0.0,0.0,0.40486981034426767,-0.3094280901275362,-0.004990775647218726,0.26105346679687624,0.0,0.0,0.0,-0.0,-0.0,0.0,-0.0,-0.0,-0.0
21/04/2022,17:33:15,37.811433,-0.1154019336681813,10.401359031908214,3.168243408203125,3.168243408203125,-7.2806415118975565e-06,1.1577303409576416,0.18983297049999237,1.2928331898365286e-06,1.9685859680175781,1.348135232925415,47.64156162106925,-122.14016500065952,125.16881561279297,0.004483686821791875,8.490228446485363,0.030357256850069552,-0.999999859637925,0.0005298340591177789,0.0,-0.999999859637925,0.0005298340591177789,0.0,0.3873636906417201,-0.3103457027198492,-0.0050055758503226855,0.23175659179687624,-0.999999859637925,0.0005298340591177789,0.0,-0.0,-0.0,0.0,-0.0,-0.0,-0.0
21/04/2022,17:33:15,37.986203,-0.11744218273088336,10.585208068601787,3.197265625,3.197265625,-7.729172466497403e-06,0.9211003184318542,0.13507509231567383,1.2928331898365286e-06,1.9685859680175781,1.348135232925415,47.64156326892431,-122.14016500067738,125.19767761230469,0.0038717836075614033,7.323479392285257,0.030256108853816868,-1.9999997211434353,0.0010561373875966808,0.0,-1.9999997211434353,0.0010561373875966808,0.0,0.3715047359601253,-0.3112705201133407,-0.005020492259893317,0.20273437500000124,-1.9999997211434353,0.0010561373875966808,0.0,-0.0,-0.0,0.0,-0.0,-0.0,-0.0
21/04/2022,17:33:15,38.168202,-0.12170719215646386,10.730196252465248,3.2192840576171875,3.2192840576171875,-0.056448254734277725,0.7180746793746948,0.13278627395629883,1.2928331898365286e-06,1.9685859680175781,1.348135232925415,47.64156454890083,-122.14016503604843,125.21928405761719,-3.962447656789709,5.9618482622083135,0.07157034900064795,-1.9999984396538681,0.0024982758240294405,0.0,-1.9999984396538681,0.0024982758240294405,0.0,0.3582976206599313,-0.3093445308201296,-0.004989427916454403,0.18071594238281374,-1.9999984396538681,0.0024982758240294405,0.0,-0.0,-0.0,0.0,-0.0,-0.0,-0.0
21/04/2022,17:33:15,38.344201,-0.14548641501460224,10.844028667546809,3.24334716796875,3.24334716796875,-0.20362411439418793,0.5534763336181641,0.12566277384757996,1.2928331898365286e-06,1.9685859680175781,1.348135232925415,47.641565590342864,-122.14016534388824,125.24372863769531,-5.162085876540489,4.707682521107618,0.17027322496246178,-1.9999911682424396,0.00594364805834268,0.0,-1.9999911682424396,0.00594364805834268,0.0,0.3273597327284369,-0.28740702160514203,-0.004635597122662816,0.15665283203125124,-1.9999911682424396,0.00594364805834268,0.0,-0.0,-0.0,0.0,0.0,0.0,-0.0
21/04/2022,17:33:16,38.524994,-0.19675480853766203,10.93147285003215,3.26300048828125,3.26300048828125,-0.35757625102996826,0.42713814973831177,0.09032687544822693,1.2928331898365286e-06,1.9685859680175781,1.348135232925415,47.64156637876379,-122.14016601963388,125.26327514648438,-4.81465100607643,3.6660994024446305,0.25938761596264887,-1.9999795047854707,0.009054304946446488,0.0,-1.9999795047854707,0.009054304946446488,0.0,0.27426127046191023,-0.23756198509316528,-0.0038316449208597447,0.13699951171875124,-1.9999795047854707,0.009054304946446488,0.0,-0.0,-0.0,0.0,0.0,0.0,-0.0
21/04/2022,17:33:16,38.704958,-0.2741100445855409,10.998518923297524,3.2762603759765625,3.2762603759765625,-0.4929778277873993,0.3293721377849579,0.05724262073636055,1.2928331898365286e-06,1.9685859680175781,1.348135232925415,47.6415669870267,-122.14016704492549,125.27642822265625,-4.042643594677538,2.834755260120309,0.32335404413697966,-1.9999681499457485,0.011287125523350344,0.0,-1.9999681499457485,0.011287125523350344,0.0,0.20331877985506147,-0.1613079744753257,-0.0026017415237973296,0.12373962402343874,-1.9999681499457485,0.011287125523350344,0.0,-0.0,-0.0,0.0,0.0,0.0,0.0
21/04/2022,17:33:16,38.851955,-0.3539113390725106,11.041366615332663,3.2831878662109375,3.2831878662109375,-0.5856961607933044,0.2661553621292114,0.03729132562875748,1.2928331898365286e-06,1.9685859680175781,1.348135232925415,47.64156737158698,-122.14016808125099,125.28318786621094,-3.3868515731193427,2.2916501641714313,0.3588921150762571,-1.9999607643231465,0.0125276162128277,0.0,0.11039574257748686,0.04656562438864465,0.08249599799107936,0.14285198517643338,-0.08221834662051869,-0.0013261023648478698,0.11681213378906374,-1.9999607643231465,0.0125276162128277,0.0,-0.0,-0.0,0.0,2.1103565069006334,0.03403800817581695,0.08249599799107936
21/04/2022,17:33:16,38.998955,-0.44274844776373357,11.075165991671383,3.28472900390625,3.28472900390625,-0.6238821148872375,0.2168595939874649,-0.002417483367025852,1.2928331898365286e-06,1.9685859680175781,1.348135232925415,47.641567690397196,-122.1401692838372,125.28472137451172,0.6784596223495936,1.8358832120348834,0.373187798557144,-1.9999575763460335,0.013026619519268371,0.0,0.2802935650021332,0.04980486373456011,0.21971318218930663,0.11542972929965618,0.006050648041655671,9.759109744678085e-05,0.11527099609375124,-1.9999575763460335,0.013026619519268371,0.0,0.0,0.0,0.0,2.2802511413481668,0.036778244215291744,0.21971318218930663
21/04/2022,17:33:16,39.185954,-0.5528357970761135,11.108788348734379,3.2871017456054688,3.2871017456054688,-0.5591944456100464,0.1652000993490219,0.025215188041329384,1.2928331898365286e-06,1.9685859680175781,1.348135232925415,47.641568002478664,-122.14017074181186,125.28717803955078,2.942940145841079,1.389976680794067,0.36079313506592864,-1.9999603475678138,0.012593973020049208,0.0,0.26862192924546147,0.04918400974284176,0.11537017462680163,0.16157125534840053,0.11556721101145617,0.0018639872743761998,0.1128982543945325,-1.9999603475678138,0.012593973020049208,0.0,0.0,0.0,0.0,2.2685822768132753,0.036590036722792554,0.11537017462680163
21/04/2022,17:33:16,39.356957,-0.6441266380716115,11.133589963428676,3.2919387817382812,3.2919387817382812,-0.46317312121391296,0.12737473845481873,0.026547888293862343,1.2928331898365286e-06,1.9685859680175781,1.348135232925415,47.641568230252304,-122.14017193103217,125.29193878173828,3.213589701563744,1.067527957127024,0.3450044488876281,-0.9999818710430317,0.006021427179455656,0.0,1.1678199054958112,0.04098597196233517,0.10559270850594756,0.2330310478980967,0.20643438725999919,0.003329586891288372,0.10806121826172,-0.9999818710430317,0.006021427179455656,0.0,0.0,0.0,0.0,2.167801776538843,0.03496454478287952,0.10559270850594756
21/04/2022,17:33:17,39.506961,-0.704039431642741,11.149421489797533,3.3008193969726562,3.3008193969726562,-0.3420860767364502,0.10155658423900604,0.11834505945444107,1.2928331898365286e-06,1.9685859680175781,1.348135232925415,47.641568381404426,-122.14017274001735,125.30117797851562,6.422410709716908,0.8425761064508521,0.328250309918997,-0.9999835890455049,0.005729017339024955,0.0,-0.9999835890455049,0.005729017339024955,0.0,0.2839926345359257,0.2660763180408971,0.0042915535167864505,0.099180603027345,-0.9999835890455049,0.005729017339024955,0.0,0.0,0.0,0.0,0.0,0.0,-0.0
