date,fly_time,fly_time_s,x,y,z,z_max,vx,vy,vz,vx_max,vy_max,vz_max,latitude,longitude,altitude,pitch,roll,yaw,cx,cy,cz,scx,scy,scz,d,dx,dy,dz,gc_pow_x,gc_pow_y,gc_pow_z,gpc_pow_x,gpc_pow_y,gpc_pow_z,gfc_pow_x,gfc_pow_y,gfc_pow_z
22/04/2022,12:02:44,24.580848,0.0,0.0,2.728271484375,2.728271484375,0.0,0.0,-0.02388070337474346,0,0,0,47.641468,-122.140165,124.72820281982422,0.0,0.0,0.0,0.0,0.0,0.0,0.0,0.0,0.0,0.7195826378505565,-0.25799739921976594,-0.004161248374512427,0.6717285156250012,0.0,0.0,0.0,-0.0,-0.0,0.0,-0.0,-0.0,0.0
22/04/2022,12:02:44,24.763849,0.0,0.0,2.7241897583007812,2.728271484375,0.0,0.0,-0.020014557987451553,0,0,0,47.641468,-122.140165,124.72418975830078,0.0,0.0,0.0,0.0,0.0,0.0,0.0,0.0,0.0,0.7233943991888213,-0.25799739921976594,-0.004161248374512427,0.67581024169922,0.0,0.0,0.0,-0.0,-0.0,0.0,-0.0,-0.0,0.0
22/04/2022,12:02:44,24.952847,0.0,0.0,2.72076416015625,2.728271484375,0.0,0.0,-0.016864972189068794,0,0,0,47.641468,-122.140165,124.72071075439453,0.0,0.0,0.0,0.0,0.0,3.0,0.0,0.0,3.0,0.7265956923354582,-0.25799739921976594,-0.004161248374512427,0.6792358398437512,0.0,0.0,3.0,-0.0,-0.0,0.0,-0.0,-0.0,0.0
22/04/2022,12:02:45,25.14085,0.0,0.0,2.7939224243164062,2.7939224243164062,0.0,0.0,1.0095860958099365,0,0,1.0095860958099365,47.641468,-122.140165,124.79692077636719,0.0,0.0,0.0,0.0,0.0,0.0,-0.4329441985952542,-0.006982970945084868,-2.371307299554085,0.6587184540748053,-0.25799739921976594,-0.004161248374512427,0.606077575683595,0.0,0.0,0.0,-0.0,-0.0,0.0,-0.4329441985952542,-0.006982970945084868,-2.371307299554085
22/04/2022,12:02:45,25.335846,0.0,0.0,2.9680557250976562,2.9680557250976562,0.0,0.0,0.46243685483932495,0,0,1.0095860958099365,47.641468,-122.140165,124.9694595336914,0.0,0.0,0.0,-1.0,5.0,0.0,-1.0,5.0,0.0,0.5031459337141763,-0.25799739921976594,-0.004161248374512427,0.431944274902345,-1.0,5.0,0.0,-0.0,-0.0,0.0,-0.0,-0.0,-0.0
22/04/2022,12:02:45,25.534848,-0.004397937562316656,0.016895873472094536,3.0380477905273438,3.0380477905273438,-0.08948568999767303,0.38662973046302795,0.6954678893089294,0,0.38662973046302795,1.0095860958099365,47.64146816265824,-122.14016505956592,125.04011535644531,-4.188371667450123,-19.12928887658429,0.7282152285246564,-0.9363721760747674,5.012305572076887,0.0,-1.1096881089118389,5.009510153805321,-2.040100376328309,0.44212859393269727,-0.2538730486776917,-0.004094726591575837,0.3619522094726575,-0.9363721760747674,5.012305572076887,0.0,-0.0,-0.0,0.0,-0.17331593283707136,-0.0027954182715657083,-2.040100376328309
22/04/2022,12:02:45,25.692849,-0.026719144312664866,0.11249207146465778,3.1344833374023438,3.1344833374023438,-0.17875877022743225,0.8266541361808777,0.2882767915725708,0,0.8266541361808777,1.0095860958099365,47.64146903688852,-122.140165346198,125.13536834716797,-5.735991581385381,-27.292628466512145,1.4119526565310176,-0.8764927283670789,5.023122584321394,0.0,-0.8764927283670789,5.023122584321394,0.0,0.35333897759255123,-0.2330991203362614,-0.003759663231230115,0.2655166625976575,-0.8764927283670789,5.023122584321394,0.0,-0.0,-0.0,0.0,0.0,0.0,-0.0
22/04/2022,12:02:45,25.851848,-0.06532506656367332,0.29619853012263775,3.1795272827148438,3.1795272827148438,-0.2946082353591919,1.7263942956924438,0.5563467741012573,0,1.7263942956924438,1.0095860958099365,47.6414707175905,-122.14016583765078,125.1811752319336,-1.759625976412924,-25.19779685118398,1.2398281109580194,-0.8915789142615713,5.020466814913147,-3.0,-0.8915789142615713,5.020466814913147,-3.0,0.2959915147614914,-0.19746547542180581,-0.0031849270229323823,0.2204727172851575,-0.8915789142615713,5.020466814913147,-3.0,-0.0,-0.0,0.0,0.0,0.0,-0.0
22/04/2022,12:02:45,26.011847,-0.11627300234977156,0.6133180530741811,3.257781982421875,3.257781982421875,-0.3025994300842285,2.2314038276672363,0.12100009620189667,0,2.2314038276672363,1.0095860958099365,47.641473589516366,-122.1401664694054,125.25817108154297,0.38619643344624643,-25.615579777095775,1.170180272772611,-0.8976810536410734,5.019379316801417,-3.0,-0.8976810536410734,5.019379316801417,-3.0,0.20791329388531823,-0.15164429083435044,-0.002445875658618535,0.14221801757812624,-0.8976810536410734,5.019379316801417,-3.0,-0.0,-0.0,0.0,0.0,0.0,-0.0
22/04/2022,12:02:46,26.200848,-0.17672210419550538,1.0689295129850507,3.1874160766601562,3.257781982421875,-0.27944302558898926,2.6115682125091553,-0.890561580657959,0,2.6115682125091553,1.0095860958099365,47.64147770481539,-122.14016720592815,125.18476867675781,1.3229653416792246,-23.21449317647284,1.1868072019500295,-0.8962244187959042,5.019639607696348,0.0,-0.43295478386859576,5.027111698582272,2.4567021540735907,0.23432465993541843,-0.09855757120352415,-0.0015896382452182944,0.212583923339845,-0.8962244187959042,5.019639607696348,0.0,-0.0,-0.0,0.0,0.46326963492730844,0.007472090885923356,2.4567021540735907
22/04/2022,12:02:46,26.350847,-0.2218117096927017,1.514772075228393,3.0437850952148438,3.257781982421875,-0.22452139854431152,3.2087643146514893,-0.5828552842140198,0,3.2087643146514893,1.0095860958099365,47.64148173645921,-122.14016773816441,125.04200744628906,1.0640282638284368,-14.060489474320864,1.3841497347560663,-0.8789301080032454,5.022696672629694,0.0,-0.42759672107961294,5.029976243386526,2.4120600297752066,0.36134571121098324,-0.060668831366817944,-0.0009785295381750103,0.3562149047851575,-0.8789301080032454,5.022696672629694,0.0,-0.0,-0.0,0.0,0.4513333869236325,0.007279570756831226,2.4120600297752066
22/04/2022,12:02:46,26.536847,-0.2660033585270867,2.1882203612476587,3.0413360595703125,3.257781982421875,-0.15841913223266602,3.7945516109466553,0.6066742539405823,0,3.7945516109466553,1.0095860958099365,47.64148771338444,-122.14016821802299,125.04133605957031,0.8303393576473005,-8.868709374780034,1.4688837432578619,-0.871501146545649,5.02399101826124,0.0,-0.871501146545649,5.02399101826124,0.0,0.3597053314249477,-0.027347919952986632,-0.0004410954831133296,0.35866394042968874,-0.871501146545649,5.02399101826124,0.0,-0.0,-0.0,0.0,0.0,0.0,-0.0
22/04/2022,12:02:46,26.727844,-0.30107757064979523,2.928020875900984,3.1598663330078125,3.257781982421875,-0.12747757136821747,4.029839992523193,0.4968169629573822,0,4.029839992523193,1.0095860958099365,47.641494372674906,-122.14016857571744,125.15986633300781,0.7814045916319733,-7.7510758937898245,1.4836285992088944,-0.8702082122816291,5.024215129478197,0.0,-0.8702082122816291,5.024215129478197,0.0,0.2401706133617929,-0.0042119929071646744,-6.793536947080625e-05,0.24013366699218874,-0.8702082122816291,5.024215129478197,0.0,-0.0,-0.0,0.0,0.0,0.0,-0.0
22/04/2022,12:02:46,26.918848,-0.33128067944198847,3.7066715946421027,3.2419586181640625,3.257781982421875,-0.10020322352647781,4.225922107696533,0.3762677311897278,0,4.225922107696533,1.0095860958099365,47.641501494855476,-122.14016886684722,125.24308776855469,0.6596374253824032,-6.456398680529072,1.499685092631136,-0.8688001987311643,5.024458798187592,-1.0,-0.8688001987311643,5.024458798187592,-1.0,0.15861092936099674,0.013427644449205023,0.00021657491047122335,0.15804138183593874,-0.8688001987311643,5.024458798187592,-1.0,0.0,0.0,0.0,0.0,0.0,-0.0
22/04/2022,12:02:47,27.107847,-0.3577029024017975,4.513851531781256,3.2540283203125,3.257781982421875,-0.08597350120544434,4.31846809387207,-0.39554986357688904,0,4.31846809387207,1.0095860958099365,47.641508761995254,-122.14016909884494,125.25286102294922,0.5688376093640098,-5.626108607449835,1.5086163971436,-0.8680169721738838,5.024594166300209,-1.0,-0.8680169721738838,5.024594166300209,-1.0,0.1484170651337891,0.026827350289225393,0.00043269919821309344,0.14597167968750124,-0.8680169721738838,5.024594166300209,-1.0,0.0,0.0,0.0,0.0,0.0,0.0
22/04/2022,12:02:47,27.300845,-0.38187431637197733,5.33643922675401,3.1188888549804688,3.257781982421875,-0.07103753834962845,4.4172773361206055,-0.8697378635406494,0,4.4172773361206055,1.0095860958099365,47.64151616766348,-122.14016929858164,125.11628723144531,0.45883956037703133,-4.670132299520586,1.5173191185703283,-0.8672537708139173,5.024725952428554,-5.0,-0.821098293640419,5.025470395608772,-2.500421626727909,0.2836322922084732,0.0377283849350149,0.000608522337660844,0.2811111450195325,-0.8672537708139173,5.024725952428554,-5.0,0.0,0.0,0.0,0.046155477173498334,0.0007444431802179877,2.499578373272091
22/04/2022,12:02:47,27.487847,-0.4032409524079412,6.163130973465741,2.904693603515625,3.257781982421875,-0.061110466718673706,4.477779388427734,-1.5850176811218262,0,4.477779388427734,1.0095860958099365,47.64152360897187,-122.14016946057087,124.89996337890625,0.3893554103545651,-4.124971283072021,1.5215021375507605,-0.8668869260547322,5.024789255027057,0.0,-0.8359968330491999,5.025287482333594,4.809514119894194,0.4974161989204434,0.0457591939405072,0.0007380515151691469,0.49530639648437624,-0.8668869260547322,5.024789255027057,0.0,0.0,0.0,0.0,0.03089009300553227,0.000498227306536421,4.809514119894194
22/04/2022,12:02:47,27.667846,-0.42227063281461596,6.990660623647273,2.6552963256835938,3.257781982421875,-0.04550602287054062,4.589584827423096,-0.7841429710388184,0,4.589584827423096,1.0095860958099365,47.6415310589403,-122.14016959110417,124.65291595458984,0.19954385945331118,-2.247591752750132,1.5315478126544584,-0.8660059159014729,5.024941169170406,0.0,-0.8720784982697999,5.024843224293495,2.5153242812042613,0.7464786261700632,0.05144014405026087,0.0008296797427451708,0.7447036743164075,-0.8660059159014729,5.024941169170406,0.0,0.0,0.0,0.0,-0.006072582368326965,-9.794487691098423e-05,2.5153242812042613
22/04/2022,12:02:47,27.857849,-0.43894271459430456,7.8365578996017575,2.619415283203125,3.257781982421875,-0.03400944173336029,4.671764850616455,0.43317946791648865,0,4.671764850616455,1.0095860958099365,47.64153867313406,-122.1401696877024,124.62068939208984,0.1607983935450388,-1.9585247026862758,1.53292458562074,-0.865885170228023,5.024961977167507,-3.0,-0.865885170228023,5.024961977167507,-3.0,0.782483244349997,0.05446793371266523,0.0008785150598793479,0.7805847167968762,-0.865885170228023,5.024961977167507,-3.0,0.0,0.0,0.0,-0.0,-0.0,-0.0
22/04/2022,12:02:47,28.038849,-0.45440995949320495,8.70707130804658,2.68988037109375,3.257781982421875,-0.02935957722365856,4.695259094238281,-0.03657793253660202,0,4.695259094238281,1.0095860958099365,47.641546380572514,-122.14016976372505,124.68988037109375,0.1925393540753926,-2.535407028424253,1.5313954282598141,-0.8927439904530573,4.025296034766878,0.0,-0.8927439904530573,4.025296034766878,0.0,0.7123165513813444,0.05589426871079117,0.000901520463076011,0.7101196289062512,-0.8927439904530573,4.025296034766878,0.0,0.0,0.0,0.0,-0.0,-0.0,0.0
22/04/2022,12:02:48,28.221846,-0.46879831107798964,9.5652297725901,2.656463623046875,3.257781982421875,-0.02323143370449543,4.676331996917725,-0.16705907881259918,0,4.695259094238281,1.0095860958099365,47.641554102634394,-122.14016982857278,124.65646362304688,0.2529334447170965,1.9349218750082215,1.548994286500604,0.0,0.0,0.0,-0.09368589544513596,-0.0015110628297724969,2.106945785783198,0.7456760577077644,0.05644121245336953,0.0009103421363452213,0.7435363769531262,0.0,0.0,0.0,0.0,0.0,0.0,-0.09368589544513596,-0.0015110628297724969,2.106945785783198
22/04/2022,12:02:48,28.402846,-0.4816465110052377,10.39424560405314,2.670379638671875,3.257781982421875,-0.01635007932782173,4.222869396209717,0.5393083095550537,0,4.695259094238281,1.0095860958099365,47.641561562353964,-122.14016987722016,124.67037963867188,0.6100825455604741,17.110961241633177,1.6622041630726525,0.0,0.0,0.0,0.0,0.0,0.0,0.731760578474953,0.05591832531933394,0.0009019084728922877,0.7296203613281262,0.0,0.0,0.0,0.0,0.0,0.0,-0.0,-0.0,-0.0
22/04/2022,12:02:48,28.584846,-0.4913700536126271,11.04917473718524,2.8405685424804688,3.257781982421875,-0.01204668078571558,3.236177444458008,1.4428125619888306,0,4.695259094238281,1.4428125619888306,47.641567543003454,-122.14016991045527,124.84487915039062,0.7343896407789781,22.46444169534893,1.722170459453451,0.0,0.0,0.0,-0.027269353042622246,-0.00043982827488321874,-2.5172279391524945,0.5621370024367781,0.05507871323314795,0.0008883663424690269,0.5594314575195325,0.0,0.0,0.0,0.0,0.0,0.0,-0.027269353042622246,-0.00043982827488321874,-2.5172279391524945
22/04/2022,12:02:48,28.764849,-0.49918020621407777,11.571989390999079,3.0607528686523438,3.257781982421875,-0.010975157842040062,2.754591941833496,0.7908377647399902,0,4.695259094238281,1.4428125619888306,47.641572234277014,-122.1401699371972,125.06314849853516,0.7804791848701859,24.573629895988056,1.748538029920179,0.0,0.0,0.0,-0.02284251630123692,-0.0003684276822799756,-2.2825484905399205,0.3435911838357972,0.054456533275675456,0.0008783311818643114,0.3392471313476575,0.0,0.0,0.0,0.0,0.0,0.0,-0.02284251630123692,-0.0003684276822799756,-2.2825484905399205
22/04/2022,12:02:48,28.940849,-0.5060177670093253,12.019962502643466,3.1215667724609375,3.257781982421875,-0.010471408255398273,2.3950321674346924,-0.1176338642835617,0,4.695259094238281,1.4428125619888306,47.64157625556314,-122.14016996206412,125.1212387084961,0.5607876938871418,22.411270656433594,1.36459959409184,0.0,0.0,0.0,0.0,0.0,0.0,0.2836357880233971,0.05406882216383663,0.00087207777683318,0.27843322753906374,0.0,0.0,0.0,0.0,0.0,0.0,-0.0,-0.0,0.0
22/04/2022,12:02:49,29.11485,-0.5117948752595112,12.384162870235741,3.097930908203125,3.257781982421875,-0.009323909878730774,1.7134474515914917,0.1429518461227417,0,4.695259094238281,1.4428125619888306,47.64157951446389,-122.14016998515635,125.09834289550781,-0.19818110917386347,15.981196506910686,-0.81831942638756,0.0,0.0,0.0,0.0,0.0,0.0,0.306854109433935,0.053971756188022135,0.0008705121965792983,0.30206909179687624,0.0,0.0,0.0,0.0,0.0,0.0,0.0,0.0,0.0
22/04/2022,12:02:49,29.258846,-0.515524621703662,12.602752427570522,3.1411514282226562,3.257781982421875,-0.008406543172895908,1.30403470993042,0.31203770637512207,0,4.695259094238281,1.4428125619888306,47.64158147031632,-122.1401700024995,125.14208984375,-0.8939636309242747,12.098296188022426,-4.412806630414507,0.0,0.0,0.0,0.0,0.0,0.0,0.2644586266283096,0.05417581152652906,0.0008738034117179438,0.258848571777345,0.0,0.0,0.0,0.0,0.0,0.0,0.0,0.0,-0.0
22/04/2022,12:02:49,29.434849,-0.5191187279997393,12.803393697366118,3.183868408203125,3.257781982421875,-0.007220899686217308,1.0098592042922974,0.1798027902841568,0,4.695259094238281,1.4428125619888306,47.64158326784491,-122.14017002067617,125.18441009521484,-1.1555318891820376,8.947559605535828,-7.654081559064874,0.0,0.0,0.0,0.0,0.0,0.0,0.2229070666394258,0.05453367521308161,0.0008795754066603934,0.21613159179687624,0.0,0.0,0.0,0.0,0.0,0.0,0.0,0.0,-0.0
22/04/2022,12:02:49,29.608846,-0.5219917561626062,12.959006313234568,3.2075653076171875,3.257781982421875,-0.005916082300245762,0.7834925651550293,0.09768952429294586,0,4.695259094238281,1.4428125619888306,47.641584662014445,-122.1401700358969,125.2078628540039,-1.212636047704394,6.727872171546763,-10.56546268137249,0.0,0.0,0.0,0.0,0.0,0.0,0.20011383152820972,0.054896728028222375,0.0008854310972274959,0.19243469238281374,0.0,0.0,0.0,0.0,0.0,0.0,0.0,0.0,-0.0
22/04/2022,12:02:49,29.781845,-0.5242662088712677,13.079723685979843,3.2203369140625,3.257781982421875,-0.004819496069103479,0.6077955961227417,0.051856692880392075,0,4.695259094238281,1.4428125619888306,47.641585743561805,-122.14017004830886,125.22048950195312,-1.2483986639559745,5.084357986859604,-14.162149698288186,0.0,0.0,0.0,0.0,0.0,0.0,0.18796093354393043,0.055224041188661366,0.0008907103417516993,0.17966308593750124,0.0,0.0,0.0,0.0,0.0,0.0,0.0,0.0,0.0
22/04/2022,12:02:49,29.957859,-0.5260639999760315,13.173371062614024,3.2269744873046875,3.257781982421875,-0.0038833189755678177,0.47150254249572754,0.02599555253982544,0,4.695259094238281,1.4428125619888306,47.641586582575236,-122.14017005837844,125.22705078125,-1.0828997685790742,3.885094958203218,-15.983593207147655,0.0,0.0,-2.0,0.0,0.0,-2.0,0.1817144350023607,0.05551131600150727,0.0008953438064764896,0.17302551269531374,0.0,0.0,-2.0,0.0,0.0,0.0,0.0,0.0,0.0
22/04/2022,12:02:50,30.132846,-0.5275260468479246,13.248623485676944,3.18609619140625,3.257781982421875,-0.0033605312928557396,0.4023915231227875,-0.6500552892684937,0,4.695259094238281,1.4428125619888306,47.64158725787142,-122.14017006671088,125.18417358398438,-1.0280227326503544,3.4865300918914555,-16.887822793939556,0.0,0.0,-3.0,0.07982968972344891,0.0012875756406972253,-0.5584093516545807,0.22105378422815486,0.05575954953743867,0.0008993475731831069,0.21390380859375124,0.0,0.0,-3.0,0.0,0.0,0.0,0.07982968972344891,0.0012875756406972253,2.4415906483454193
22/04/2022,12:02:50,30.301848,-0.5286996276117861,13.309107745997608,3.0931549072265625,3.257781982421875,-0.002369513502344489,0.28929728269577026,-0.26527220010757446,0,4.695259094238281,1.4428125619888306,47.641587791297574,-122.14017007326957,125.09315490722656,-0.7474853659489519,2.5152805562206657,-17.019593297985228,0.0,0.0,0.0,0.0,0.0,0.0,0.31190698978827475,0.05595752621270589,0.0009025407453648882,0.30684509277343874,0.0,0.0,0.0,0.0,0.0,0.0,0.0,0.0,0.0
22/04/2022,12:02:50,30.475847,-0.5295285818865523,13.35216443426907,3.0570755004882812,3.257781982421875,-0.00176810787525028,0.21884895861148834,-0.18196696043014526,0,4.695259094238281,1.4428125619888306,47.64158818466449,-122.14017007801885,125.05652618408203,-0.5269663765777209,1.8275681439590787,-16.556029055191296,0.0,0.0,0.0,0.0,0.0,0.0,0.34748286489890357,0.05609198279511696,0.0009047093999203781,0.34292449951172,0.0,0.0,0.0,0.0,0.0,0.0,0.0,0.0,0.0
22/04/2022,12:02:50,30.650845,-0.5301720997085795,13.38574436865747,3.028045654296875,3.257781982421875,-0.0013494123704731464,0.16850920021533966,-0.15200813114643097,0,4.695259094238281,1.4428125619888306,47.64158848092406,-122.14017008155729,125.02804565429688,-0.39055613465331285,1.375433360960164,-16.31336269841611,0.0,0.0,0.0,0.0,0.0,0.0,0.3761762976573314,0.05619386226866485,0.0009063526172354841,0.37195434570312624,0.0,0.0,0.0,0.0,0.0,0.0,0.0,0.0,0.0
22/04/2022,12:02:50,30.822848,-0.5306599754840136,13.41127787809819,3.0041122436523438,3.257781982421875,-0.0010446462547406554,0.1310006082057953,-0.12768709659576416,0,4.695259094238281,1.4428125619888306,47.641588710691,-122.14017008428237,125.00411224365234,-0.2984511221030489,1.058877558753736,-16.194684428158503,0.0,0.0,0.0,0.0,0.0,0.0,0.39986777759791253,0.056269887469040436,0.0009075788301444732,0.3958877563476575,0.0,0.0,0.0,0.0,0.0,0.0,0.0,0.0,0.0
22/04/2022,12:02:50,31.001847,-0.5310510027920827,13.431766071356833,2.9833908081054688,3.257781982421875,-0.0008068559691309929,0.10118686407804489,-0.10636298358440399,0,4.695259094238281,1.4428125619888306,47.641588897792694,-122.1401700864951,124.98307037353516,-0.22888515727603184,0.8151334397273218,-16.133686767416226,0.0,0.0,0.0,0.0,0.0,0.0,0.4204011931459229,0.056330444293535065,0.000908555553120749,0.4166091918945325,0.0,0.0,0.0,0.0,0.0,0.0,0.0,0.0,0.0
22/04/2022,12:02:51,31.273848,-0.5314842048101127,13.454420051537454,2.9582595825195312,3.257781982421875,-0.0005503109423443675,0.06836666166782379,-0.08039351552724838,0,4.695259094238281,1.4428125619888306,47.641589098912036,-122.14017008888545,124.95825958251953,-0.15430801484547657,0.5509407167062608,-16.094769895472425,0.0,0.0,0.0,0.0,0.0,0.0,0.4453270546310128,0.05639824189720449,0.0009096490628550669,0.44174041748047,0.0,0.0,0.0,0.0,0.0,0.0,0.0,0.0,0.0
22/04/2022,12:02:51,31.427846,-0.5316678717499599,13.463990945369005,2.9466476440429688,3.257781982421875,-0.0004418384633027017,0.05451914668083191,-0.06834881752729416,0,4.695259094238281,1.4428125619888306,47.641589185037176,-122.14017008991748,124.94664764404297,-0.1231310490055026,0.4399536445000257,-16.085521997688048,0.0,0.0,0.0,0.0,0.0,0.0,0.45685145653289866,0.056427531962020216,0.0009101214832565319,0.4533523559570325,0.0,0.0,0.0,0.0,0.0,0.0,0.0,0.0,0.0
22/04/2022,12:02:51,31.600851,-0.5318272162694484,13.472269019111991,2.9358978271484375,3.257781982421875,-0.0003475241828709841,0.04253753274679184,-0.05724670737981796,0,4.695259094238281,1.4428125619888306,47.64158926067515,-122.14017009083048,124.93572998046875,-0.09618524327447481,0.3438628563763171,-16.08024830667298,0.0,0.0,0.0,0.0,0.0,0.0,0.4675239426246302,0.05645335244598604,0.0009105379426763704,0.46410217285156374,0.0,0.0,0.0,0.0,0.0,0.0,0.0,0.0,0.0
22/04/2022,12:02:51,31.76985,-0.5319519623881206,13.47872874699533,2.9268951416015625,3.257781982421875,-0.0002733796718530357,0.033184170722961426,-0.048005279153585434,0,4.695259094238281,1.4428125619888306,47.64158931855657,-122.14017009153504,124.9267578125,-0.07513527860844238,0.2687122580482924,-16.077616834043585,0.0,0.0,0.0,0.0,0.0,0.0,0.47646441479186485,0.05647390405883623,0.0009108694203021628,0.47310485839843874,0.0,0.0,0.0,0.0,0.0,0.0,0.0,0.0,0.0
22/04/2022,12:02:51,31.944882,-0.5320496682543308,13.483765363693237,2.919342041015625,3.257781982421875,-0.00021505894255824387,0.02588302455842495,-0.04032297059893608,0,4.695259094238281,1.4428125619888306,47.641589363684005,-122.14017009208911,124.91921997070312,-0.058675377213645574,0.20991762439383108,-16.076223711910114,0.0,0.0,0.0,0.0,0.0,0.0,0.4839670087848269,0.056490369888339886,0.0009111349981978378,0.48065795898437624,0.0,0.0,0.0,0.0,0.0,0.0,0.0,0.0,0.0
22/04/2022,12:02:52,32.114879,-0.5321272913133726,13.487752377986908,2.9128875732421875,3.257781982421875,-0.0001684419548837468,0.020096981897950172,-0.03384126350283623,0,4.695259094238281,1.4428125619888306,47.641589399405554,-122.14017009253203,124.91278839111328,-0.04560797151206009,0.16321958006898848,-16.07553138140059,0.0,0.0,0.0,0.0,0.0,0.0,0.49037945820597373,0.056503682801928745,0.0009113497226103107,0.48711242675781374,0.0,0.0,0.0,0.0,0.0,0.0,0.0,0.0,0.0
22/04/2022,12:02:52,32.288878,-0.5321877934038639,13.490850494243205,2.907470703125,3.257781982421875,-0.0001319316797889769,0.015601900406181812,-0.028479935601353645,0,4.695259094238281,1.4428125619888306,47.64158942715424,-122.14017009287825,124.90737915039062,-0.03543834351462722,0.1268645653834867,-16.07519730794745,0.0,0.0,0.0,0.0,0.0,0.0,0.4957618333097693,0.0565142125361181,0.0009115195570341683,0.49252929687500124,0.0,0.0,0.0,0.0,0.0,0.0,0.0,0.0,0.0
22/04/2022,12:02:52,32.463891,-0.5322342133149505,13.49321895930916,2.9029693603515625,3.257781982421875,-0.00010313641541870311,0.012163556180894375,-0.024117356166243553,0,4.695259094238281,1.4428125619888306,47.64158944837612,-122.14017009314593,124.90289306640625,-0.024761199446649708,0.09976977483177309,-14.450148281773073,0.0,0.0,0.0,0.0,0.0,0.0,0.5002350176350464,0.05652242926020851,0.0009116520848415632,0.49703063964843874,0.0,0.0,0.0,0.0,0.0,0.0,0.0,0.0,0.0
22/04/2022,12:02:52,32.638875,-0.532271241187118,13.495121259242296,2.8990325927734375,3.257781982421875,-7.660558185307309e-05,0.009399252943694592,-0.020384978502988815,0,4.695259094238281,1.4428125619888306,47.641589465168636,-122.14017009335377,124.89903259277344,-0.011910720608546262,0.0786090998269217,-9.208274201660377,0.0,0.0,0.0,0.0,0.0,0.0,0.5041474750524211,0.05652877322503491,0.0009117544068555361,0.5009674072265637,0.0,0.0,0.0,0.0,0.0,0.0,0.0,0.0,0.0
22/04/2022,12:02:52,32.788877,-0.5322949301917106,13.49636919889599,2.8962249755859375,3.257781982421875,-5.713276186725125e-05,0.0075869932770729065,-0.01779138669371605,0,4.695259094238281,1.4428125619888306,47.6415894765938,-122.14017009348731,124.89616394042969,-0.003099914937092107,0.0641376649165342,-3.403405445654231,0.0,0.0,0.0,0.0,0.0,0.0,0.5069378771864191,0.05653233324457324,0.0009118118265245556,0.5037750244140637,0.0,0.0,0.0,0.0,0.0,0.0,0.0,0.0,0.0
22/04/2022,12:02:52,32.965877,-0.5323168225586414,13.49757371749729,2.8932571411132812,3.257781982421875,-3.739207750186324e-05,0.005836293566972017,-0.015136283822357655,0,4.695259094238281,1.4428125619888306,47.641589487237304,-122.1401700935985,124.89325714111328,0.004532745594660368,0.0492112043974576,4.613401699319933,0.0,0.0,0.0,0.0,0.0,0.0,0.5098875756538841,0.056534797251127644,0.0009118515685635487,0.50674285888672,0.0,0.0,0.0,0.0,0.0,0.0,0.0,0.0,0.0
22/04/2022,12:02:53,33.156879,-0.5323326901998371,13.498513312079012,2.8906936645507812,3.257781982421875,-2.2421092580771074e-05,0.004469793755561113,-0.01292508002370596,0,4.695259094238281,1.4428125619888306,47.64158949580943,-122.1401700936716,124.8906478881836,0.007853604677580518,0.03703994241601405,11.393266405908623,0.0,0.0,0.0,0.0,0.0,0.0,0.5124353995470063,0.056535509955598195,0.0009118630637985348,0.50930633544922,0.0,0.0,0.0,0.0,0.0,0.0,0.0,0.0,0.0
22/04/2022,12:02:53,33.334878,-0.5323437182232738,13.499221279285848,2.8885269165039062,3.257781982421875,-1.3112565284245647e-05,0.003438065992668271,-0.01114409789443016,0,4.695259094238281,1.4428125619888306,47.64158950216689,-122.14017009371392,124.88848876953125,0.007584318573878784,0.028131301170926867,14.643952479498502,0.0,0.0,0.0,0.0,0.0,0.0,0.5145889294698319,0.05653511925475729,0.000911856762172647,0.511473083496095,0.0,0.0,0.0,0.0,0.0,0.0,0.0,0.0,0.0
22/04/2022,12:02:53,33.517875,-0.5323518258519471,13.49978447239846,2.8865890502929688,3.257781982421875,-7.61360479373252e-06,0.002621270250529051,-0.009639184921979904,0,4.695259094238281,1.4428125619888306,47.64158950719551,-122.14017009373809,124.88656616210938,0.006337759758729046,0.02129996761531483,16.247792980161318,0.0,0.0,0.0,0.0,0.0,0.0,0.5165149989114987,0.056534143377420076,0.0009118410222139772,0.5134109497070325,0.0,0.0,0.0,0.0,0.0,0.0,0.0,0.0,0.0
22/04/2022,12:02:53,33.708876,-0.5323582106502727,13.500213018618524,2.8849105834960938,3.257781982421875,-4.711116162070539e-06,0.0019983919337391853,-0.008413134142756462,0,4.695259094238281,1.4428125619888306,47.641589511038646,-122.14017009375982,124.8848876953125,0.004453126257160633,0.016353217992752436,15.043895704047902,0.0,0.0,0.0,0.0,0.0,0.0,0.5181833538451843,0.05653361627706105,0.0009118325205967892,0.5150894165039075,0.0,0.0,0.0,0.0,0.0,0.0,0.0,0.0,0.0
22/04/2022,12:02:53,33.898883,-0.5323618234833702,13.500538786873221,2.8834381103515625,3.257781982421875,-3.6066765005671186e-06,0.0015234170714393258,-0.007414237596094608,0,4.695259094238281,1.4428125619888306,47.641589513956816,-122.14017009375982,124.88341522216797,0.0025984199923644044,0.012660594972471184,11.501774290659947,0.0,0.0,0.0,0.0,0.0,0.0,0.5196468814961075,0.05653197521038633,0.0009118060517803173,0.5165618896484387,0.0,0.0,0.0,0.0,0.0,0.0,0.0,0.0,0.0
22/04/2022,12:02:54,34.080875,-0.5323646012693644,13.500789264217019,2.88214111328125,3.257781982421875,-3.013585228472948e-06,0.0011612902162596583,-0.006600109860301018,0,4.695259094238281,1.4428125619888306,47.641589516210594,-122.14017009375982,124.88211822509766,0.0016886465812435063,0.009708176842029837,9.768725952156622,0.0,0.0,0.0,0.0,0.0,0.0,0.5209360608180077,0.056530713367485386,0.0009117856994755869,0.5178588867187512,0.0,0.0,0.0,0.0,0.0,0.0,0.0,0.0,0.0
22/04/2022,12:02:54,34.261876,-0.5323666244512424,13.500971692614257,2.8810043334960938,3.257781982421875,-2.509846808607108e-06,0.0008930147159844637,-0.005956404842436314,0,4.695259094238281,1.4428125619888306,47.641589517825985,-122.14017009375982,124.88098907470703,0.0011507578195652831,0.007490531469630016,8.619184661196606,0.0,0.0,0.0,0.0,0.0,0.0,0.522066040679051,0.056529794394926336,0.000911770877335627,0.5189956665039075,0.0,0.0,0.0,0.0,0.0,0.0,0.0,0.0,0.0
22/04/2022,12:02:54,34.442873,-0.5323682141024619,13.501115030609071,2.8799514770507812,3.257781982421875,-2.061818577203667e-06,0.0006807228201068938,-0.005412695463746786,0,4.695259094238281,1.4428125619888306,47.6415895191027,-122.14017009375982,124.87995147705078,0.0007643218228579995,0.005726525943987727,7.471726066843335,0.0,0.0,0.0,0.0,0.0,0.0,0.5231126394431194,0.05652907233084559,0.0009117592311405076,0.52004852294922,0.0,0.0,0.0,0.0,0.0,0.0,0.0,0.0,0.0
22/04/2022,12:02:54,34.625876,-0.5323694825638086,13.501229411922395,2.8790130615234375,3.257781982421875,-1.6761314327595755e-06,0.0005234599811956286,-0.0049826581962406635,0,4.695259094238281,1.4428125619888306,47.64158952013188,-122.14017009375982,124.87901306152344,0.000547788314228847,0.0044089336737121775,6.930444276779485,0.0,0.0,0.0,0.0,0.0,0.0,0.5240455058679984,0.0565284960822085,0.0009117499368080928,0.5209869384765637,0.0,0.0,0.0,0.0,0.0,0.0,0.0,0.0,0.0
22/04/2022,12:02:54,34.810874,-0.5323703496251255,13.501307596452534,2.8781509399414062,3.257781982421875,-1.3499094393409905e-06,0.00040252142935059965,-0.004629982635378838,0,4.695259094238281,1.4428125619888306,47.64158952086141,-122.14017009375982,124.87812042236328,0.00034068526104579037,0.00339979777727956,5.575710326165254,0.0,0.0,0.0,0.0,0.0,0.0,0.5249025615286341,0.056528102205182174,0.0009117435839538501,0.521849060058595,0.0,0.0,0.0,0.0,0.0,0.0,0.0,0.0,0.0
22/04/2022,12:02:54,34.989873,-0.532370991888456,13.501365507952869,2.8773422241210938,3.257781982421875,-1.1286427934464882e-06,0.0003095177817158401,-0.004340502433478832,0,4.695259094238281,1.4428125619888306,47.64158952135646,-122.14017009375982,124.87732696533203,0.00015174338141311935,0.002623088707469154,3.1750268116866427,0.0,0.0,0.0,0.0,0.0,0.0,0.5257065486685804,0.05652781048794464,0.0009117388788357772,0.5226577758789075,0.0,0.0,0.0,0.0,0.0,0.0,0.0,0.0,0.0
22/04/2022,12:02:55,35.167873,-0.5323716180864722,13.50142197497189,2.8765792846679688,3.257781982421875,-9.44380360579089e-07,0.00023799948394298553,-0.004103378392755985,0,4.695259094238281,1.4428125619888306,47.64158952187757,-122.14017009375982,124.87657165527344,7.526639051535464e-05,0.002019390607836083,1.9696890204456605,0.0,0.0,0.0,0.0,0.0,0.0,0.5264650393843584,0.056527526001597383,0.0009117342903461889,0.5234207153320325,0.0,0.0,0.0,0.0,0.0,0.0,0.0,0.0,0.0
22/04/2022,12:02:55,35.348876,-0.5323722442844883,13.50147844105959,2.8758697509765625,3.257781982421875,-7.720057055848883e-07,0.00018380767141934484,-0.0039118570275604725,0,4.695259094238281,1.4428125619888306,47.64158952238564,-122.14017009375982,124.87586212158203,4.342883344981572e-05,0.001560046607644957,1.394633915863366,0.04867710033347693,1.9994075472257087,0.0,0.04867710033347693,1.9994075472257087,0.0,0.5271704451384228,0.05652724153026745,0.0009117297020999615,0.5241302490234387,0.04867710033347693,1.9994075472257087,0.0,0.0,0.0,0.0,0.0,0.0,0.0
22/04/2022,12:02:55,35.523879,-0.5324034492950886,13.503968709148467,2.87750244140625,3.257781982421875,-4.6826517063891515e-05,0.054792892187833786,0.04181290417909622,0,4.695259094238281,1.4428125619888306,47.641589546226065,-122.14017009380939,124.87763214111328,-0.07727842608539884,-3.9234267046778055,1.116121745748657,0.05843630197808264,2.9994308124394413,0.0,0.05843630197808264,2.9994308124394413,0.0,0.5255462358978034,0.05651828325698721,0.0009115852138226188,0.5224975585937512,0.05843630197808264,2.9994308124394413,0.0,0.0,0.0,0.0,0.0,0.0,0.0
22/04/2022,12:02:55,35.674877,-0.532615358592011,13.522168104536831,2.8939971923828125,3.257781982421875,-9.250796574633569e-05,0.22721710801124573,0.21197780966758728,0,4.695259094238281,1.4428125619888306,47.64158971459415,-122.14017009394536,124.8946304321289,-0.1504431652169908,-8.585600140408788,1.0038708151670988,0.05255986373197305,2.9995395414504,0.0,0.05255986373197305,2.9995395414504,0.0,0.5091412065506741,0.056436675148610393,0.0009102689540085862,0.5060028076171887,0.05255986373197305,2.9995395414504,0.0,0.0,0.0,0.0,0.0,0.0,0.0
22/04/2022,12:02:55,35.85388,-0.5333792965393513,13.589661032892764,2.94073486328125,3.257781982421875,-7.110249134711921e-05,0.5361819267272949,0.2730923593044281,0,4.695259094238281,1.4428125619888306,47.641590315828694,-122.14017009414721,124.94073486328125,-0.16054131208855482,-10.047775194527102,0.9294551199119869,0.06488536246291235,3.9994737015935056,0.0,0.06488536246291235,3.9994737015935056,0.0,0.46268115681624916,0.05611210191363203,0.000905033901831942,0.45926513671875124,0.06488536246291235,3.9994737015935056,0.0,0.0,0.0,0.0,0.0,0.0,-0.0
22/04/2022,12:02:55,36.028878,-0.5348200778244063,13.718721065670252,3.0071792602539062,3.257781982421875,-2.50603898166446e-05,0.9345743656158447,0.47038760781288147,0,4.695259094238281,1.4428125619888306,47.64159147709165,-122.14017009427361,125.0071792602539,-0.20079686338116853,-13.041579973639125,0.9008114290156485,0.07860738835535099,4.999382049663334,0.0,0.07860738835535099,4.999382049663334,0.0,0.3967190622137633,0.05547143643315017,0.0008947005876294156,0.392820739746095,0.07860738835535099,4.999382049663334,0.0,0.0,0.0,0.0,0.0,0.0,-0.0
22/04/2022,12:02:56,36.205875,-0.5370405452558771,13.91911692544818,3.1120758056640625,3.257781982421875,6.347418820951134e-05,1.4502049684524536,0.7472684383392334,6.347418820951134e-05,4.695259094238281,1.4428125619888306,47.6415933191875,-122.1401700942454,125.11431884765625,-0.25007895743056086,-16.518289018800008,0.8965873122230206,0.07823880997018695,4.999387831386404,0.0,0.09234608854944373,4.999615368137676,-2.250274008174273,0.29303071886918997,0.0544599757050207,0.0008783867049171334,0.28792419433593874,0.07823880997018695,4.999387831386404,0.0,0.0,0.0,0.0,0.01410727857925679,0.0002275367512729119,-2.250274008174273
22/04/2022,12:02:56,36.382878,-0.5402557534398511,14.210694385692477,3.1949462890625,3.257781982421875,0.0001365375064779073,1.7670589685440063,0.000513153150677681,0.0001365375064779073,4.695259094238281,1.4428125619888306,47.64159590378868,-122.14017009400277,125.1949462890625,-0.2740588511040749,-18.35741440781893,0.8955383543461515,0.07814728232119111,4.999389262926604,0.0,0.07814728232119111,4.999389262926604,0.0,0.21178730418845806,0.05297270853312197,0.0008543985247282393,0.20505371093750124,0.07814728232119111,4.999389262926604,0.0,0.0,0.0,0.0,-0.0,-0.0,0.0
22/04/2022,12:02:56,36.559876,-0.5441547484369949,14.56622522417456,3.2090377807617188,3.257781982421875,0.000367796397767961,2.3498306274414062,0.2577226459980011,0.000367796397767961,4.695259094238281,1.4428125619888306,47.641599166017954,-122.14017009340368,125.20980834960938,-0.21164402349915418,-14.44056984251285,0.8734285529936813,0.0762180680744102,4.999419046859245,0.0,0.0762180680744102,4.999419046859245,0.0,0.19769250199539695,0.05113781250792865,0.0008248034275446514,0.1909622192382825,0.0762180680744102,4.999419046859245,0.0,0.0,0.0,0.0,-0.0,-0.0,-0.0
22/04/2022,12:02:56,36.739882,-0.5490480497246608,15.013696438632905,3.2451248168945312,3.257781982421875,0.0003862615558318794,2.7070555686950684,0.13663585484027863,0.0003862615558318794,4.695259094238281,1.4428125619888306,47.64160320195357,-122.14017009248201,125.24553680419922,-0.16229368232863603,-11.027622175531441,0.8593150770805362,0.07498657576082873,4.999437669724033,0.0,0.07498657576082873,4.999437669724033,0.0,0.16238778228980152,0.04881444055822004,0.0007873296864229218,0.15487518310547,0.07498657576082873,4.999437669724033,0.0,0.0,0.0,0.0,-0.0,-0.0,-0.0
22/04/2022,12:02:56,36.919877,-0.5546605925774202,15.525342190638185,3.260833740234375,3.260833740234375,0.00027791308821178973,2.9849178791046143,0.0442933514714241,0.0003862615558318794,4.695259094238281,1.4428125619888306,47.64160781314677,-122.14017009166615,125.26097106933594,-0.12594077680971252,-8.503482211052805,0.8514050190543305,0.01485927397977796,0.9998895948937532,0.0,0.01485927397977796,0.9998895948937532,0.0,0.14662865554177673,0.04617531912822781,0.0007447632117418834,0.13916625976562624,0.01485927397977796,0.9998895948937532,0.0,0.0,0.0,0.0,-0.0,-0.0,0.0
22/04/2022,12:02:57,37.096876,-0.5605522411642596,16.06112786475569,3.251251220703125,3.260833740234375,0.0003596278838813305,2.9650402069091797,0.06903630495071411,0.0003862615558318794,4.695259094238281,1.4428125619888306,47.641612633679735,-122.14017009099351,125.25143432617188,0.13193271400893214,8.595753653243717,0.8503174165945732,0.0,0.0,0.0,0.0,0.0,0.0,0.1549596900479921,0.04342597852290275,0.000700419008431652,0.14874877929687624,0.0,0.0,0.0,0.0,0.0,0.0,-0.0,-0.0,0.0
22/04/2022,12:02:57,37.272877,-0.5659310312476009,16.551655233837664,3.3155975341796875,3.3155975341796875,0.00026104433345608413,2.4595561027526855,0.5419849753379822,0.0003862615558318794,4.695259094238281,1.4428125619888306,47.64161696736004,-122.1401700901933,125.31559753417969,0.22190631560612428,15.102085970180264,0.8646941845484696,0.0,0.0,-2.0,-0.07788992737267586,-0.0012562891511789165,-3.99897183325354,0.09378968822470915,0.04089369560932199,0.0006595757356322451,0.08440246582031374,0.0,0.0,-2.0,0.0,0.0,0.0,-0.07788992737267586,-0.0012562891511789165,-1.9989718332535398
22/04/2022,12:02:57,37.449877,-0.5703267952194437,16.950747467577457,3.363739013671875,3.363739013671875,8.221844473155215e-05,2.153961420059204,-0.15791194140911102,0.0003862615558318794,4.695259094238281,1.4428125619888306,47.64162061644248,-122.14017008978823,125.36328887939453,0.2691503350690566,18.457903195705565,0.8763863890008838,0.0,0.0,-5.0,0.0,0.0,-5.0,0.05314893145856298,0.038853018942454964,0.0006266615958416821,0.03626098632812624,0.0,0.0,-5.0,0.0,0.0,0.0,-0.0,-0.0,0.0
22/04/2022,12:02:57,37.618876,-0.5741423246217892,17.294524122029543,3.2664413452148438,3.363739013671875,-0.00014205925981514156,1.8544633388519287,-1.005185604095459,0.0003862615558318794,4.695259094238281,1.4428125619888306,47.641623651575486,-122.14017008983143,125.26644134521484,0.4181675106341311,20.603341805618815,1.2329913300644717,0.0,0.0,0.0,-0.026131623842326198,-0.00042147780391313763,2.501357920750888,0.13862351899500683,0.03712421333688576,0.0005987776344689166,0.1335586547851575,0.0,0.0,0.0,0.0,0.0,0.0,-0.026131623842326198,-0.00042147780391313763,2.501357920750888
22/04/2022,12:02:57,37.796876,-0.5771886837901548,17.563456254079938,3.1071853637695312,3.363739013671875,-0.000534652266651392,1.2491040229797363,-0.5079596042633057,0.0003862615558318794,4.695259094238281,1.4428125619888306,47.64162610518462,-122.14017009070356,125.10562896728516,0.3588004987034304,10.911960786361616,1.8885193214673475,0.0,0.0,0.0,-0.006031626927127158,-9.728430528168177e-05,2.334834953033038,0.29499961039466166,0.035833293299453506,0.0005779563435410751,0.29281463623047,0.0,0.0,0.0,0.0,0.0,0.0,-0.006031626927127158,-9.728430528168177e-05,2.334834953033038
22/04/2022,12:02:57,37.970878,-0.5792630257783458,17.74243301525712,3.1093521118164062,3.363739013671875,-0.00046262258547358215,0.8313526511192322,0.5804800987243652,0.0003862615558318794,4.695259094238281,1.4428125619888306,47.64162770427754,-122.14017009189163,125.1110610961914,0.261401147456285,6.599539081211189,2.2455226319990573,0.0,0.0,0.0,0.0,0.0,0.0,0.29275073550405784,0.035021124615349786,0.0005648568486336103,0.290647888183595,0.0,0.0,0.0,0.0,0.0,0.0,0.0,0.0,-0.0
22/04/2022,12:02:58,38.150876,-0.5808185387868434,17.87569106463343,3.2081146240234375,3.363739013671875,-0.0004073317104484886,0.6705795526504517,0.3335716128349304,0.0003862615558318794,4.695259094238281,1.4428125619888306,47.64162889895617,-122.14017009292319,125.20912170410156,0.23435473304932977,5.4547901257780635,2.4331953823886936,0.0,0.0,0.0,0.0,0.0,0.0,0.194950138372531,0.03442746868383706,0.0005552817529625997,0.19188537597656374,0.0,0.0,0.0,0.0,0.0,0.0,0.0,0.0,-0.0
22/04/2022,12:02:58,38.323875,-0.5820616913260892,17.9816962974146,3.2572708129882812,3.363739013671875,-0.0003525379579514265,0.5275693535804749,0.23614035546779633,0.0003862615558318794,4.695259094238281,1.4428125619888306,47.64162983467311,-122.14017009380605,125.25727081298828,0.19822142168454146,4.452727724416577,2.5211165436213467,0.0,0.0,0.0,0.0,0.0,0.0,0.14671492452264984,0.0339609807588509,0.0005477577541732614,0.14272918701172,0.0,0.0,0.0,0.0,0.0,0.0,0.0,0.0,-0.0
22/04/2022,12:02:58,38.503875,-0.5830229760613292,18.063243072479963,3.293701171875,3.363739013671875,-0.0002993092639371753,0.41163232922554016,0.18349024653434753,0.0003862615558318794,4.695259094238281,1.4428125619888306,47.64163056842392,-122.14017009456384,125.293701171875,0.1601130692545911,3.5325250023085295,2.5624036414524007,0.0,0.0,-1.0,0.0,0.0,-1.0,0.11148619185729726,0.033607086992455626,0.0005420497902015597,0.10629882812500124,0.0,0.0,-1.0,0.0,0.0,0.0,0.0,0.0,-0.0
22/04/2022,12:02:58,38.674874,-0.583789023803547,18.12796299904585,3.2808303833007812,3.363739013671875,-0.0002686103689484298,0.3534841239452362,-0.48444896936416626,0.0003862615558318794,4.695259094238281,1.4428125619888306,47.64163116031772,-122.14017009521768,125.2793960571289,0.13690471572983434,2.9931528446857936,2.5825370909257006,0.0,0.0,0.0,0.04378759215627525,0.0007062514863881439,2.120646186025353,0.12374381295376909,0.03332933720676001,0.0005375699549468038,0.11916961669922,0.0,0.0,0.0,0.0,0.0,0.0,0.04378759215627525,0.0007062514863881439,2.120646186025353
22/04/2022,12:02:58,38.848875,-0.5844344086945057,18.1822569957003,3.2270584106445312,3.363739013671875,-0.00020752627460751683,0.24990248680114746,0.246428981423378,0.0003862615558318794,4.695259094238281,1.4428125619888306,47.641631646049994,-122.14017009579113,125.22776794433594,0.08878641469408653,1.9264336628600076,2.591444202760165,0.0,0.0,0.0,0.0,0.0,0.0,0.17608130770535146,0.033099072376660876,0.0005338560060756947,0.17294158935547,0.0,0.0,0.0,0.0,0.0,0.0,0.0,0.0,-0.0
22/04/2022,12:02:58,39.030878,-0.5848963769385591,18.22098234947771,3.2949676513671875,3.363739013671875,-0.00016198739467654377,0.19378884136676788,0.3428913652896881,0.0003862615558318794,4.695259094238281,1.4428125619888306,47.6416319929737,-122.1401700962214,125.2959976196289,0.07357132175762932,1.5915956112513445,2.5963195034635946,0.22649408690160955,4.994867408510321,0.0,0.22649408690160955,4.994867408510321,0.0,0.11007673783347563,0.03293648043802433,0.000531233555449262,0.10503234863281374,0.22649408690160955,4.994867408510321,0.0,0.0,0.0,0.0,0.0,0.0,-0.0
22/04/2022,12:02:59,39.207876,-0.585434605483897,18.262605813331902,3.3704147338867188,3.3704147338867188,-0.0008819721988402307,0.43587446212768555,0.8113602995872498,0.0003862615558318794,4.695259094238281,1.4428125619888306,47.641632373886296,-122.14017009727037,125.3728256225586,-0.6543106828089931,-14.038294681704736,2.674291268790522,0.23329121045922702,4.994554555826022,0.0,0.265040532510197,4.995066641665552,-2.4661524075263324,0.04417726548746478,0.03280339741313976,0.0005290870550496152,0.029585266113282493,0.23329121045922702,4.994554555826022,0.0,0.0,0.0,0.0,0.031749322050969975,0.0005120858395306927,-2.4661524075263324
22/04/2022,12:02:59,39.379876,-0.5869119203416631,18.38114694878459,3.50140380859375,3.50140380859375,-0.0007890015840530396,0.8308249711990356,0.29503148794174194,0.0003862615558318794,4.695259094238281,1.4428125619888306,47.64163342890957,-122.140170099401,125.50140380859375,-1.028626057647545,-22.334921426365113,2.7870660028773435,0.24312148610591114,4.994085696400658,0.0,0.24312148610591114,4.994085696400658,0.0,0.10644599009074746,0.03236887151331813,0.0005220785727964028,-0.10140380859374876,0.24312148610591114,4.994085696400658,0.0,0.0,0.0,-0.0,0.0,0.0,-0.0
22/04/2022,12:02:59,39.554876,-0.5891937516862527,18.585676255635917,3.5692672729492188,3.5692672729492188,0.0009339118259958923,1.6831612586975098,0.795732319355011,0.0009339118259958923,4.695259094238281,1.4428125619888306,47.64163526923366,-122.14017009958184,125.56926727294922,-0.8758298890901157,-19.62801147802431,2.7298971723164174,0.2381383454954844,4.994325793178161,0.0,0.203030222003309,4.993759533121838,-2.4929187625620672,0.17214708842317095,0.03135210757673046,0.0005056791544610917,-0.1692672729492175,0.2381383454954844,4.994325793178161,0.0,0.0,0.0,-0.0,-0.035108123492175396,-0.0005662600563228819,-2.4929187625620672
22/04/2022,12:02:59,39.727875,-0.592606503632851,18.91401557903737,3.6686172485351562,3.6686172485351562,0.0015255606267601252,2.0378923416137695,0.12707015872001648,0.0015255606267601252,4.695259094238281,1.4428125619888306,47.64163827841579,-122.1401700964782,125.66902160644531,-0.8203096457285709,-18.389210067624703,2.7051288379226723,0.23597933128190407,4.9944282711044865,0.0,0.23597933128190407,4.9944282711044865,0.0,0.27022935949288374,0.029469553722851094,0.0004753153826229095,-0.268617248535155,0.23597933128190407,4.9944282711044865,0.0,0.0,0.0,-0.0,-0.0,-0.0,-0.0
22/04/2022,12:02:59,39.904876,-0.5967838276410475,19.320975940674543,3.69873046875,3.69873046875,0.0021907987538725138,2.5742030143737793,0.2699128985404968,0.0021907987538725138,4.695259094238281,1.4428125619888306,47.64164195458252,-122.14017009198004,125.69953918457031,-0.5971590198298158,-13.40805088736982,2.6376977108026862,0.2301012506214729,4.994702535132841,0.0,0.2301012506214729,4.994702535132841,0.0,0.29995600734507105,0.027083621620381138,0.0004368326067769601,-0.29873046874999876,0.2301012506214729,4.994702535132841,0.0,0.0,0.0,-0.0,-0.0,-0.0,-0.0
22/04/2022,12:03:00,40.082877,-0.601586107746698,19.78738261666149,3.733978271484375,3.733978271484375,0.0020390297286212444,2.8839290142059326,0.13951998949050903,0.0021907987538725138,4.695259094238281,1.4428125619888306,47.64164615956364,-122.14017008705717,125.7343978881836,-0.4487172780490306,-9.908459470671309,2.602386349033268,0.1816183794488922,3.9958747182871437,0.0,0.1816183794488922,3.9958747182871437,0.0,0.33486600437940833,0.024363920922053195,0.0003929664664816812,-0.33397827148437376,0.1816183794488922,3.9958747182871437,0.0,0.0,0.0,-0.0,-0.0,-0.0,-0.0
22/04/2022,12:03:00,40.256888,-0.6072057797573507,20.323531868867576,3.7367935180664062,3.7367935180664062,0.0015089368680492043,3.0587961673736572,-0.07565664499998093,0.0021907987538725138,4.695259094238281,1.4428125619888306,47.641650906061,-122.14017008279596,125.7367935180664,-0.16563512741205919,-3.530624028473644,2.565018817939483,0.0,0.0,0.0,0.0,0.0,0.0,0.33746889009916636,0.021336811838092662,0.0003441421264227529,-0.336793518066405,0.0,0.0,0.0,0.0,0.0,-0.0,-0.0,-0.0,-0.0
22/04/2022,12:03:00,40.430878,-0.6128347814083099,20.8504049340263,3.7361831665039062,3.7367935180664062,0.0008741844212636352,2.8881545066833496,0.28630751371383667,0.0021907987538725138,4.695259094238281,1.4428125619888306,47.64165564676111,-122.14017007994626,125.7361831665039,0.4894255508949649,11.085582429408825,2.5963916045276956,0.0,0.0,-3.0,0.0,0.0,-3.0,0.33669021312949315,0.018468606976310253,0.0002978807576816678,-0.336183166503905,0.0,0.0,-3.0,0.0,0.0,-0.0,-0.0,-0.0,-0.0
22/04/2022,12:03:00,40.604876,-0.6179145623464137,21.317457251250744,3.7561264038085938,3.7561264038085938,0.00029070579330436885,2.598489284515381,-0.2941950261592865,0.0021907987538725138,4.695259094238281,1.4428125619888306,47.64165991931615,-122.1401700786053,125.75526428222656,0.8323080059835641,18.65157438276022,2.6728528522313666,0.0,0.0,-5.0,0.0,0.0,-5.0,0.3564864542218315,0.01601592407856134,0.00025832135610315277,-0.3561264038085925,0.0,0.0,-5.0,0.0,0.0,-0.0,-0.0,-0.0,0.0
22/04/2022,12:03:00,40.776877,-0.6225554198026657,21.73546529188752,3.63641357421875,3.7561264038085938,-0.0004247913311701268,2.273296356201172,-1.1304138898849487,0.0021907987538725138,4.695259094238281,1.4428125619888306,47.641663671746166,-122.14017007870173,125.63304138183594,1.0030490030962402,22.586072733115074,2.7312719372759666,0.0,0.0,-5.0,-0.07227295114406744,-0.0011656927603944953,-2.50103710311571,0.23682285149033427,0.013915262841201814,0.00022443972324026618,-0.23641357421874876,0.0,0.0,-5.0,0.0,0.0,-0.0,-0.07227295114406744,-0.0011656927603944953,2.49896289688429
22/04/2022,12:03:00,40.948877,-0.6266166259301826,22.088240182958543,3.3849411010742188,3.7561264038085938,-0.001396532403305173,1.9145170450210571,-1.8166216611862183,0.0021907987538725138,4.695259094238281,1.4428125619888306,47.6416668363079,-122.1401700807226,125.37950134277344,0.7494421522351129,17.330525037826547,2.640558929201754,0.0,0.0,-5.0,-0.06062604315658522,-0.0009778394057556668,-0.2600348169279929,0.019436549712444833,0.01228697496285891,0.00019817701553037637,0.015058898925782493,0.0,0.0,-5.0,0.0,0.0,0.0,-0.06062604315658522,-0.0009778394057556668,4.739965183072007
22/04/2022,12:03:01,41.118876,-0.6300933706806973,22.370621199719608,3.1139297485351562,3.7561264038085938,-0.002477130154147744,1.298944354057312,-1.0198462009429932,0.0021907987538725138,4.695259094238281,1.4428125619888306,47.641669360604524,-122.14017008536034,125.11083984375,0.4815441799200452,10.984350948822216,2.565102125592792,0.0,0.0,0.0,-0.02784530439648071,-0.0004491178128463856,2.5171537958660757,0.28628984198277674,0.011209467493884184,0.00018079786280367216,0.286070251464845,0.0,0.0,0.0,0.0,0.0,0.0,-0.02784530439648071,-0.0004491178128463856,2.5171537958660757
22/04/2022,12:03:01,41.289878,-0.6325674284016714,22.554175099357963,3.0283203125,3.7561264038085938,-0.002508195349946618,0.8734641075134277,0.0635913610458374,0.0021907987538725138,4.695259094238281,1.4428125619888306,47.641671000708186,-122.14017009119858,125.02848052978516,0.30227695882710626,6.676872632684053,2.5312537293180544,0.0,0.0,0.0,0.0,0.0,0.0,0.37183437844445844,0.010723104971607667,0.00017295330598798841,0.37167968750000124,0.0,0.0,0.0,0.0,0.0,0.0,-0.0,-0.0,0.0
22/04/2022,12:03:01,41.461876,-0.6344502774300054,22.686883612535894,3.0702056884765625,3.7561264038085938,-0.0021982621401548386,0.673999547958374,0.2358027696609497,0.0021907987538725138,4.695259094238281,1.4428125619888306,47.64167217123373,-122.14017009657032,125.07020568847656,0.25283466842961055,5.461334974142814,2.5228320385185823,0.0,0.0,0.0,0.0,0.0,0.0,0.32996036788646493,0.010465561108898624,0.00016879937271951917,0.32979431152343874,0.0,0.0,0.0,0.0,0.0,0.0,-0.0,-0.0,-0.0
22/04/2022,12:03:01,41.634877,-0.6359403773676604,22.789862618781626,3.1058502197265625,3.7561264038085938,-0.0018512691603973508,0.5320513844490051,0.18125928938388824,0.0021907987538725138,4.695259094238281,1.4428125619888306,47.64167311223986,-122.14017010127799,125.10639190673828,0.20889765411975364,4.465183928188794,2.51752382641958,0.0,0.0,0.0,0.0,0.0,0.0,0.29432992161993643,0.010294753767705056,0.00016604441560374994,0.29414978027343874,0.0,0.0,0.0,0.0,0.0,0.0,-0.0,-0.0,-0.0
22/04/2022,12:03:01,41.807877,-0.6371272566029802,22.870849400758743,3.133209228515625,3.7561264038085938,-0.0015131308464333415,0.41694897413253784,0.1392655223608017,0.0021907987538725138,4.695259094238281,1.4428125619888306,47.64167383784845,-122.14017010510769,125.13362884521484,0.1673906121540267,3.5532761538091058,2.51383245655813,0.0,0.0,0.0,0.0,0.0,0.0,0.2669847972660846,0.010175425626739676,0.0001641197681685469,0.26679077148437624,0.0,0.0,0.0,0.0,0.0,0.0,-0.0,-0.0,-0.0
22/04/2022,12:03:01,41.978883,-0.6380784414941445,22.935167615301907,3.154632568359375,3.7561264038085938,-0.0012240641517564654,0.32406631112098694,0.10746284574270248,0.0021907987538725138,4.695259094238281,1.4428125619888306,47.64167440534163,-122.14017010821412,125.15463256835938,0.05076986219952042,2.781587552534035,0.8846802740665608,0.0,0.0,0.0,0.0,0.0,0.0,0.24557482729852315,0.010089242380955321,0.00016272971582154128,0.24536743164062624,0.0,0.0,0.0,0.0,0.0,0.0,0.0,0.0,0.0
22/04/2022,12:03:02,42.151877,-0.6388182861264795,22.984346120618284,3.1709823608398438,3.7561264038085938,-0.001059219939634204,0.252483069896698,0.08411495387554169,0.0021907987538725138,4.695259094238281,1.4428125619888306,47.64167484786152,-122.14017011080269,125.17098236083984,-0.1533225836136174,2.165747083078574,-4.146000736399675,0.0,0.0,0.0,0.0,0.0,0.0,0.2292374849817557,0.010035899191639497,0.00016186934179529544,0.2290176391601575,0.0,0.0,0.0,0.0,0.0,0.0,0.0,0.0,0.0
22/04/2022,12:03:02,42.320879,-0.6394076771102846,23.02205354347825,3.1836395263671875,3.7561264038085938,-0.0009822119027376175,0.19741037487983704,0.06671176850795746,0.0021907987538725138,4.695259094238281,1.4428125619888306,47.641675192492386,-122.14017011312116,125.18384552001953,-0.31655749010396955,1.6671493403283089,-10.805876647487585,0.0,0.0,0.0,0.0,0.0,0.0,0.21659229710111078,0.010017110823480557,0.00016156630359986934,0.21636047363281374,0.0,0.0,0.0,0.0,0.0,0.0,0.0,0.0,0.0
22/04/2022,12:03:02,42.490877,-0.6399041276890785,23.051990419626236,3.193878173828125,3.7561264038085938,-0.0009386950405314565,0.15362948179244995,0.05307072028517723,0.0021907987538725138,4.695259094238281,1.4428125619888306,47.64167545654783,-122.14017011527106,125.19387817382812,-0.41665043092750675,1.2513697067027274,-18.462531763686457,0.0,0.0,-1.0,0.0,0.0,-1.0,0.20636581219351918,0.010030705024705044,0.00016178556491297513,0.20612182617187624,0.0,0.0,-1.0,0.0,0.0,0.0,0.0,0.0,0.0
22/04/2022,12:03:02,42.66388,-0.6403235688339919,23.075785600580275,3.1596450805664062,3.7561264038085938,-0.0009071091772057116,0.13250382244586945,-0.6063536405563354,0.0021907987538725138,4.695259094238281,1.4428125619888306,47.64167567425126,-122.14017011737742,125.15784454345703,-0.4922885024379836,0.9962102394663922,-26.4207258826885,0.0,0.0,-1.0,0.01265929384660161,0.00020418215881352065,1.4181700435843916,0.2405656769604676,0.010066343657187948,0.00016236038156591803,0.240354919433595,0.0,0.0,-1.0,0.0,0.0,0.0,0.01265929384660161,0.00020418215881352065,2.4181700435843916
22/04/2022,12:03:02,42.831876,-0.6406846940517426,23.09517362434417,3.0889434814453125,3.7561264038085938,-0.0008385773398913443,0.0942053273320198,0.10536977648735046,0.0021907987538725138,4.695259094238281,1.4428125619888306,47.641675847687054,-122.14017011932006,125.0892333984375,-0.44353236050967987,0.64338670840403,-34.59496175897661,0.0,0.0,-1.0,0.0,0.0,-1.0,0.31122097043984254,0.010114746222512405,0.0001631410681000034,0.31105651855468874,0.0,0.0,-1.0,0.0,0.0,0.0,0.0,0.0,0.0
22/04/2022,12:03:02,42.999878,-0.6409812794299796,23.109323386102915,3.0999374389648438,3.7561264038085938,-0.000817579566501081,0.07847605645656586,-0.3060697913169861,0.0021907987538725138,4.695259094238281,1.4428125619888306,47.64167597458844,-122.14017012117867,125.09904479980469,-0.45153249002816365,0.4902314548259815,-42.88064752372259,0.0,0.0,-1.0,0.0,0.0,-1.0,0.300235345804999,0.010183091857077109,0.00016424341704279755,0.3000625610351575,0.0,0.0,-1.0,0.0,0.0,0.0,0.0,0.0,0.0
22/04/2022,12:03:03,43.167874,-0.6412573334528133,23.12191240116954,2.9824676513671875,3.7561264038085938,-0.0007674401276744902,0.0679948478937149,-0.993266761302948,0.0021907987538725138,4.695259094238281,1.4428125619888306,47.64167608575254,-122.14017012296237,124.98246765136719,-0.42978479105245526,0.3473550029216062,-51.371867989789074,0.0,0.0,-1.0,0.010112372350795262,0.0001631027798454783,1.5329702639397862,0.41765832526138497,0.010256078262705692,0.0001654206171366468,0.41753234863281374,0.0,0.0,-1.0,0.0,0.0,0.0,0.010112372350795262,0.0001631027798454783,2.532970263939786
22/04/2022,12:03:03,43.345877,-0.6414892465109006,23.13183897547424,2.8704986572265625,3.7561264038085938,-0.0006579909822903574,0.04721956327557564,-0.08719168603420258,0.0021907987538725138,4.695259094238281,1.4428125619888306,47.64167617508246,-122.14017012458416,124.87049865722656,-0.3287219511619422,0.19250381307363335,-59.891982197437514,0.0,0.0,0.0,0.0,0.0,0.0,0.5296020813553756,0.010327866608192293,0.00016657849367618383,0.5295013427734387,0.0,0.0,0.0,0.0,0.0,0.0,0.0,0.0,0.0
22/04/2022,12:03:03,43.515876,-0.6416735507082194,23.13879471924156,2.89544677734375,3.7561264038085938,-0.0005930623156018555,0.035596102476119995,0.18393532931804657,0.0021907987538725138,4.695259094238281,1.4428125619888306,47.64167623864389,-122.14017012603492,124.89600372314453,-0.27592165143005243,0.1205962694721059,-66.8662004238735,0.0,0.0,-4.0,0.0,0.0,-4.0,0.5046604223165921,0.01039996263443932,0.00016774133280961223,0.5045532226562512,0.0,0.0,-4.0,0.0,0.0,0.0,0.0,0.0,0.0
22/04/2022,12:03:03,43.685875,-0.6418324630940333,23.14436932373792,2.8850860595703125,3.7561264038085938,-0.0005388831486925483,0.030145704746246338,-0.465666800737381,0.0021907987538725138,4.695259094238281,1.4428125619888306,47.64167628865666,-122.14017012732437,124.88370513916016,-0.301330737286698,0.11355654339962523,-70.12591486068175,0.0,0.0,-5.0,0.01765765163490234,0.0002848008328137303,-2.5849486051329555,0.5150203814909027,0.010468944099275235,0.00016885393707966045,0.5149139404296887,0.0,0.0,-5.0,0.0,0.0,0.0,0.01765765163490234,0.0002848008328137303,2.4150513948670445
22/04/2022,12:03:03,43.864876,-0.6419742604484782,23.149207070469856,2.7342605590820312,3.7561264038085938,-0.00047083949903026223,0.02559252642095089,-1.2907909154891968,0.0021907987538725138,4.695259094238281,1.4428125619888306,47.641676332077495,-122.14017012849537,124.73040771484375,-0.24069504744878686,0.08756647708049685,-70.91954213278568,0.0,0.0,0.0,0.011380048076901574,0.00018354916252846028,3.4703197695541075,0.6658227765354814,0.010532696695661703,0.00016988220476576998,0.66573944091797,0.0,0.0,0.0,0.0,0.0,0.0,0.011380048076901574,0.00018354916252846028,3.4703197695541075
22/04/2022,12:03:03,44.03288,-0.6420858380151913,23.152969264425337,2.544830322265625,3.7561264038085938,-0.00033631903352215886,0.017914915457367897,-0.5675607919692993,0.0021907987538725138,4.695259094238281,1.4428125619888306,47.64167636572767,-122.14017012941984,124.54309844970703,-0.12349389425911274,0.04517102760708865,-70.74663283352125,0.0,0.0,0.0,0.013412782779291098,0.00021633520611356546,2.4999635562942126,0.8552351834621426,0.010583580477509624,0.0001707029109248026,0.8551696777343762,0.0,0.0,0.0,0.0,0.0,0.0,0.013412782779291098,0.00021633520611356546,2.4999635562942126
22/04/2022,12:03:04,44.208874,-0.6421668699476868,23.15564287826419,2.545318603515625,3.7561264038085938,-0.0002450212195981294,0.012463684193789959,0.6120142936706543,0.0021907987538725138,4.695259094238281,1.4428125619888306,47.64167638964624,-122.14017013010023,124.54712677001953,-0.08432257309362763,0.031293778566670184,-70.64116888609726,0.0,0.0,-3.0,0.0,0.0,-3.0,0.8547474098685806,0.010621479746821483,0.00017131418946192412,0.8546813964843762,0.0,0.0,-3.0,0.0,0.0,0.0,0.0,0.0,-0.0
22/04/2022,12:03:04,44.382879,-0.6422267419984564,23.157570992596447,2.6414871215820312,3.7561264038085938,-0.00021053632372058928,0.010478137992322445,0.1799597144126892,0.0021907987538725138,4.695259094238281,1.4428125619888306,47.641676406660245,-122.14017013060294,124.64148712158203,-0.0940297886020491,0.03512652863296769,-70.5908453459601,0.0,0.0,0.0,0.0,0.0,0.0,0.758587663996083,0.010650245695991378,0.00017177815638547145,0.75851287841797,0.0,0.0,0.0,0.0,0.0,0.0,0.0,0.0,0.0
22/04/2022,12:03:04,44.556876,-0.6422794070094824,23.159250122494996,2.6271438598632812,3.7561264038085938,-0.0001683457230683416,0.008353285491466522,-0.180693581700325,0.0021907987538725138,4.695259094238281,1.4428125619888306,47.64167642199366,-122.14017013106276,124.62660217285156,-0.07065162087050497,0.026517300378359577,-70.56503689329942,0.0,0.0,-5.0,0.020605363841248846,0.00033234457808005305,-2.8244977191119682,0.772929890842222,0.01067582131333178,0.0001721906663405548,0.77285614013672,0.0,0.0,-5.0,0.0,0.0,0.0,0.020605363841248846,0.00033234457808005305,2.1755022808880318
22/04/2022,12:03:04,44.737875,-0.6423205294413492,23.160555792972445,2.5516891479492188,3.7561264038085938,-0.00014417912461794913,0.007117143832147121,-0.8484391570091248,0.0021907987538725138,4.695259094238281,1.4428125619888306,47.64167643352305,-122.1401701314108,124.55168914794922,-0.06086121306118183,0.022853957213174497,-70.5527393395388,0.0,0.0,-5.0,0.010906000089731131,0.0001759032272531541,-2.418989291655253,0.8483782961054714,0.010695879325944069,0.00017251418267250074,0.8483108520507825,0.0,0.0,-5.0,0.0,0.0,0.0,0.010906000089731131,0.0001759032272531541,2.581010708344747
22/04/2022,12:03:04,44.903874,-0.6423567777965218,23.161712364293635,2.3356170654296875,3.7561264038085938,-0.00012586452066898346,0.006198190618306398,-1.6416847705841064,0.0021907987538725138,4.695259094238281,1.4428125619888306,47.64167644393205,-122.1401701317226,124.33561706542969,-0.05019512653796276,0.01887236581147313,-70.54658874889007,0.0,0.0,-5.0,0.026419452752152246,0.00042612020567751256,4.388511084544557,1.0644368650492295,0.010713468729161124,0.00017279788272617225,1.0643829345703137,0.0,0.0,-5.0,0.004208264415887889,6.787523251344366e-05,0.41809099757192314,0.022211188336264356,0.0003582449731640689,8.970420086972634
