date,fly_time,fly_time_s,x,y,z,z_max,vx,vy,vz,vx_max,vy_max,vz_max,latitude,longitude,altitude,pitch,roll,yaw,cx,cy,cz,scx,scy,scz,d,dx,dy,dz,gc_pow_x,gc_pow_y,gc_pow_z,gpc_pow_x,gpc_pow_y,gpc_pow_z,gfc_pow_x,gfc_pow_y,gfc_pow_z
22/04/2022,11:49:23,40.24622,0.0,0.0,1.5825271606445312,1.5825271606445312,0.0,0.0,-0.012093598023056984,0,0,0,47.641468,-122.140165,123.58252716064453,0.0,0.0,0.0,0.0,0.0,0.0,-0.41685445327517034,-0.006723458923793188,2.9690454543463147,1.8356980949456345,-0.25799739921976594,-0.004161248374512427,1.81747283935547,0.0,0.0,0.0,-0.07020994852826268,-0.0011324185246494181,0.4945967474422773,-0.34664450474690767,-0.0055910403991437695,2.4744487069040373
22/04/2022,11:49:24,40.436223,0.0,0.0,1.5804290771484375,1.5825271606445312,0.0,0.0,-0.010411723516881466,0,0,0,47.641468,-122.140165,123.58039855957031,0.0,0.0,0.0,0.0,0.0,0.0,-0.41700603590792773,-0.006725903804966693,2.9690033847261637,1.837775371822979,-0.25799739921976594,-0.004161248374512427,1.8195709228515637,0.0,0.0,0.0,-0.07013292068062314,-0.0011311761400100706,0.49462445587063986,-0.3468731152273046,-0.005594727664956623,2.474378928855524
22/04/2022,11:49:24,40.62822,0.0,0.0,1.5785980224609375,1.5825271606445312,0.0,0.0,-0.009021928533911705,0,0,0,47.641468,-122.140165,123.57856750488281,0.0,0.0,0.0,0.0,0.0,0.0,-0.41711037263633244,-0.006727586655424835,2.968974426690523,1.8395883065989003,-0.25799739921976594,-0.004161248374512427,1.8214019775390637,0.0,0.0,0.0,-0.07006578894554535,-0.0011300933700894612,0.4946482674987904,-0.3470445836907871,-0.005597493285335374,2.4743261591917327
22/04/2022,11:49:24,40.819224,0.0,0.0,1.5769500732421875,1.5825271606445312,0.0,0.0,-0.007861113175749779,0,0,0,47.641468,-122.140165,123.5769271850586,0.0,0.0,0.0,0.0,5.0,0.0,-0.41717188320876575,4.9932714212385685,2.9689578374771273,1.8412199785587455,-0.25799739921976594,-0.004161248374512427,1.8230499267578137,0.0,5.0,0.0,-0.07000544436919473,-0.0011291200704709027,0.49466940603225684,-0.347166438839571,-0.005599458690960921,2.4742884314448705
22/04/2022,11:49:24,41.01122,-0.00020739471074193716,0.018700855784118176,1.6101837158203125,1.6101837158203125,-2.3612448801779706e-11,0.4057443141937256,0.616141140460968,0,0.4057443141937256,0.616141140460968,47.64146817899322,-122.140165,123.61200714111328,9.760652350849129e-10,-19.095514757063427,-9.374040427101749e-09,-8.180393483399051e-10,5.0,0.0,-0.07126122692563255,4.998850625385361,0.4941830714491454,1.8083337460778213,-0.2580916067075483,-0.004162767850121818,1.7898162841796887,-8.180393483399051e-10,5.0,0.0,-0.07126122610759321,-0.0011493746146386198,0.4941830714491454,-0.0,-0.0,0.0
22/04/2022,11:49:24,41.203223,-0.002197726280428469,0.19816973991692066,1.81207275390625,1.81207275390625,-2.4062174475147913e-10,1.5745491981506348,1.5227140188217163,0,1.5745491981506348,1.5227140188217163,47.64146982528787,-122.140165,123.81661987304688,-1.0671217122530612e-09,-24.734998205775547,-1.1661925335209025e-08,-1.0176949711057046e-09,5.0,0.0,-0.5854744662102938,4.990556863464635,-1.8929392318935168,1.6089155233972479,-0.2589956993635584,-0.0041773499897348465,1.5879272460937512,-1.0176949711057046e-09,5.0,0.0,-0.07952478501484063,-0.0012826578228200206,0.48757401445323567,-0.5059496801777581,-0.00816047871254501,-2.3805132463467524
22/04/2022,11:49:24,41.358222,-0.005443793605081737,0.49086873326450586,2.049407958984375,2.049407958984375,-4.275261533681629e-10,2.2169721126556396,1.4471632242202759,0,2.2169721126556396,1.5227140188217163,47.64147247637557,-122.140165,124.05376434326172,5.596011649275713e-09,-23.27240723249792,-3.368122800673352e-08,-2.9392416241621334e-09,5.0,0.0,-0.6078142571397289,4.990196544287088,-1.94061186970485,1.3754858181144458,-0.2604701999595488,-0.0042011322574122545,1.3505920410156262,-2.9392416241621334e-09,5.0,0.0,-0.09007056279552007,-0.0014527510128310302,0.46703456003918953,-0.5177436914049672,-0.008350704700080277,-2.4076464297440396
22/04/2022,11:49:25,41.518222,-0.00966909562703222,0.8718656320124865,2.2478256225585938,2.2478256225585938,-5.904640110188097e-10,2.6797215938568115,1.0803831815719604,0,2.6797215938568115,1.5227140188217163,47.641475917018404,-122.140165,124.25108337402344,9.962321932912033e-09,-20.166110745844005,-4.9423773079801624e-08,-4.3130378450053825e-09,5.0,0.0,-0.7833246669674954,4.9873657312475075,-1.545073929783514,1.1816818359940247,-0.26238950990753246,-0.004232088869476458,1.1521743774414075,-4.3130378450053825e-09,5.0,0.0,-0.09885594350873134,-0.0015944507017537795,0.43408475136332325,-0.6844687191457262,-0.011039818050738908,-1.9791586811468374
22/04/2022,11:49:25,41.708219,-0.015877181547693908,1.4316507941111922,2.4174652099609375,2.4174652099609375,-7.420247194467322e-10,3.16186785697937,0.6948537826538086,0,3.16186785697937,1.5227140188217163,47.64148088177042,-122.140165,124.41746520996094,1.4190599534327925e-08,-16.05713640765573,-6.639518129760671e-08,-5.79407260550899e-09,5.0,0.0,-0.10559797599236799,4.998296806932285,0.3912140628550934,1.0177077091704039,-0.26520948332004124,-0.004277572311613964,0.9825347900390637,-5.79407260550899e-09,5.0,0.0,-0.10559797019829538,-0.0017031930677145993,0.3912140628550934,-0.0,-0.0,-0.0
22/04/2022,11:49:25,41.895222,-0.02290622249711305,2.065461673773825,2.5233154296875,2.5233154296875,-7.667459445137581e-10,3.5550055503845215,0.4356878995895386,0,3.5550055503845215,1.5227140188217163,47.64148668043314,-122.140165,124.52462768554688,2.743745628571046e-08,-12.516632083287945,-1.164907362576656e-07,-1.016573447884301e-08,5.0,-5.0,-1.016573447884301e-08,5.0,-5.0,0.9168611714747613,-0.2684023678790831,-0.004329070449662797,0.8766845703125012,-1.016573447884301e-08,5.0,-5.0,-0.0,-0.0,0.0,-0.0,-0.0,0.0
22/04/2022,11:49:25,42.054221,-0.029094687080942094,2.6234774701297283,2.5514984130859375,2.5514984130859375,-7.057358586415319e-10,3.73988938331604,-0.19970081746578217,0,3.73988938331604,1.5227140188217163,47.641491706386155,-122.140165,124.5509262084961,3.977426106776381e-08,-14.255524949366439,-1.6398904446938431e-07,-1.431074381595077e-08,5.0,0.0,-0.699269714883155,4.98872145644238,2.2270757003521564,0.8908034583065202,-0.27121342679035154,-0.00437441010952222,0.8485015869140637,-1.431074381595077e-08,5.0,0.0,-0.0,-0.0,0.0,-0.6992697005724112,-0.011278543557620004,2.2270757003521564
22/04/2022,11:49:25,42.24422,-0.03726918192114681,3.360574177466333,2.4870071411132812,2.5514984130859375,-3.9712103050426606e-10,4.083206653594971,-0.3548086881637573,0,4.083206653594971,1.5227140188217163,47.64149823792196,-122.140165,124.48700714111328,6.046711569481434e-08,-9.23509582914389,-2.4638205643835676e-07,-2.1500890513419095e-08,5.0,0.0,-0.6034215886871901,4.990267394077636,2.4080104278458685,0.9534989623401012,-0.2749266225482508,-0.0044343003636817535,0.91299285888672,-2.1500890513419095e-08,5.0,0.0,-0.0,-0.0,0.0,-0.6034215671862996,-0.009732605922364145,2.4080104278458685
22/04/2022,11:49:26,42.442228,-0.04605620715301484,4.152902843430638,2.41943359375,2.5514984130859375,8.153814290423611e-10,4.305279731750488,-0.35035988688468933,8.153814290423611e-10,4.305279731750488,1.5227140188217163,47.64150548315916,-122.140165,124.41838073730469,8.202465192169496e-08,-6.047454007443115,-3.3270129268613505e-07,-2.903366491507193e-08,5.0,0.0,-0.7115511333110015,4.988523369285846,2.8071533108264193,1.0194733914048466,-0.2789180535751653,-0.00449867828347017,0.9805664062500012,-2.903366491507193e-08,5.0,0.0,-0.11100352562196018,-0.0017903794455153923,0.3902448292787637,-0.6005475786553764,-0.00968625126863825,2.416908481547656
22/04/2022,11:49:26,42.631222,-0.055520789115689695,5.00632691103965,2.3548736572265625,2.5514984130859375,2.9735967022048726e-09,4.457001686096191,-0.30770084261894226,2.9735967022048726e-09,4.457001686096191,1.5227140188217163,47.64151316623936,-122.140165,124.35395050048828,9.693822029102614e-08,-4.377905710948564,-3.48321559360064e-07,-3.039679033256995e-08,5.0,0.0,-0.7302456369567978,4.988221845055483,2.8180878670575966,1.0828305288083842,-0.28321725750942706,-0.0045680202824112115,1.0451263427734387,-3.039679033256995e-08,5.0,0.0,-0.11059696609358387,-0.0017838220337679104,0.4081241507374525,-0.6196486404664235,-0.009994332910749668,2.409963716320144
22/04/2022,11:49:26,42.821222,-0.06495848507620394,5.8573265466839075,2.301055908203125,2.5514984130859375,5.763681532044984e-09,4.560542583465576,-0.2604871690273285,5.763681532044984e-09,4.560542583465576,1.5227140188217163,47.64152082619892,-122.140165,124.3002700805664,1.0888496090680168e-07,-3.411985421020024,-3.3722040699840106e-07,-2.9428032035187132e-08,5.0,0.0,-0.7536357409400487,4.987844585298191,2.8196627729500547,1.135939396346582,-0.2875042468820479,-0.004637165272291632,1.0989440917968762,-2.9428032035187132e-08,5.0,0.0,-0.11022153732579064,-0.0017777667310613452,0.4213061495492984,-0.643414174186226,-0.010377647970747486,2.3983566234007565
22/04/2022,11:49:26,43.00422,-0.0742750553181395,6.697404311038554,2.2572021484375,2.5514984130859375,9.029021086348621e-09,4.634303092956543,-0.21827024221420288,9.029021086348621e-09,4.634303092956543,1.5227140188217163,47.64152826219856,-122.14016499999998,124.2572021484375,1.2454918312941071e-07,-2.7783788926336324,-3.9522848435311875e-07,-3.4490191748144065e-08,5.0,-5.0,-0.7763441936443121,4.98747832001364,-2.183779101814345,1.1794571170210242,-0.29173621707190167,-0.004705422855999508,1.1427978515625012,-3.4490191748144065e-08,5.0,-5.0,-0.1100088641778247,-0.0017743365189975852,0.4309300192381136,-0.6663352949762956,-0.010747343467362636,2.3852908789475418
22/04/2022,11:49:26,43.202223,-0.0838546984596178,7.561203331686556,2.1648635864257812,2.5514984130859375,1.1331361626787384e-08,4.665163040161133,-0.939732551574707,1.1331361626787384e-08,4.665163040161133,1.5227140188217163,47.641536160249636,-122.14016499999995,124.16206359863281,1.4147222777952176e-07,-3.4137231079754997,-4.7047106858043056e-07,-4.1056345910522786e-08,5.0,0.0,-0.56921300445166,4.990819145751685,3.6689049636365554,1.2701388441001717,-0.2960876841835619,-0.004775607809413884,1.23513641357422,-4.1056345910522786e-08,5.0,0.0,-0.10749383775830058,-0.0017337715767473628,0.44841295448075746,-0.4617191256370135,-0.00744708267156786,3.220492009155798
22/04/2022,11:49:27,43.378221,-0.09354857949074358,8.43530309945345,2.0116729736328125,2.5514984130859375,1.643795677352955e-08,4.753046035766602,-0.5244624614715576,1.643795677352955e-08,4.753046035766602,1.5227140188217163,47.64154402762737,-122.14016499999993,124.01009368896484,1.5916260863925896e-07,-2.3009749418673793,-5.593124044543218e-07,-4.8809215024870564e-08,5.0,0.0,-0.5693133379156541,4.990817527595056,2.9814853352452144,1.4204824137157606,-0.3004910409892576,-0.004846629693375348,1.3883270263671887,-4.8809215024870564e-08,5.0,0.0,-0.10165363231593355,-0.001639574714773198,0.4696595432861802,-0.4676596567905055,-0.007542897690169982,2.5118257919590343
22/04/2022,11:49:27,43.569223,-0.10369814618024975,9.350492202676833,1.9252700805664062,2.5514984130859375,2.1933768579174284e-08,4.791916370391846,-0.39562228322029114,2.1933768579174284e-08,4.791916370391846,1.5227140188217163,47.64155226341123,-122.14016499999987,123.92407989501953,1.7826524453159491e-07,-1.6204412955248582,-6.772141161800253e-07,0.0,0.0,0.0,-0.598863204266751,-0.009659083939787007,2.9428126077974177,1.505967931031389,-0.3051013895056134,-0.0049209901533160405,1.474729919433595,0.0,0.0,0.0,-0.09885460548155299,-0.001594429120670111,0.47782097817934804,-0.500008598785198,-0.008064654819116897,2.4649916296180696
22/04/2022,11:49:27,43.754222,-0.11326771357562393,10.213382697664201,1.880767822265625,2.5514984130859375,3.3637409302400556e-08,4.468570709228516,0.17145046591758728,3.3637409302400556e-08,4.791916370391846,1.5227140188217163,47.641560019051646,-122.1401649999998,123.88125610351562,1.8829062510900273e-07,16.847958867496367,-7.01459268903123e-07,0.0,0.0,0.0,-0.9246888538097002,-0.014914336351771031,2.625152793393608,1.5504352804607906,-0.30944827991429963,-0.004991101288940314,1.5192321777343762,0.0,0.0,0.0,-0.0979805280093021,-0.0015803310969242266,0.48103408745513426,-0.8267083258003981,-0.013334005254846805,2.1441187059384736
22/04/2022,11:49:27,43.939225,-0.12121978076174855,10.93065182492137,1.990509033203125,2.5514984130859375,6.951796967769042e-05,3.4337265491485596,1.056463599205017,6.951796967769042e-05,4.791916370391846,1.5227140188217163,47.64156644508707,-122.14016499996319,123.99365997314453,-0.13893158153798202,23.063106889565525,-0.3619665896107172,0.0,0.0,0.0,-0.10468321698274118,-0.0016884389835925431,0.4713093422646765,1.4438488255311763,-0.31306412897190206,-0.00504942143503051,1.4094909667968762,0.0,0.0,0.0,-0.10468321698274118,-0.0016884389835925431,0.4713093422646765,-0.0,-0.0,-0.0
22/04/2022,11:49:27,44.112223,-0.12712192395702004,11.466451857239008,2.194183349609375,2.5514984130859375,0.0004745210462715477,2.6867079734802246,1.0726425647735596,0.0004745210462715477,4.791916370391846,1.5227140188217163,47.641571245876776,-122.14016499941532,124.1974105834961,-1.0497474540367298,21.6007192635706,-2.878570320201456,0.0,0.0,0.0,-0.9179110777433035,-0.014805017382961968,-1.4256440935853838,1.2464956502437414,-0.31580320922185523,-0.005093600148740052,1.2058166503906262,0.0,0.0,0.0,-0.11583757204477174,-0.0018683479362061614,0.4422971934217539,-0.8020735056985318,-0.012936669446755806,-1.8679412870071377
22/04/2022,11:49:27,44.295222,-0.13178312208037823,11.902196595445275,2.3569183349609375,2.5514984130859375,0.0015690276632085443,2.1700820922851562,0.729317307472229,0.0015690276632085443,4.791916370391846,1.5227140188217163,47.64157509408534,-122.14016499715405,124.35691833496094,-2.136433088290762,18.124756127057886,-6.941573022422464,0.0,0.0,0.0,-0.1239304301419218,-0.0019988779055161413,0.40629144092421293,1.0905400262684164,-0.3181695364474988,-0.005131766716898412,1.0430816650390637,0.0,0.0,0.0,-0.1239304301419218,-0.0019988779055161413,0.40629144092421293,-0.0,-0.0,-0.0
22/04/2022,11:49:28,44.475222,-0.13514015404507518,12.240978282876313,2.4581222534179688,2.5514984130859375,0.003033288987353444,1.7350987195968628,0.44482964277267456,0.003033288987353444,4.791916370391846,1.5227140188217163,47.64157818919718,-122.1401649917069,124.45945739746094,-2.2110974345730643,14.557023216325357,-8.86357755879815,0.0,0.0,0.0,0.0,0.0,0.0,0.9948553684414336,-0.32027617721432045,-0.005165744793782068,0.9418777465820325,0.0,0.0,0.0,-0.0,-0.0,0.0,-0.0,-0.0,0.0
22/04/2022,11:49:28,44.649226,-0.1375807155855,12.519618935883045,2.5198822021484375,2.5514984130859375,0.004095862153917551,1.3655157089233398,0.24950011074543,0.004095862153917551,4.791916370391846,1.5227140188217163,47.641580686318356,-122.14016498301655,124.5206298828125,-1.934431823527171,11.421366901219713,-9.749036682177811,0.0,0.0,0.0,0.0,0.0,0.0,0.9372995970449148,-0.32232928564735674,-0.0051988594459260185,0.8801177978515637,0.0,0.0,0.0,-0.0,-0.0,0.0,-0.0,-0.0,0.0
22/04/2022,11:49:28,44.825221,-0.13919998321216553,12.734737800434232,2.5529937744140625,2.5529937744140625,0.004454642068594694,1.069677472114563,0.13059663772583008,0.004454642068594694,4.791916370391846,1.5227140188217163,47.64158261386192,-122.14016497279914,124.55339050292969,-1.5929160981603405,8.915620635043972,-10.14229922963848,0.0,0.0,0.0,0.0,0.0,0.0,0.9069393786202753,-0.32417919588019717,-0.005228696707746394,0.8470062255859387,0.0,0.0,0.0,-0.0,-0.0,0.0,-0.0,-0.0,0.0
22/04/2022,11:49:28,45.008219,-0.14028330123983324,12.90279002301395,2.5695419311523438,2.5695419311523438,0.004273916594684124,0.8333452939987183,0.060356929898262024,0.004454642068594694,4.791916370391846,1.5227140188217163,47.641584119521234,-122.14016496241734,124.5697250366211,-1.2749631894313243,6.928775692269326,-10.319991026034792,0.0,0.0,0.0,0.0,0.0,0.0,0.8920973889623077,-0.3258059743721575,-0.005254935070521327,0.8304580688476575,0.0,0.0,0.0,-0.0,-0.0,0.0,-0.0,-0.0,0.0
22/04/2022,11:49:28,45.189219,-0.141033774940297,13.037374708801508,2.57659912109375,2.57659912109375,0.003773918841034174,0.6414990425109863,0.019578535109758377,0.004454642068594694,4.791916370391846,1.5227140188217163,47.641585307907555,-122.14016495270958,124.57659912109375,-0.9975323145208193,5.326301900405216,-10.400762237914396,-0.18053223023792983,0.9835690691788346,0.0,-0.18053223023792983,0.9835690691788346,0.0,0.8860550892467001,-0.3272258520351604,-0.005277836323147156,0.8234008789062512,-0.18053223023792983,0.9835690691788346,0.0,-0.0,-0.0,0.0,-0.0,-0.0,0.0
22/04/2022,11:49:28,45.365221,-0.14196129760239273,13.139185599051416,2.5714797973632812,2.57659912109375,-0.006092248018831015,0.5545538663864136,-0.054470062255859375,0.004454642068594694,4.791916370391846,1.5227140188217163,47.64158623892154,-122.14016495026236,124.5713119506836,-0.7851395755990945,0.23030632423462347,-10.373006778012758,-0.1800557444532914,0.9836564079440396,0.0,-0.1800557444532914,0.9836564079440396,0.0,0.891077165076063,-0.32794025465737064,-0.005289358946088285,0.82852020263672,-0.1800557444532914,0.9836564079440396,0.0,-0.0,-0.0,0.0,-0.0,-0.0,0.0
22/04/2022,11:49:29,45.543226,-0.1464685957180336,13.240280559286475,2.5642852783203125,2.57659912109375,-0.032999347895383835,0.5823118090629578,-0.02686210721731186,0.004454642068594694,4.791916370391846,1.5227140188217163,47.64158713394043,-122.14016499510309,124.56428527832031,-0.6098523121389965,-1.94817307131807,-10.370348020709423,0.0,0.0,0.0,0.0,0.0,0.0,0.8967236829165824,-0.325064268591844,-0.00524297207406299,0.8357147216796887,0.0,0.0,0.0,-0.0,-0.0,0.0,-0.0,-0.0,0.0
22/04/2022,11:49:29,45.731223,-0.15571683563757688,13.34772902727127,2.5584030151367188,2.57659912109375,-0.05176730453968048,0.5914055109024048,-0.025273486971855164,0.004454642068594694,4.791916370391846,1.5227140188217163,47.64158811749455,-122.14016510442319,124.5583267211914,-0.48633577963004176,1.6571501444574632,-11.118363417302755,0.0,0.0,0.0,0.0,0.0,0.0,0.8995278594295777,-0.3175510230168981,-0.005121790693824124,0.8415969848632825,0.0,0.0,0.0,-0.0,-0.0,0.0,-0.0,-0.0,0.0
22/04/2022,11:49:29,45.904223,-0.16601183649618179,13.446020128205419,2.5564956665039062,2.57659912109375,-0.0502498485147953,0.5129885673522949,-0.0004421338380780071,0.004454642068594694,4.791916370391846,1.5227140188217163,47.64158900072349,-122.14016522690395,124.5564956665039,-0.47733850049735016,3.0124270768649493,-12.618751840859531,0.0,0.0,0.0,0.0,0.0,0.0,0.8982810032645155,-0.3088436276872336,-0.004981348833664967,0.843504333496095,0.0,0.0,0.0,-0.0,-0.0,0.0,-0.0,-0.0,0.0
22/04/2022,11:49:29,46.086223,-0.17523367202375084,13.528507737442851,2.5568313598632812,2.57659912109375,-0.04283187910914421,0.4186948239803314,0.0021772265899926424,0.004454642068594694,4.791916370391846,1.5227140188217163,47.64158974122257,-122.14016533719284,124.55683135986328,-0.4379285052242727,3.0118464444314683,-13.378145372772215,0.0,0.0,0.0,0.0,0.0,0.0,0.8952823032922441,-0.3009542898471153,-0.004854101449149439,0.84316864013672,0.0,0.0,0.0,-0.0,-0.0,0.0,-0.0,-0.0,0.0
22/04/2022,11:49:29,46.259221,-0.1827424531802535,13.59387110825628,2.5569305419921875,2.57659912109375,-0.03481348603963852,0.33383727073669434,-0.0013407052028924227,0.004454642068594694,4.791916370391846,1.5227140188217163,47.64159031872092,-122.14016542578521,124.55693054199219,-0.37197995777297926,2.6072419675853538,-13.741788617039957,0.0,0.0,0.0,0.0,0.0,0.0,0.8930396234954611,-0.29450143528920547,-0.004750023149824756,0.8430694580078137,0.0,0.0,0.0,-0.0,-0.0,0.0,-0.0,-0.0,0.0
22/04/2022,11:49:30,46.440224,-0.18894749484024942,13.647202770225704,2.556365966796875,2.57659912109375,-0.027422994375228882,0.2604868710041046,-0.004865714348852634,0.004454642068594694,4.791916370391846,1.5227140188217163,47.64159080618585,-122.14016550161345,124.55635070800781,-0.3001442053437192,2.1164150283040293,-13.924256616678255,0.0,0.0,0.0,0.0,0.0,0.0,0.8918253562351204,-0.2891579718044408,-0.0046638382549115676,0.8436340332031262,0.0,0.0,0.0,-0.0,-0.0,0.0,-0.0,-0.0,0.0
22/04/2022,11:49:30,46.61722,-0.19365868845488876,13.687443425878882,2.555328369140625,2.57659912109375,-0.02152496762573719,0.20354658365249634,-0.006924505811184645,0.004454642068594694,4.791916370391846,1.5227140188217163,47.641591167153265,-122.14016555815242,124.55530548095703,-0.23841922824984985,1.6850688555482907,-14.009560644780713,0.0,0.0,0.0,0.0,0.0,0.0,0.8914996008070178,-0.28509687749906326,-0.004598336733856456,0.8446716308593762,0.0,0.0,0.0,-0.0,-0.0,0.0,-0.0,-0.0,0.0
22/04/2022,11:49:30,46.887222,-0.1991148228989914,13.73388497531414,2.55322265625,2.57659912109375,-0.014506994746625423,0.1367596834897995,-0.008006325922906399,0.004454642068594694,4.791916370391846,1.5227140188217163,47.64159158002245,-122.14016562306634,124.55322265625,-0.16202351789556246,1.1469079731978242,-14.065085177717593,0.0,0.0,0.0,0.0,0.0,0.0,0.8920041754056185,-0.2803910245112493,-0.004522435879216857,0.8467773437500012,0.0,0.0,0.0,-0.0,-0.0,0.0,-0.0,-0.0,0.0
22/04/2022,11:49:30,47.05222,-0.20136501861270517,13.753005881793797,2.551971435546875,2.57659912109375,-0.011576980352401733,0.10905037075281143,-0.007929052226245403,0.004454642068594694,4.791916370391846,1.5227140188217163,47.641591755216965,-122.14016565066251,124.55194854736328,-0.12955698035774568,0.9174670586655445,-14.077570825853238,0.0,0.0,0.0,0.0,0.0,0.0,0.8925843778312716,-0.2784497355328938,-0.004491124766659027,0.8480285644531262,0.0,0.0,0.0,-0.0,-0.0,0.0,-0.0,-0.0,0.0
22/04/2022,11:49:30,47.225228,-0.20337196695618331,13.770048667676747,2.55059814453125,2.57659912109375,-0.008954997174441814,0.08429519087076187,-0.007558601908385754,0.004454642068594694,4.791916370391846,1.5227140188217163,47.64159190808226,-122.14016567475821,124.55057525634766,-0.10030962446950956,0.7105913546872562,-14.08474605295999,0.0,0.0,0.0,0.0,0.0,0.0,0.8933511912155538,-0.2767181213046527,-0.004463195504913031,0.8494018554687512,0.0,0.0,0.0,-0.0,-0.0,0.0,-0.0,-0.0,0.0
22/04/2022,11:49:31,47.412222,-0.20492394478060305,13.783220118843019,2.5493011474609375,2.57659912109375,-0.0069235689006745815,0.06513677537441254,-0.007055406924337149,0.004454642068594694,4.791916370391846,1.5227140188217163,47.64159202620307,-122.14016569339242,124.54928588867188,-0.07756968339431826,0.5496808435003652,-14.088195808587173,2.9097665542637845,0.7302455749183718,0.0,2.9097665542637845,0.7302455749183718,0.0,0.8941710256538193,-0.27537893462461094,-0.004441595719752556,0.8506988525390637,2.9097665542637845,0.7302455749183718,0.0,-0.0,-0.0,0.0,-0.0,-0.0,0.0
22/04/2022,11:49:31,47.589221,-0.19669172842986882,13.79586439486593,2.5671463012695312,2.57659912109375,0.20652610063552856,0.10000711679458618,0.3906721770763397,0.20652610063552856,4.791916370391846,1.5227140188217163,47.64159214006389,-122.14016557355309,124.56830596923828,11.573557019646843,0.4244635855381731,-14.099872943234029,1.939745111026001,0.4872257220742022,0.0,1.939745111026001,0.4872257220742022,0.0,0.8798954475283246,-0.28381289685234634,-0.004577627368588466,0.83285369873047,1.939745111026001,0.4872257220742022,0.0,-0.0,-0.0,0.0,-0.0,-0.0,0.0
22/04/2022,11:49:31,47.759221,-0.1287304547149688,13.821008724160492,2.6407470703125,2.6407470703125,0.5606854557991028,0.17769670486450195,0.3404538631439209,0.5606854557991028,4.791916370391846,1.5227140188217163,47.641592361610435,-122.14016465091468,124.64176940917969,11.526332081421131,0.3287986435513782,-14.120388621934248,0.9697852638233287,0.2439601239365085,0.0,-1.4566942510546599,0.20482335756750786,0.1285372864171302,0.8369679256007654,-0.35216194355620556,-0.005680031347681691,0.7592529296875012,0.9697852638233287,0.2439601239365085,0.0,-0.0,-0.0,0.0,-2.4264795148779887,-0.03913676636900066,0.1285372864171302
22/04/2022,11:49:31,47.942223,-0.00700219115242362,13.858907002955675,2.6725692749023438,2.6725692749023438,0.7757400274276733,0.2242531180381775,0.03992467001080513,0.7757400274276733,4.791916370391846,1.5227140188217163,47.64159268564471,-122.14016304717097,124.67256927490234,5.362669782934275,0.24768533540495832,-14.132981468927893,0.0,0.0,0.0,-2.3829043307667037,-0.038433940818818305,0.7591209006185744,0.8685248843432045,-0.4744696518578245,-0.007652736320288511,0.7274307250976575,0.0,0.0,0.0,-0.0,-0.0,0.0,-2.3829043307667037,-0.038433940818818305,0.7591209006185744
22/04/2022,11:49:31,48.120225,0.14006961707491428,13.902183414436877,2.6713027954101562,2.6725692749023438,0.8254491686820984,0.23009930551052094,-0.006155069917440414,0.8254491686820984,4.791916370391846,1.5227140188217163,47.641593066518176,-122.14016104990098,124.6712875366211,-1.7634148017962474,0.18628324839736077,-14.135685250376628,0.0,0.0,0.0,-2.407233737792293,-0.03882635060955305,0.7823276188492123,0.9582455088620169,-0.622201035040587,-0.010035500565169997,0.728697204589845,0.0,0.0,0.0,-0.0,-0.0,0.0,-2.407233737792293,-0.03882635060955305,0.7823276188492123
22/04/2022,11:49:31,48.30222,0.27644744666758925,13.941444576717913,2.6754608154296875,2.6754608154296875,0.7298820614814758,0.2008337676525116,0.04533686488866806,0.8254491686820984,4.791916370391846,1.5227140188217163,47.6415934053517,-122.14015923241608,124.67559814453125,-4.191130054851139,0.14275578255271842,-14.13388820528585,-1.2209430519013205,4.848638784650171,0.0,-3.9394235710049346,4.804792324664626,0.9749956072752715,1.0495026849850015,-0.7591764756168331,-0.01224478186479061,0.7245391845703137,-1.2209430519013205,4.848638784650171,0.0,-0.2995667129605635,-0.0048317211767844575,0.2858990352098357,-2.418913806143051,-0.0390147388087611,0.6890965720654358
22/04/2022,11:49:32,48.484222,0.3905869508162141,13.988917062059045,2.7111129760742188,2.7111129760742188,0.47369372844696045,0.4859005808830261,0.5962814092636108,0.8254491686820984,4.791916370391846,1.5227140188217163,47.64159382855164,-122.14015771611176,124.71288299560547,-4.576803930740738,-18.0050596524763,-12.682168147909595,-1.0977129171494107,4.87801459115523,0.0,-3.845863599267241,4.833689580153326,-0.3946332347801781,1.1129827445495872,-0.8740517806983583,-0.014097609366103825,0.6888870239257825,-1.0977129171494107,4.87801459115523,0.0,-0.3378537502742028,-0.005449254036681181,0.2662806365574827,-2.410296931843628,-0.0388757569652226,-0.6609138713376608
22/04/2022,11:49:32,48.653222,0.43622948159463704,14.151110354810953,2.8865585327148438,2.8865585327148438,0.0557531863451004,1.4595491886138916,1.4318342208862305,0.8254491686820984,4.791916370391846,1.5227140188217163,47.64159527029774,-122.14015710365177,124.88655853271484,-3.589758384718555,-24.563216844334598,-12.14215908246098,-2.0293185989750118,4.677805684704539,0.0,-3.4793425551187243,4.654418201540929,-2.16088105915076,1.0556877503994821,-0.9222977813388983,-0.014875770666757049,0.5134414672851575,-2.0293185989750118,4.677805684704539,0.0,-0.3632562736607848,-0.005858972155819354,0.20222409499692662,-1.0867676824829278,-0.017528511007790532,-2.3631051541476866
22/04/2022,11:49:32,48.840223,0.4117583252955228,14.484679554589093,3.168701171875,3.168701171875,-0.28382745385169983,2.247147798538208,1.5588340759277344,0.8254491686820984,4.791916370391846,1.5588340759277344,47.64159833420863,-122.14015739142162,125.17338562011719,-6.416548087205079,-23.293880674899793,-12.274582682934874,-2.0401246439793304,4.673102977361853,0.0,-2.443825883923793,4.666591667040167,-2.8547388056330987,0.9324713492718759,-0.9032117385749059,-0.014567931267338352,0.23129882812500124,-2.0401246439793304,4.673102977361853,0.0,-0.0,-0.0,0.0,-0.4037012399444626,-0.0065113103216860565,-2.8547388056330987
22/04/2022,11:49:32,49.019223,0.32834080525208265,14.939997067674994,3.4188232421875,3.4188232421875,-0.5765148997306824,2.739708662033081,1.1478121280670166,0.8254491686820984,4.791916370391846,1.5588340759277344,47.641602378468896,-122.1401584234179,125.4188232421875,-6.983192838771226,-19.639912088863696,-12.738967913463028,-2.077932959095465,4.656414351999269,0.0,-1.8212576305117487,4.660554276653841,-2.504292004972889,0.8274795385310659,-0.8271578344824071,-0.013341255394880847,-0.018823242187498757,-2.077932959095465,4.656414351999269,0.0,-0.0,-0.0,-0.0,0.25667532858371617,0.004139924654572254,-2.504292004972889
22/04/2022,11:49:32,49.199221,0.1950510967290029,15.465699071995914,3.5915451049804688,3.5915451049804688,-0.8430260419845581,3.1267919540405273,0.7746018171310425,0.8254491686820984,4.791916370391846,1.5588340759277344,47.64160720556782,-122.1401601538183,125.5938720703125,-6.4177448224071885,-15.782195131736428,-13.21374017377308,-2.1164458074534145,4.639036230092719,0.0,-0.9861648246256518,4.657266568525423,-2.229764652499555,0.7281174637292733,-0.702379651050724,-0.011328704049207161,-0.1915451049804675,-2.1164458074534145,4.639036230092719,0.0,-0.0,-0.0,-0.0,1.1302809828277627,0.018230338432703937,-2.229764652499555
22/04/2022,11:49:33,49.379224,0.01501946966163814,16.05412689037621,3.706024169921875,3.706024169921875,-1.0854425430297852,3.442173719406128,0.5054630041122437,0.8254491686820984,4.791916370391846,1.5588340759277344,47.64161243326395,-122.14016242992463,125.70602416992188,-5.972545545707193,-12.215542858228472,-11.864002363355509,-2.0065851942408988,4.687602357096132,0.0,-0.11332329408084885,4.7181388393567785,-1.632372209281714,0.613697052368042,-0.531883149176245,-0.008578760470584257,-0.30602416992187376,-2.0065851942408988,4.687602357096132,0.0,-0.0,-0.0,-0.0,1.89326190016005,0.030536482260646296,-1.632372209281714
22/04/2022,11:49:33,49.566227,-0.20228783506900072,16.68194333743304,3.7784423828125,3.7784423828125,-1.2864021062850952,3.6895103454589844,0.31948235630989075,0.8254491686820984,4.791916370391846,1.5588340759277344,47.641618202619604,-122.14016528146718,125.77940368652344,-5.068827442025722,-9.350607983444638,-8.47672055731245,-1.7261136316427543,4.7979716267040455,0.0,0.5501221727286301,4.83468510741971,-1.0880780081388282,0.4987107408111979,-0.3247557994578959,-0.005237996765448116,-0.37844238281249876,-1.7261136316427543,4.7979716267040455,0.0,-0.0,-0.0,-0.0,2.2762358043713844,0.03671348071566464,-1.0880780081388282
22/04/2022,11:49:33,49.745223,-0.45549597940407693,17.360662470571697,3.8238449096679688,3.8238449096679688,-1.4309592247009277,3.8962550163269043,0.19270162284374237,0.8254491686820984,4.791916370391846,1.5588340759277344,47.64162433972991,-122.14016855782565,125.82442474365234,-2.8889518272760983,-7.532109406020624,-6.745875105726991,-1.5804064321967641,4.84791867805877,-4.0,1.032241038734266,4.890058153396368,-4.796950356164063,0.43181253080052967,-0.08255774469341315,-0.0013315765273134161,-0.4238449096679675,-1.5804064321967641,4.84791867805877,-4.0,-0.0,-0.0,-0.0,2.61264747093103,0.04213947533759789,-0.7969503561640632
22/04/2022,11:49:33,49.922218,-0.7317263105651364,18.081290043890476,3.80670166015625,3.8238449096679688,-1.4862912893295288,4.015894412994385,-0.5366779565811157,0.8254491686820984,4.791916370391846,1.5588340759277344,47.64163074562458,-122.14017207146645,125.80670166015625,-1.6843837443280831,-8.40790860862882,-5.4558438618371286,-1.4708627789521276,4.882270238884081,0.0,1.615210658747261,4.932045616911485,0.6802758710231477,0.44556912625732925,0.18198074254646945,0.0029351732668736474,-0.40670166015624876,-1.4708627789521276,4.882270238884081,0.0,0.0,0.0,-0.0,3.0860734376993886,0.049775378027404095,0.6802758710231477
22/04/2022,11:49:33,50.099221,-1.002790801343508,18.792790048755705,3.7073822021484375,3.8238449096679688,-1.5303970575332642,4.2210822105407715,-0.46419745683670044,0.8254491686820984,4.791916370391846,1.5588340759277344,47.641637287565864,-122.14017563609663,125.70598602294922,-0.21836553950969978,-5.964291820381959,-4.338522004296421,-1.375380262780454,4.910023333218893,0.0,2.4983074085123755,4.972502166626838,0.7148124113669686,0.5380134444674909,0.4415019134828586,0.007120998604559503,-0.30738220214843626,-1.375380262780454,4.910023333218893,0.0,0.0,0.0,-0.0,3.8736876712928296,0.06247883340794482,0.7148124113669686
22/04/2022,11:49:33,50.281221,-1.2876441365806386,19.561367652378976,3.63104248046875,3.8238449096679688,-1.5285812616348267,4.3622355461120605,-0.38733699917793274,0.8254491686820984,4.791916370391846,1.5588340759277344,47.64164423450757,-122.140179314593,125.6298828125,0.7517344169591219,-4.32497099500867,-3.7386852430342064,-1.1282839616002787,1.9305375681388801,0.0,3.648756344223257,2.0075866053295806,0.7154969584099251,0.7504327080067846,0.7138879757005145,0.011514322188713066,-0.23104248046874876,-1.1282839616002787,1.9305375681388801,0.0,0.0,0.0,-0.0,4.777040305823536,0.07704903719070026,0.7154969584099251
22/04/2022,11:49:34,50.46022,-1.5645377661567181,20.329909001477063,3.5675125122070312,3.8238449096679688,-1.4864912033081055,4.277628421783447,-0.16921815276145935,0.8254491686820984,4.791916370391846,1.5588340759277344,47.64165105895109,-122.14018282604414,125.56751251220703,1.2430704521201792,8.07794656552342,-3.2350426067878524,0.0,0.0,0.0,5.492671481067552,0.08859147550109014,0.2462452479978975,0.9926799863521312,0.9783169869999602,0.01577930624193513,-0.16751251220703,0.0,0.0,0.0,0.0,0.0,-0.0,5.492671481067552,0.08859147550109014,0.2462452479978975
22/04/2022,11:49:34,50.639223,-1.8253321356605738,21.039743274450302,3.5894851684570312,3.8238449096679688,-1.3136264085769653,3.6432485580444336,0.5575957894325256,0.8254491686820984,4.791916370391846,1.5588340759277344,47.64165756957383,-122.14018624564186,125.59113311767578,5.165034376750799,19.437153782889677,-2.531816687356506,0.0,0.0,0.0,6.3560613940484885,0.10251711925884625,-2.1313740403332524,1.2422932241933533,1.2275975673506703,0.019799960763720037,-0.18948516845703,0.0,0.0,0.0,0.45109844089853285,0.00727578130481488,-0.06962905950427421,5.904962953149956,0.09524133795403138,-2.061744980828978
22/04/2022,11:49:34,50.807221,-2.028694857726805,21.57655359338969,3.7428665161132812,3.8238449096679688,-1.0410150289535522,2.8169164657592773,1.0891832113265991,0.8254491686820984,4.791916370391846,1.5588340759277344,47.64166239706297,-122.14018886266511,125.74613952636719,6.1079088490528815,21.120192710590647,-2.33791304021573,0.0,0.0,0.0,7.022702233599282,0.11326939086449399,-4.953543005455881,1.4631755780901083,1.4222514201070684,0.02293953903398105,-0.34286651611328,0.0,0.0,0.0,0.4709777572362798,0.007596415439293536,-0.11354005382416342,6.5517244763630025,0.10567297542520045,-4.840002951631718
22/04/2022,11:49:34,50.98222,-2.1986277631949633,22.016367623582482,3.9155120849609375,3.9155120849609375,-0.8545762896537781,2.274203062057495,0.8490082621574402,0.8254491686820984,4.791916370391846,1.5588340759277344,47.64166635623976,-122.14019105244269,125.91806030273438,5.5849377982180775,18.912837059533036,-2.570339588399251,0.0,0.0,0.0,5.394427963368677,0.08700690263497483,-3.5369367617330196,1.6669685331004755,1.5850482000154291,0.02556529354863457,-0.5155120849609363,0.0,0.0,0.0,0.4719162180652523,0.007611551904277852,-0.15348335369191293,4.922511745303424,0.07939535073069698,-3.3834534080411065
22/04/2022,11:49:34,51.151223,-2.333750933059491,22.360929606482387,4.034202575683594,4.034202575683594,-0.7041602730751038,1.848091959953308,0.5609703660011292,0.8254491686820984,4.791916370391846,1.5588340759277344,47.6416694581516,-122.14019279433619,126.03589630126953,4.748476611642878,15.828400804596956,-2.860970397885698,0.0,0.0,0.0,4.19349739229382,0.06763705471441665,-2.309048259720975,1.8283224592225051,1.714580221346886,0.027654519699137126,-0.6342025756835925,0.0,0.0,0.0,0.468419861534911,0.007555159057013001,-0.17326286573714644,3.725077530758909,0.060081895657403656,-2.1357853939838285
22/04/2022,11:49:34,51.32622,-2.4479730415623635,22.64847404602915,4.111419677734375,4.111419677734375,-0.5687808990478516,1.4745726585388184,0.33245569467544556,0.8254491686820984,4.791916370391846,1.5588340759277344,47.64167204642617,-122.14019426701246,126.11241912841797,3.8884384830235206,12.72640019921518,-3.1051329484556853,0.0,0.0,0.0,3.552750424781197,0.05730242620614596,-1.639761160550387,1.958176649253992,1.8241360158418511,0.029421548642609707,-0.7114196777343738,0.0,0.0,0.0,0.4657673062430706,0.007512375907146097,-0.1816509427087484,3.0869831185381265,0.04979005029899986,-1.4581102178416385
22/04/2022,11:49:35,51.507226,-2.5410617601592094,22.880267644301057,4.1561126708984375,4.1561126708984375,-0.45198512077331543,1.1601847410202026,0.17919231951236725,0.8254491686820984,4.791916370391846,1.5588340759277344,47.64167413263198,-122.14019546732942,126.15665435791016,3.11785461639093,10.020720428487458,-3.2781553374278802,1.9967273819777378,0.11436678740057936,0.0,5.239297477933115,0.1666663050772773,-1.2973570939504833,2.0576683611324276,1.9134628900143915,0.030862304677651053,-0.7561126708984363,1.9967273819777378,0.11436678740057936,0.0,0.46497684479915913,0.007499626529018593,-0.18373749805222284,2.777593251156218,0.04479989114767935,-1.1136195958982604
22/04/2022,11:49:35,51.67622,-2.6066076265415177,23.05428618658334,4.195564270019531,4.195564270019531,-0.2298310101032257,0.8789815902709961,0.3673524856567383,0.8254491686820984,4.791916370391846,1.5588340759277344,47.64167569717561,-122.14019630540133,126.19666290283203,9.923011204133962,7.908177134460643,-3.49559645727744,4.92972561081195,1.3029986193794483,0.0,7.765063351144393,1.348729873255773,-1.694157733411862,2.130551180623079,1.976185688649526,0.031873962720148086,-0.79556427001953,4.92972561081195,1.3029986193794483,0.0,0.46397972842950796,0.0074835440069262425,-0.18678694824681794,2.371358011902935,0.0382477098693986,-1.5073707851650442
22/04/2022,11:49:35,51.850222,-2.601693155360408,23.19232064206153,4.295051574707031,4.295051574707031,0.48211830854415894,0.7163079977035522,0.9373100996017456,0.8254491686820984,4.791916370391846,1.5588340759277344,47.641676953409444,-122.14019617171435,126.30067443847656,23.071795537099757,2.6303634601224846,-5.031710997522512,4.893024456327036,1.4346817311813493,0.0,6.322107754307115,1.457731461793929,-2.953033112742305,2.1631622453576664,1.9690467124571116,0.03175881794285118,-0.89505157470703,4.893024456327036,1.4346817311813493,0.0,0.4555269266473472,0.007347208494310789,-0.20706471331418072,0.973556371332732,0.015702522118268912,-2.7459683994281243
22/04/2022,11:49:35,52.030222,-2.418178307823837,23.32446430809796,4.529777526855469,4.529777526855469,1.6181071996688843,0.7826770544052124,1.6467419862747192,1.6181071996688843,4.791916370391846,1.6467419862747192,47.64167808534802,-122.14019374778884,126.52977752685547,25.49940036925157,-0.3132296836226396,-6.2923503659976445,4.860276381740035,1.5419836228378032,0.0,1.498395537545807,1.4877597382540204,-11.599545774911249,2.1113773508815914,1.7834487979643057,0.028765303192969327,-1.1297775268554675,4.860276381740035,1.5419836228378032,0.0,0.42245920873417564,0.006813858205389137,-0.2676190763568908,-3.7843400529284037,-0.06103774278917197,-11.331926698554359
22/04/2022,11:49:35,52.202224,-2.0869280208135024,23.469736508093774,4.794044494628906,4.794044494628906,2.2426464557647705,0.8799770474433899,1.3583652973175049,2.2426464557647705,4.791916370391846,1.6467419862747192,47.641679359274264,-122.14018931667172,126.7940444946289,22.917507835532387,-1.755091214436769,-6.90150279463979,3.8508538846703413,1.4734057007217467,0.0,-6.410423589987191,1.3079012253240392,-14.603644378960379,2.0115266007886663,1.449942171262754,0.023386164052620728,-1.394044494628905,3.8508538846703413,1.4734057007217467,0.0,0.3604085113261771,0.005813040505259842,-0.3465141651781149,-10.62168598598371,-0.17131751590296745,-14.257130213782263
22/04/2022,11:49:36,52.376224,-1.6597516882466152,23.63668526057154,4.969764709472656,4.969764709472656,2.5693280696868896,0.9548677206039429,0.578169584274292,2.5693280696868896,4.791916370391846,1.6467419862747192,47.64168084436416,-122.14018350270335,126.97151184082031,15.254210637677499,-2.3527902853379943,-7.1022620188849865,2.9769811720971893,0.3709219607664742,0.0,-9.719180111089395,0.16614516587635786,-8.942214878759927,1.8722204091444121,1.0201849163756966,0.01645459542541161,-1.569764709472655,2.9769811720971893,0.3709219607664742,0.0,0.27233952302522957,0.00439257295201907,-0.4190504734753254,-12.968500806211814,-0.2091693678421354,-8.523164405284602
22/04/2022,11:49:36,52.553221,-1.185705277719535,23.815619316883385,5.021697998046875,5.021697998046875,2.7875258922576904,0.9907905459403992,0.07925145328044891,2.7875258922576904,4.791916370391846,1.6467419862747192,47.64168238117318,-122.14017726834925,127.02169799804688,6.367824068176325,1.5956637936313631,-6.360716205636195,0.0,0.0,0.0,-20.197565522914417,-0.3257671858534578,-7.630192034917589,1.7103330790004623,0.5433765123295506,0.008764137295639074,-1.6216979980468738,0.0,0.0,0.0,0.15807890262752894,0.0025496597197991917,-0.4717838075581628,-20.355644425541946,-0.328316845573257,-7.158408227359426
22/04/2022,11:49:36,52.728223,-0.6986276701791212,23.987478013150394,5.034278869628906,5.034278869628906,2.7238214015960693,0.8931005001068115,0.2748219966888428,2.7875258922576904,4.791916370391846,1.6467419862747192,47.64168390276572,-122.14017065007606,127.03511810302734,-9.025408207703848,3.377233965815636,-6.277192138301808,0.0,0.0,0.0,-28.670836848818706,-0.46243285240030585,-12.051058263737804,1.6351596148774568,0.05365438942866518,0.0008653933778788314,-1.634278869628905,0.0,0.0,0.0,0.016247117856889114,0.00026205028801347293,-0.4948769651211164,-28.687083966675594,-0.4626949026883193,-11.556181298616687
22/04/2022,11:49:36,52.907221,-0.26354247122071683,24.13158490974456,5.123435974121094,5.123435974121094,2.267664670944214,0.7117390632629395,0.646030068397522,2.7875258922576904,4.791916370391846,1.6467419862747192,47.64168515105286,-122.14016485482185,127.12537384033203,-14.602458805982193,3.535676083408689,-6.257690817262786,0.0,0.0,0.0,-25.452698778579144,-0.41052739965450624,-15.955262865438495,1.76563035021348,-0.38364135371436325,-0.0061877637695921806,-1.7234359741210925,0.0,0.0,0.0,-0.10836174606746758,-0.0017477700978639837,-0.4867945793202859,-25.344337032511678,-0.40877962955664227,-15.46846828611821
22/04/2022,11:49:36,53.084223,0.0992100655566901,24.24847030825913,5.235145568847656,5.235145568847656,1.8358781337738037,0.566205620765686,0.5768319964408875,2.7875258922576904,4.791916370391846,1.6467419862747192,47.641686162511895,-122.14016002582295,127.23687744140625,-14.319679794381933,3.1121991728035376,-6.123091113676731,0.0,0.0,0.0,-17.85762052265689,-0.2880261374622214,-12.364260515022686,1.9818387009964549,-0.7481843045804897,-0.012067488783557678,-1.835145568847655,0.0,0.0,0.0,-0.18875991468196074,-0.003044514752935203,-0.4629900933285293,-17.66886060797493,-0.2849816227092862,-11.901270421694157
22/04/2022,11:49:36,53.25922,0.38683687278535217,24.34000448975712,5.321754455566406,5.321754455566406,1.4797831773757935,0.4523732364177704,0.41423019766807556,2.7875258922576904,4.791916370391846,1.6467419862747192,47.641686942028265,-122.14015625693166,127.3217544555664,-12.359066421449116,2.572087121557072,-5.982314129998521,0.0,0.0,0.0,-11.979689858322676,-0.19322080416651063,-8.492406975674161,2.183856535769931,-1.037212280195536,-0.01672923032573692,-1.921754455566405,0.0,0.0,0.0,-0.23776779894414282,-0.003834964499099644,-0.4405379069798351,-11.741922059378533,-0.189385839667411,-8.051869068694327
22/04/2022,11:49:37,53.434224,0.6165060119237751,24.412595701403916,5.380653381347656,5.380653381347656,1.1698178052902222,0.35569387674331665,0.26735183596611023,2.7875258922576904,4.791916370391846,1.6467419862747192,47.64168758181107,-122.14015314192496,127.38145446777344,-10.044381265990602,2.041743394652287,-5.869342466004558,0.0,0.0,0.0,-8.051082100633266,-0.12985616291343938,-5.832357062606093,2.351852529873488,-1.2679922089264068,-0.020451487240748634,-1.980653381347655,0.0,0.0,0.0,-0.27192155807687085,-0.0043858315818850425,-0.4247520999535856,-7.779160542556395,-0.12547033133155433,-5.407604962652507
22/04/2022,11:49:37,53.614221,0.7979643474100158,24.469711464829743,5.418037414550781,5.418037414550781,0.9199939966201782,0.27884820103645325,0.16566547751426697,2.7875258922576904,4.791916370391846,1.6467419862747192,47.64168807547685,-122.14015072789314,127.41853332519531,-7.983401594780332,1.6009742434252243,-5.7943217021849565,0.0,0.0,-4.0,-5.844370052072819,-0.09426403309795439,-8.364988168923396,2.4852490579101363,-1.450324333488568,-0.02339232795949897,-2.01803741455078,0.0,0.0,-4.0,-0.29845442079629947,-0.004813780980586697,-0.4152810332129494,-5.545915631276519,-0.08945025211736769,-3.949707135710448
22/04/2022,11:49:37,53.790221,0.9443130251020193,24.515699261799455,5.402763366699219,5.418037414550781,0.7768911719322205,0.235261008143425,-0.5022572875022888,2.7875258922576904,4.791916370391846,1.6467419862747192,47.64168847344224,-122.14014877863733,127.40127563476562,-8.429850972209584,1.632149195781889,-6.09841209432933,0.0,0.0,-5.0,-3.784688651670099,-0.06104336534952355,-6.498927911933723,2.561900966093126,-1.5973764948566263,-0.02576413701381952,-2.0027633666992175,0.0,0.0,-5.0,-0.3228178589705862,-0.005206739660816507,-0.4047435179773282,-3.4618707926995125,-0.055836625688707044,-1.0941843939563947
22/04/2022,11:49:37,53.978222,1.0547393675660715,24.550364730879664,5.2718048095703125,5.418037414550781,0.6637590527534485,0.2008398473262787,-1.2338236570358276,2.7875258922576904,4.791916370391846,1.6467419862747192,47.641688773362326,-122.14014730802592,127.26811981201172,-8.60170494743944,1.5287831867162982,-6.953656733072895,0.0,0.0,-5.0,-3.4537169140545325,-0.05570511151701507,-4.772098517740826,2.5343272107460137,-1.7083330929098874,-0.027553759563065938,-1.8718048095703113,0.0,0.0,-5.0,-0.3473220600096447,-0.005601968709833637,-0.3805575769117377,-3.1063948540448876,-0.050103142807181436,0.608459059170912
22/04/2022,11:49:37,54.157222,1.160717650083825,24.58359655085951,4.9841461181640625,5.418037414550781,0.5330957174301147,0.16107788681983948,-2.0329761505126953,2.7875258922576904,4.791916370391846,1.6467419862747192,47.641689060697786,-122.14014589754413,126.97806549072266,-7.5406405771502145,1.151091950660134,-8.284795564728944,0.0,0.0,-5.0,-4.512264224778455,-0.07277845523836464,-1.7812257259260056,2.409138055043102,-1.8148196705007835,-0.029271285008078962,-1.5841461181640613,0.0,0.0,-5.0,-0.3818125039914876,-0.006158266193411471,-0.33328203672032775,-4.130451720786967,-0.06662018904495316,3.552056310794322
22/04/2022,11:49:37,54.333223,1.2434907467104495,24.609522010199726,4.569305419921875,5.418037414550781,0.4194028079509735,0.12658271193504333,-2.7464540004730225,2.7875258922576904,4.791916370391846,1.6467419862747192,47.64168928133223,-122.14014481318989,126.56930541992188,-5.903567104773255,0.7326249776293352,-9.793009903966864,0.0,0.0,-5.0,-9.889072776858574,-0.15950117382031076,9.664778777536192,2.229478778668122,-1.8979892834817558,-0.030612730378738462,-1.1693054199218738,0.0,0.0,-5.0,-0.4266863942375641,-0.0068820386167350095,-0.2628711962343917,-9.46238638262101,-0.15261913520357576,14.927649973770585
22/04/2022,11:49:38,54.501224,1.309205382480286,24.630088816396892,4.02728271484375,5.418037414550781,0.32504716515541077,0.09808532893657684,-3.3840537071228027,2.7875258922576904,4.791916370391846,1.6467419862747192,47.641689459809534,-122.1401439353468,126.02728271484375,-4.302325398556705,0.40171531844956304,-11.442929902156646,0.0,0.0,-5.0,-21.4903744999788,-0.34661894354806866,44.15575944945126,2.06200281568456,-1.9640184647258327,-0.031677717173000275,-0.6272827148437488,0.0,0.0,-5.0,-0.4762631938859417,-0.0076816644175159085,-0.15211245444305557,-21.014111306092857,-0.33893727913055277,49.307871903894316
22/04/2022,11:49:38,54.680222,1.358575744787231,24.645548162981868,3.4039077758789062,5.418037414550781,0.25407078862190247,0.07673399895429611,-3.9104886054992676,2.7875258922576904,4.791916370391846,1.6467419862747192,47.641689596025486,-122.14014326565112,125.3921890258789,-3.07814865106703,0.19508243628315794,-13.096440301188302,-0.9739900468970356,-0.2265907953680164,-3.0,-39.11680331954237,-0.841797461055937,113.5775768167958,2.0138909586129463,-2.013625266337319,-0.03247782687640921,-0.0039077758789050066,-0.9739900468970356,-0.2265907953680164,-3.0,-0.49993430309183007,-0.008063456501481337,-0.000970205948107213,-37.64287896955351,-0.6071432091864393,116.5785470227439
22/04/2022,11:49:38,54.854221,1.3919253464555368,24.656204825267196,2.7566070556640625,5.418037414550781,0.0982012003660202,0.03409736603498459,-3.3762614727020264,2.7875258922576904,4.791916370391846,1.6467419862747192,47.64168968651478,-122.14014283030602,124.75660705566406,-5.5144565505760195,-0.014339812431036181,-14.519203898589803,-2.9041909974527877,-0.7521134557459936,0.0,-31.412180826186358,-1.2119197433062259,92.51125933944587,2.1461171478830017,-2.0471380314542653,-0.033018355346037254,0.6433929443359387,-2.9041909974527877,-0.7521134557459936,0.0,-0.4772375304638817,-0.007697379523611161,0.14999050144881687,-28.03075229826969,-0.45210890803662107,92.36126883799706
22/04/2022,11:49:38,55.026222,1.382615524576977,24.6552472403273,2.230224609375,5.418037414550781,-0.29771924018859863,-0.06842295825481415,-2.470921277999878,2.7875258922576904,4.791916370391846,1.6467419862747192,47.64168967882856,-122.14014295438164,124.230224609375,-11.735688754320481,-0.12783826958511302,-15.262998390417856,-3.8589105060057096,-1.0530003355359183,0.0,-13.856117933516384,-1.2142456166248081,40.81580415495894,2.3499245769780357,-2.037815189954276,-0.03286798693475035,1.1697753906250012,-3.8589105060057096,-1.0530003355359183,0.0,-0.43730726104179807,-0.0070533429200298516,0.25102927617287846,-9.559900166468875,-0.1541919381688598,40.56477487878606
22/04/2022,11:49:38,55.209221,1.2737797377631068,24.62705473229289,1.8775558471679688,5.418037414550781,-0.9750234484672546,-0.25023046135902405,-1.413780927658081,2.7875258922576904,4.791916370391846,1.6467419862747192,47.64168942935121,-122.14014444612914,123.87328338623047,-15.734834641030535,-0.09549494872351832,-15.681335267635175,-4.813899232126974,-1.3514341208239966,0.0,-5.1537751688333096,-1.3569159907708812,9.305299334553899,2.457258809785681,-1.9285531093273192,-0.031105695311733683,1.5224441528320325,-4.813899232126974,-1.3514341208239966,0.0,-0.3999231672918887,-0.006450373665998771,0.31570854060533177,0.060047230585553626,0.0009685037191142466,8.989590793948567
22/04/2022,11:49:39,55.385221,1.041175935533829,24.56345220748335,1.7089385986328125,5.418037414550781,-1.7600855827331543,-0.46991896629333496,-0.48438650369644165,2.7875258922576904,4.791916370391846,1.6467419862747192,47.64168887443012,-122.14014758334949,123.70745849609375,-18.528005492693648,-0.008248527496177535,-15.910701524817354,-4.80845061768031,-1.3706942245919942,0.0,-3.2103663202788324,-1.3449186714081025,3.1863896912811964,2.3944535006310637,-1.69498422186112,-0.027338455191308952,1.6910614013671887,-4.80845061768031,-1.3706942245919942,0.0,-0.3582842511178327,-0.005778778243836131,0.35745504882508533,1.9563685485193105,0.03155433142772786,2.8289346424561113
22/04/2022,11:49:39,55.564228,0.6634535802295431,24.4569743135944,1.7079925537109375,5.418037414550781,-2.60733962059021,-0.7142428159713745,0.5086232423782349,2.7875258922576904,4.791916370391846,1.6467419862747192,47.64168794759862,-122.14015266129859,123.70948791503906,-17.399629012620803,0.0829330782920001,-16.042870362593884,-4.805275935103841,-1.3817826122483599,0.0,1.16896648899057,-1.2854238634726465,1.4759566132058146,2.1434216633138234,-1.315643165109289,-0.021220051050150346,1.6920074462890637,-4.805275935103841,-1.3817826122483599,0.0,-0.30708363568282077,-0.004952961865852069,0.39493064076055084,6.281326059777232,0.1013117106415655,1.0810259724452638
22/04/2022,11:49:39,55.735221,0.1455334023339674,24.308159266598523,1.8505706787109375,5.418037414550781,-3.183881998062134,-0.8847108483314514,0.8549544811248779,2.7875258922576904,4.791916370391846,1.6467419862747192,47.64168667960147,-122.14015947391408,123.85057067871094,-14.761631917448907,0.154975815052233,-16.11484677470075,-4.803536313572357,-1.3878180299274459,0.0,20.825882282676105,-0.9744403106331324,-0.2978321829122525,1.7417374567930994,-0.7954580684267565,-0.012829968845593953,1.5494293212890637,-4.803536313572357,-1.3878180299274459,0.0,-0.22756516898913082,-0.0036704059514379105,0.44326176241221454,25.85698376523759,0.4170481252457513,-0.741093945324467
22/04/2022,11:49:39,55.914223,-0.4464854197576642,24.136335724033415,1.982452392578125,5.418037414550781,-3.514740467071533,-0.985215425491333,0.6287124156951904,2.7875258922576904,4.791916370391846,1.6467419862747192,47.64168516629507,-122.14016752084288,123.98434448242188,-11.92627296709318,0.19069882526292162,-16.148302403008685,0.0,0.0,0.0,59.85227846867996,0.965359330139988,1.8757879829152246,1.4317057741917736,-0.2008225907260366,-0.00323907404396806,1.4175476074218762,0.0,0.0,0.0,-0.06755961497782893,-0.00108967120931973,0.47688345332031484,59.919838083657794,0.9664490013493077,1.3989045295949099
22/04/2022,11:49:39,56.087224,-1.0594098147703335,23.95722987409681,2.0537796020507812,5.418037414550781,-3.569324254989624,-1.0058939456939697,0.3312620520591736,2.7875258922576904,4.791916370391846,1.6467419862747192,47.64168361548178,-122.14017570905509,124.05474853515625,7.397724263267757,0.19600031717405092,-16.161069693948274,0.0,0.0,0.0,90.81500991205583,1.4647582243879682,8.632232290470395,1.408700971862292,0.414830448838273,0.006690813690937603,1.34622039794922,0.0,0.0,0.0,0.14115066522760222,0.002276623632702484,0.4580664347220603,90.67385924682823,1.4624816007552657,8.174165855748335
22/04/2022,11:49:39,56.267221,-1.6515411791624501,23.783351781778038,2.1932830810546875,5.418037414550781,-2.9535815715789795,-0.8361275792121887,1.109572172164917,2.7875258922576904,4.791916370391846,1.6467419862747192,47.64168211477194,-122.1401835927756,124.19660949707031,18.208953657392822,0.17722669100909222,-16.17232309637652,0.0,0.0,0.0,65.24271334732762,1.0523018281826728,-9.091204367970036,1.5734504799822426,1.0096115688505125,0.01628405756210327,1.2067169189453137,0.0,0.0,0.0,0.3158474723825733,0.005094314070686112,0.37751002513185045,64.92686587494505,1.0472075141119868,-9.468714393101887
22/04/2022,11:49:40,56.439223,-2.114628755953163,23.646981039084494,2.3921356201171875,5.418037414550781,-2.382070302963257,-0.6753780245780945,1.0933021306991577,2.7875258922576904,4.791916370391846,1.6467419862747192,47.641680956660494,-122.14018965926284,124.39213562011719,19.014044955074397,0.14881007435338597,-16.185018042167712,4.801833023471391,1.3936999729854325,0.0,48.67900954058205,2.1013963684226953,-7.903539347641496,1.786428160257085,1.4747776627986267,0.023786736496749228,1.0078643798828137,4.801833023471391,1.3936999729854325,0.0,0.41196851506764615,0.006644653468832216,0.2815396533616955,43.46520800204301,0.7010517419684308,-8.185079001003192
22/04/2022,11:49:40,56.615223,-2.4664078062633052,23.54332781303674,2.6054840087890625,5.418037414550781,-1.4895455837249756,-0.42156246304512024,1.5822235345840454,2.7875258922576904,4.791916370391846,1.6467419862747192,47.64168004776617,-122.14019441752896,124.61021423339844,26.991949999721886,0.12235347041787784,-16.197104993193214,4.801538905732524,1.3947129226966057,0.0,24.70081077872969,1.7156689206481452,-9.359398367553183,1.9935417152044486,1.8281366145300046,0.029486074427900633,0.7945159912109387,4.801538905732524,1.3947129226966057,0.0,0.458514738391856,0.007395399006319589,0.19927246627128406,19.44075713460531,0.31356059894522004,-9.558670833824467
22/04/2022,11:49:40,56.790223,-2.6165135451592505,23.499574654735625,2.9522705078125,5.418037414550781,-0.1405443251132965,-0.0345352403819561,2.3389344215393066,2.7875258922576904,4.791916370391846,2.3389344215393066,47.64167967952886,-122.14019636831404,124.95926666259766,30.974253290918636,0.0975356439546244,-16.21157363227449,4.801186552216335,1.3959253886999194,0.0,11.622486866669878,1.5059463615136823,-11.739263238023286,2.0291773195684426,1.9789088267876593,0.03191788430302367,0.44772949218750124,4.801186552216335,1.3959253886999194,0.0,0.4876160004781215,0.007864774201259262,0.11032345771632451,6.33368431397542,0.10215619861250363,-11.84958669573961
22/04/2022,11:49:40,56.974221,-2.524237633566372,23.528242364525795,3.4172210693359375,5.418037414550781,1.1479524374008179,0.33685025572776794,2.7781505584716797,2.7875258922576904,4.791916370391846,2.7781505584716797,47.641679929267376,-122.14019512958836,125.41722106933594,31.963687398396022,0.07260199417941099,-16.227096767547923,3.8406465425559566,1.1177808976507768,0.0,2.4152685463880967,1.0947909299706147,-25.553245132403518,1.8865185815458638,1.8861946519710104,0.03042249438662381,-0.017221069335936257,3.8406465425559566,1.1177808976507768,0.0,0.4997680295568586,0.008060774670270485,-0.00456291182879209,-1.925146025724718,-0.031050742350432613,-25.548682220574726
22/04/2022,11:49:40,57.151221,-2.2761189078446478,23.60362291894853,3.8392410278320312,5.418037414550781,1.5840282440185547,0.46291229128837585,1.8344794511795044,2.7875258922576904,4.791916370391846,2.7781505584716797,47.64168059514547,-122.14019175219984,125.84477233886719,25.4241931029373,0.04739445993264398,-16.241396275602888,2.88027559084525,0.8390545398131437,0.0,0.07940693063898197,0.7938792388420656,-8.85173888393187,1.6950377762011917,1.6369249572899915,0.02640201544015852,-0.43924102783203,2.88027559084525,0.8390545398131437,0.0,0.48011898600229974,0.007743854612939547,-0.12883178056155817,-3.280987646208568,-0.05291915558401772,-8.72290710337031
22/04/2022,11:49:40,57.332222,-1.9776605329243466,23.694107215851545,4.0743408203125,5.418037414550781,1.84480881690979,0.5384235382080078,0.8565163016319275,2.7875258922576904,4.791916370391846,2.7781505584716797,47.64168138146332,-122.14018775523809,126.07693481445312,15.558029407213876,0.025655683881351383,-16.250057723226064,0.9600495724688052,0.27982998124301206,0.0,-1.258283076559875,0.24405042238771063,-2.8934798114185107,1.497663966085243,1.3370851602544584,0.021565889681522066,-0.6743408203124988,0.9600495724688052,0.27982998124301206,0.0,0.4350733365240019,0.00701731187941891,-0.2194233541503498,-2.653405985552682,-0.04279687073472032,-2.674056457268161
22/04/2022,11:49:41,57.500224,-1.6437182148220018,23.79526895005256,4.150718688964844,5.418037414550781,1.9721934795379639,0.5752646923065186,0.06250789016485214,2.7875258922576904,4.791916370391846,2.7781505584716797,47.64168224378381,-122.14018336851458,126.15071868896484,1.9057904064251996,0.011196434102030318,-16.252949073571088,0.9600354500228108,0.2798784284283075,0.0,-1.6870110999378716,0.2371841292353942,-1.166231391221412,1.2518142979245943,1.0015984766898611,0.01615481414015818,-0.7507186889648425,0.9600354500228108,0.2798784284283075,0.0,0.36654814881577785,0.0059120669163831956,-0.2747353876084986,-3.01359469877646,-0.0486063661092965,-0.8914960036129133
22/04/2022,11:49:41,57.671226,-1.308942295378074,23.896645549684763,4.159095764160156,5.418037414550781,1.9203832149505615,0.5599349141120911,0.07986682653427124,2.7875258922576904,4.791916370391846,2.7781505584716797,47.64168313752663,-122.1401788200861,126.15933227539062,-4.042914484621755,0.004335172407487046,-16.25317243905013,0.0,0.0,0.0,-3.2481040676164348,-0.0523887752841405,-1.3141316629257003,1.0094217494384934,0.6652749439149185,0.01073024103088116,-0.759095764160155,0.0,0.0,0.0,0.26547152634182286,0.004281798811963041,-0.30290981645173876,-3.5135755939582576,-0.05667057409610354,-1.0112218464739615
