date,fly_time,fly_time_s,x,y,z,z_max,vx,vy,vz,vx_max,vy_max,vz_max,latitude,longitude,altitude,pitch,roll,yaw,cx,cy,cz,scx,scy,scz,d,dx,dy,dz,gc_pow_x,gc_pow_y,gc_pow_z,gpc_pow_x,gpc_pow_y,gpc_pow_z,gfc_pow_x,gfc_pow_y,gfc_pow_z
21/04/2022,17:14:39,10.909443,0.0,0.0,1.6729812622070312,1.6729812622070312,0.0,0.0,-0.03342888131737709,0,0,0,47.641468,-122.140165,123.67298126220703,0.0,0.0,0.0,0,0,0,0,0,0,0,0,0,0,0,0,0,0,0,0,0,0,0
21/04/2022,17:14:39,11.05344,0.0,0.0,1.6684112548828125,1.6729812622070312,0.0,0.0,-0.029696675017476082,0,0,0,47.641468,-122.140165,123.66831970214844,0.0,0.0,0.0,0,0,0,0,0,0,0,0,0,0,0,0,0,0,0,0,0,0,0
21/04/2022,17:14:39,11.204452,0.0,0.0,1.6642532348632812,1.6729812622070312,0.0,0.0,-0.025669964030385017,0,0,0,47.641468,-122.140165,123.66417694091797,0.0,0.0,0.0,0,0,0,0,0,0,0,0,0,0,0,0,0,0,0,0,0,0,0
21/04/2022,17:14:39,11.356451,0.0,0.0,1.6606521606445312,1.6729812622070312,0.0,0.0,-0.022220434620976448,0,0,0,47.641468,-122.140165,123.66059112548828,0.0,0.0,0.0,0,0,0,0,0,0,0,0,0,0,0,0,0,0,0,0,0,0,0
21/04/2022,17:14:40,11.506451,0.0,0.0,1.6574783325195312,1.6729812622070312,0.0,0.0,-0.019241273403167725,0,0,0,47.641468,-122.140165,123.65742492675781,0.0,0.0,0.0,0,0,0,0,0,0,0,0,0,0,0,0,0,0,0,0,0,0,0
21/04/2022,17:14:40,11.659667,0.0,0.0,1.6547775268554688,1.6729812622070312,0.0,0.0,-0.016769476234912872,0,0,0,47.641468,-122.140165,123.65472412109375,0.0,0.0,0.0,0,0,0,0,0,0,0,0,0,0,0,0,0,0,0,0,0,0,0
21/04/2022,17:14:40,11.810668,0.0,0.0,1.652374267578125,1.6729812622070312,0.0,0.0,-0.014636061154305935,0,0,0,47.641468,-122.140165,123.65232849121094,0.0,0.0,0.0,0,0,0,0,0,0,0,0,0,0,0,0,0,0,0,0,0,0,0
21/04/2022,17:14:40,11.961674,0.0,0.0,1.6503067016601562,1.6729812622070312,0.0,0.0,-0.012866022065281868,0,0,0,47.641468,-122.140165,123.65030670166016,0.0,0.0,0.0,0,0,0,0,0,0,0,0,0,0,0,0,0,0,0,0,0,0,0
21/04/2022,17:14:40,12.117707,0.0,0.0,1.6484527587890625,1.6729812622070312,0.0,0.0,-0.011338313110172749,0,0,0,47.641468,-122.140165,123.64842224121094,0.0,0.0,0.0,0,0,0,0,0,0,0,0,0,0,0,0,0,0,0,0,0,0,0
21/04/2022,17:14:40,12.264693,0.0,0.0,1.6468505859375,1.6729812622070312,0.0,0.0,-0.010070731863379478,0,0,0,47.641468,-122.140165,123.64682006835938,0.0,0.0,0.0,0,0,0,0,0,0,0,0,0,0,0,0,0,0,0,0,0,0,0
21/04/2022,17:14:40,12.420694,0.0,0.0,1.6453933715820312,1.6729812622070312,0.0,0.0,-0.008976723067462444,0,0,0,47.641468,-122.140165,123.6453628540039,0.0,0.0,0.0,0,0,0,0,0,0,0,0,0,0,0,0,0,0,0,0,0,0,0
21/04/2022,17:14:41,12.569696,0.0,0.0,1.6441116333007812,1.6729812622070312,0.0,0.0,-0.00806916318833828,0,0,0,47.641468,-122.140165,123.64408874511719,0.0,0.0,0.0,0,0,0,0,0,0,0,0,0,0,0,0,0,0,0,0,0,0,0
21/04/2022,17:14:41,12.726695,0.0,0.0,1.642913818359375,1.6729812622070312,0.0,0.0,-0.007271491456776857,0,0,0,47.641468,-122.140165,123.64289093017578,0.0,0.0,0.0,0,0,0,0,0,0,0,0,0,0,0,0,0,0,0,0,0,0,0
21/04/2022,17:14:41,12.875696,0.0,0.0,1.6418685913085938,1.6729812622070312,0.0,0.0,-0.006623560097068548,0,0,0,47.641468,-122.140165,123.6418685913086,0.0,0.0,0.0,0,0,0,0,0,0,0,0,0,0,0,0,0,0,0,0,0,0,0
21/04/2022,17:14:41,13.027694,0.0,0.0,1.6409149169921875,1.6729812622070312,0.0,0.0,-0.006074564531445503,0,0,0,47.641468,-122.140165,123.64089965820312,0.0,0.0,0.0,0,0,0,0,0,0,0,0,0,0,0,0,0,0,0,0,0,0,0
21/04/2022,17:14:41,13.173695,0.0,0.0,1.6400375366210938,1.6729812622070312,0.0,0.0,-0.0056091733276844025,0,0,0,47.641468,-122.140165,123.64002227783203,0.0,0.0,0.0,0,0,0,0,0,0,0,0,0,0,0,0,0,0,0,0,0,0,0
21/04/2022,17:14:41,13.300694,0.0,0.0,1.639373779296875,1.6729812622070312,0.0,0.0,-0.005281026475131512,0,0,0,47.641468,-122.140165,123.63937377929688,0.0,0.0,0.0,0,0,0,0,0,0,0,0,0,0,0,0,0,0,0,0,0,0,0
21/04/2022,17:14:41,13.449706,0.0,0.0,1.6386184692382812,1.6729812622070312,0.0,0.0,-0.004942926578223705,0,0,0,47.641468,-122.140165,123.63860321044922,0.0,0.0,0.0,0,0,0,0,0,0,0,0,0,0,0,0,0,0,0,0,0,0,0
21/04/2022,17:14:42,13.597696,0.0,0.0,1.6379013061523438,1.6729812622070312,0.0,0.0,-0.004649674519896507,0,0,0,47.641468,-122.140165,123.63788604736328,0.0,0.0,0.0,0,0,0,0,0,0,0,0,0,0,0,0,0,0,0,0,0,0,0
21/04/2022,17:14:42,13.749706,0.0,0.0,1.63720703125,1.6729812622070312,0.0,0.0,-0.004396812058985233,0,0,0,47.641468,-122.140165,123.63720703125,0.0,0.0,0.0,0,0,0,0,0,0,0,0,0,0,0,0,0,0,0,0,0,0,0
21/04/2022,17:14:42,13.907734,0.0,0.0,1.63653564453125,1.6729812622070312,0.0,0.0,-0.004179432988166809,0,0,0,47.641468,-122.140165,123.63653564453125,0.0,0.0,0.0,0,0,0,0,0,0,0,0,0,0,0,0,0,0,0,0,0,0,0
21/04/2022,17:14:42,14.056739,0.0,0.0,1.63592529296875,1.6729812622070312,0.0,0.0,-0.0040028211660683155,0,0,0,47.641468,-122.140165,123.63591003417969,0.0,0.0,0.0,0,0,0,0,0,0,0,0,0,0,0,0,0,0,0,0,0,0,0
21/04/2022,17:14:42,14.211735,0.0,0.0,1.6353225708007812,1.6729812622070312,0.0,0.0,-0.0038503450341522694,0,0,0,47.641468,-122.140165,123.63532257080078,0.0,0.0,0.0,0,0,0,0,0,0,0,0,0,0,0,0,0,0,0,0,0,0,0
21/04/2022,17:14:42,14.360732,0.0,0.0,1.6347579956054688,1.6729812622070312,0.0,0.0,-0.00372389517724514,0,0,0,47.641468,-122.140165,123.6347427368164,0.0,0.0,0.0,0,0,0,0,0,0,0,0,0,0,0,0,0,0,0,0,0,0,0
21/04/2022,17:14:43,14.514733,0.0,0.0,1.6342010498046875,1.6729812622070312,0.0,0.0,-0.003616638947278261,0,0,0,47.641468,-122.140165,123.63419342041016,0.0,0.0,0.0,0,0,0,0,0,0,0,0,0,0,0,0,0,0,0,0,0,0,0
21/04/2022,17:14:43,14.664737,0.0,0.0,1.6336669921875,1.6729812622070312,0.0,0.0,-0.0035256275441497564,0,0,0,47.641468,-122.140165,123.63365936279297,0.0,0.0,0.0,0,0,0,0,0,0,0,0,0,0,0,0,0,0,0,0,0,0,0
21/04/2022,17:14:43,14.813738,0.0,0.0,1.633148193359375,1.6729812622070312,0.0,0.0,-0.003448507282882929,0,0,0,47.641468,-122.140165,123.63313293457031,0.0,0.0,0.0,0,0,0,0,0,0,0,0,0,0,0,0,0,0,0,0,0,0,0
21/04/2022,17:14:43,14.969733,0.0,0.0,1.6326141357421875,1.6729812622070312,0.0,0.0,-0.003380825510248542,0,0,0,47.641468,-122.140165,123.63261413574219,0.0,0.0,0.0,0,0,0,0,0,0,0,0,0,0,0,0,0,0,0,0,0,0,0
21/04/2022,17:14:43,15.121732,0.0,0.0,1.632110595703125,1.6729812622070312,0.0,0.0,-0.003325888654217124,0,0,0,47.641468,-122.140165,123.6321029663086,0.0,0.0,0.0,0,0,0,0,0,0,0,0,0,0,0,0,0,0,0,0,0,0,0
21/04/2022,17:14:43,15.274735,0.0,0.0,1.6316070556640625,1.6729812622070312,0.0,0.0,-0.0032784631475806236,0,0,0,47.641468,-122.140165,123.631591796875,0.0,0.0,0.0,0,0,0,0,0,0,0,0,0,0,0,0,0,0,0,0,0,0,0
21/04/2022,17:14:43,15.426734,0.0,0.0,1.6311187744140625,1.6729812622070312,0.0,0.0,-0.0032391732092946768,0,0,0,47.641468,-122.140165,123.631103515625,0.0,0.0,0.0,0,0,0,0,0,0,0,0,0,0,0,0,0,0,0,0,0,0,0
21/04/2022,17:14:44,15.580738,0.0,0.0,1.630615234375,1.6729812622070312,0.0,0.0,-0.003204558277502656,0,0,0,47.641468,-122.140165,123.63059997558594,0.0,0.0,0.0,0,0,0,0,0,0,0,0,0,0,0,0,0,0,0,0,0,0,0
21/04/2022,17:14:44,15.730743,0.0,0.0,1.6301345825195312,1.6729812622070312,0.0,0.0,-0.003176518017426133,0,0,0,47.641468,-122.140165,123.63013458251953,0.0,0.0,0.0,0,0,0,0,0,0,0,0,0,0,0,0,0,0,0,0,0,0,0
21/04/2022,17:14:44,15.880735,0.0,0.0,1.6296615600585938,1.6729812622070312,0.0,0.0,-0.0031526493839919567,0,0,0,47.641468,-122.140165,123.6296615600586,0.0,0.0,0.0,0,0,0,0,0,0,0,0,0,0,0,0,0,0,0,0,0,0,0
21/04/2022,17:14:44,16.03728,0.0,0.0,1.6291656494140625,1.6729812622070312,0.0,0.0,-0.003131702309474349,0,0,0,47.641468,-122.140165,123.62916564941406,0.0,0.0,0.0,0,0,0,0,0,0,0,0,0,0,0,0,0,0,0,0,0,0,0
21/04/2022,17:14:44,16.190802,0.0,0.0,1.6287002563476562,1.6729812622070312,0.0,0.0,-0.0031148679554462433,0,0,0,47.641468,-122.140165,123.62869262695312,0.0,0.0,0.0,0,0,0,0,0,0,0,0,0,0,0,0,0,0,0,0,0,0,0
21/04/2022,17:14:44,16.337391,0.0,0.0,1.62823486328125,1.6729812622070312,0.0,0.0,-0.0031004881020635366,0,0,0,47.641468,-122.140165,123.62823486328125,0.0,0.0,0.0,0,0,0,0,0,0,0,0,0,0,0,0,0,0,0,0,0,0,0
21/04/2022,17:14:44,16.492908,0.0,0.0,1.6277618408203125,1.6729812622070312,0.0,0.0,-0.003087979042902589,0,0,0,47.641468,-122.140165,123.62775421142578,0.0,0.0,0.0,0,0,0,0,0,0,0,0,0,0,0,0,0,0,0,0,0,0,0
21/04/2022,17:14:45,16.640907,0.0,0.0,1.6272964477539062,1.6729812622070312,0.0,0.0,-0.003077591070905328,0,0,0,47.641468,-122.140165,123.6272964477539,0.0,0.0,0.0,0,0,0,0,0,0,0,0,0,0,0,0,0,0,0,0,0,0,0
21/04/2022,17:14:45,16.799911,0.0,0.0,1.6268310546875,1.6729812622070312,0.0,0.0,-0.0030685358215123415,0,0,0,47.641468,-122.140165,123.62682342529297,0.0,0.0,0.0,0,0,0,0,0,0,0,0,0,0,0,0,0,0,0,0,0,0,0
21/04/2022,17:14:45,16.949909,0.0,0.0,1.6263580322265625,1.6729812622070312,0.0,0.0,-0.0030611613765358925,0,0,0,47.641468,-122.140165,123.62635803222656,0.0,0.0,0.0,0,0,0,0,0,0,0,0,0,0,0,0,0,0,0,0,0,0,0
21/04/2022,17:14:45,17.101907,0.0,0.0,1.6259002685546875,1.6729812622070312,0.0,0.0,-0.003055053763091564,0,0,0,47.641468,-122.140165,123.62589263916016,0.0,0.0,0.0,0,0,0,0,0,0,0,0,0,0,0,0,0,0,0,0,0,0,0
21/04/2022,17:14:45,17.253908,0.0,0.0,1.6254425048828125,1.6729812622070312,0.0,0.0,-0.0030498343985527754,0,0,0,47.641468,-122.140165,123.62543487548828,0.0,0.0,0.0,0,0,0,0,0,0,0,0,0,0,0,0,0,0,0,0,0,0,0
21/04/2022,17:14:45,17.401906,0.0,0.0,1.6249847412109375,1.6729812622070312,0.0,0.0,-0.003045408520847559,0,0,0,47.641468,-122.140165,123.6249771118164,0.0,0.0,0.0,0,0,0,0,0,0,0,0,0,0,0,0,0,0,0,0,0,0,0
21/04/2022,17:14:46,17.553909,0.0,0.0,1.6245269775390625,1.6729812622070312,0.0,0.0,-0.003041664371266961,0,0,0,47.641468,-122.140165,123.62451934814453,0.0,0.0,0.0,0,0,0,0,0,0,0,0,0,0,0,0,0,0,0,0,0,0,0
21/04/2022,17:14:46,17.70692,0.0,0.0,1.6240615844726562,1.6729812622070312,0.0,0.0,-0.003038072492927313,0,0,0,47.641468,-122.140165,123.62405395507812,0.0,0.0,0.0,0,0,0,0,0,0,0,0,0,0,0,0,0,0,0,0,0,0,0
21/04/2022,17:14:46,17.85791,0.0,0.0,1.6236038208007812,1.6729812622070312,0.0,0.0,-0.0030353476759046316,0,0,0,47.641468,-122.140165,123.62359619140625,0.0,0.0,0.0,0,0,0,0,0,0,0,0,0,0,0,0,0,0,0,0,0,0,0
21/04/2022,17:14:46,18.009907,0.0,0.0,1.6231460571289062,1.6729812622070312,0.0,0.0,-0.0030330175068229437,0,0,0,47.641468,-122.140165,123.62313842773438,0.0,0.0,0.0,0,0,0,0,0,0,0,0,0,0,0,0,0,0,0,0,0,0,0
21/04/2022,17:14:46,18.043906,0.0,0.0,1.623046875,1.6729812622070312,0.0,0.0,-0.0030325769912451506,0,0,0,47.641468,-122.140165,123.623046875,0.0,0.0,0.0,0,0,0,0,0,0,0,0,0,0,0,0,0,0,0,0,0,0,0
21/04/2022,17:14:46,18.074908,0.0,0.0,1.6229476928710938,1.6729812622070312,0.0,0.0,-0.003032150911167264,0,0,0,47.641468,-122.140165,123.6229476928711,0.0,0.0,0.0,0,0,0,0,0,0,0,0,0,0,0,0,0,0,0,0,0,0,0
21/04/2022,17:14:46,18.107907,0.0,0.0,1.6228485107421875,1.6729812622070312,0.0,0.0,-0.0030317744240164757,0,0,0,47.641468,-122.140165,123.62284851074219,0.0,0.0,0.0,0,0,0,0,0,0,0,0,0,0,0,0,0,0,0,0,0,0,0
21/04/2022,17:14:46,18.143908,0.0,0.0,1.6227493286132812,1.6729812622070312,0.0,0.0,-0.0030313979368656874,0,0,0,47.641468,-122.140165,123.62273406982422,0.0,0.0,0.0,0,0,0,0,0,0,0,0,0,0,0,0,0,0,0,0,0,0,0
21/04/2022,17:14:46,18.179907,0.0,0.0,1.6226348876953125,1.6729812622070312,0.0,0.0,-0.003030987223610282,0,0,0,47.641468,-122.140165,123.62263488769531,0.0,0.0,0.0,0,0,0,0,0,0,0,0,0,0,0,0,0,0,0,0,0,0,0
21/04/2022,17:14:46,18.211918,0.0,0.0,1.6225357055664062,1.6729812622070312,0.0,0.0,-0.0030306107364594936,0,0,0,47.641468,-122.140165,123.62252807617188,0.0,0.0,0.0,0,0,0,0,0,0,0,0,0,0,0,0,0,0,0,0,0,0,0
21/04/2022,17:14:46,18.246903,0.0,0.0,1.6224365234375,1.6729812622070312,0.0,0.0,-0.0030302342493087053,0,0,0,47.641468,-122.140165,123.62242889404297,0.0,0.0,0.0,0,0,0,0,0,0,0,0,0,0,0,0,0,0,0,0,0,0,0
21/04/2022,17:14:46,18.279917,0.0,0.0,1.6223373413085938,1.6729812622070312,0.0,0.0,-0.0030298675410449505,0,0,0,47.641468,-122.140165,123.62232971191406,0.0,0.0,0.0,0,0,0,0,0,0,0,0,0,0,0,0,0,0,0,0,0,0,0
21/04/2022,17:14:46,18.310906,0.0,0.0,1.6222381591796875,1.6729812622070312,0.0,0.0,-0.0030295217875391245,0,0,0,47.641468,-122.140165,123.62223815917969,0.0,0.0,0.0,0,0,0,0,0,0,0,0,0,0,0,0,0,0,0,0,0,0,0
21/04/2022,17:14:46,18.345905,0.0,0.0,1.6221389770507812,1.6729812622070312,0.0,0.0,-0.0030291760340332985,0,0,0,47.641468,-122.140165,123.62213134765625,0.0,0.0,0.0,0,0,0,0,0,0,0,0,0,0,0,0,0,0,0,0,0,0,0
21/04/2022,17:14:46,18.379906,0.0,0.0,1.622039794921875,1.6729812622070312,0.0,0.0,-0.0030288316775113344,0,0,0,47.641468,-122.140165,123.62203216552734,0.0,0.0,0.0,0,0,0,0,0,0,0,0,0,0,0,0,0,0,0,0,0,0,0
21/04/2022,17:14:46,18.413909,0.0,0.0,1.6219406127929688,1.6729812622070312,0.0,0.0,-0.0030285166576504707,0,0,0,47.641468,-122.140165,123.62193298339844,0.0,0.0,0.0,0,0,0,0,0,0,0,0,0,0,0,0,0,0,0,0,0,0,0
21/04/2022,17:14:46,18.449909,0.0,0.0,1.6218338012695312,1.6729812622070312,0.0,0.0,-0.0030281911604106426,0,0,0,47.641468,-122.140165,123.62183380126953,0.0,0.0,0.0,0,0,0,0,0,0,0,0,0,0,0,0,0,0,0,0,0,0,0
21/04/2022,17:14:46,18.481905,0.0,0.0,1.621734619140625,1.6729812622070312,0.0,0.0,-0.003027908504009247,0,0,0,47.641468,-122.140165,123.62171936035156,0.0,0.0,0.0,0,0,0,0,0,0,0,0,0,0,0,0,0,0,0,0,0,0,0
21/04/2022,17:14:47,18.517908,0.0,0.0,1.6216201782226562,1.6729812622070312,0.0,0.0,-0.00302763469517231,0,0,0,47.641468,-122.140165,123.62162017822266,0.0,0.0,0.0,0,0,0,0,0,0,0,0,0,0,0,0,0,0,0,0,0,0,0
21/04/2022,17:14:47,18.551908,0.0,0.0,1.62152099609375,1.6729812622070312,0.0,0.0,-0.003027383703738451,0,0,0,47.641468,-122.140165,123.62151336669922,0.0,0.0,0.0,0,0,0,0,0,0,0,0,0,0,0,0,0,0,0,0,0,0,0
21/04/2022,17:14:59,30.523011,0.0,0.0,1.441314697265625,1.6729812622070312,0.0,0.0,-0.04198320209980011,0,0,0,47.641468,-122.140165,123.44131469726562,0.0,0.0,0.0,0.0,0.0,0.0,-0.37858154705108976,-0.0061061539846951046,2.9761060286123033,1.975608283324367,-0.25799739921976594,-0.004161248374512427,1.9586853027343762,0.0,0.0,0.0,-0.06529549723649518,-0.0010531531812338118,0.4957155814695434,-0.31328604981459457,-0.0050530008034612925,2.48039044714276
21/04/2022,17:14:59,30.676007,0.0,0.0,1.4354629516601562,1.6729812622070312,0.0,0.0,-0.03604603186249733,0,0,0,47.641468,-122.140165,123.43534851074219,0.0,0.0,0.0,0.0,0.0,0.0,-0.37929875372912,-0.006117721834340752,2.9759888084358908,1.9814100505175671,-0.25799739921976594,-0.004161248374512427,1.964537048339845,0.0,0.0,0.0,-0.06510441078440754,-0.0010500711416840112,0.4957415360895079,-0.31419434294471243,-0.005067650692656741,2.4802472723463826
21/04/2022,17:14:59,30.865013,0.0,0.0,1.4293289184570312,1.6729812622070312,0.0,0.0,-0.029924709349870682,0,0,0,47.641468,-122.140165,123.42923736572266,0.0,0.0,0.0,0.0,0.0,0.0,-0.38002695272774834,-0.00612946697947992,2.9758748712075005,1.9874920089454289,-0.25799739921976594,-0.004161248374512427,1.97067108154297,0.0,0.0,0.0,-0.06490524165252393,-0.0010468587363310496,0.4957681091049845,-0.3151217110752244,-0.005082608243148871,2.480106762102516
21/04/2022,17:14:59,31.051009,0.0,0.0,1.4241485595703125,1.6729812622070312,0.0,0.0,-0.024865591898560524,0,0,0,47.641468,-122.140165,123.42414855957031,0.0,0.0,0.0,0.0,0.0,0.0,-0.3806137650941875,-0.006138931695067648,2.9757863321266944,1.9926286379153224,-0.25799739921976594,-0.004161248374512427,1.9758514404296887,0.0,0.0,0.0,-0.06473794806596588,-0.0010441604526768872,0.4957901448752329,-0.3158758170282216,-0.005094771242390761,2.4799961872514613
21/04/2022,17:14:59,31.253008,0.0,0.0,1.4198379516601562,1.6729812622070312,0.0,0.0,-0.02075779438018799,0,0,0,47.641468,-122.140165,123.4197769165039,0.0,0.0,0.0,0.0,0.0,0.0,-0.38107438093731383,-0.006146360982860009,2.975718650714263,1.996903030113793,-0.25799739921976594,-0.004161248374512427,1.980162048339845,0.0,0.0,0.0,-0.0645993805899446,-0.0010419254933862218,0.49580826077052104,-0.31647500034736925,-0.005104435489473787,2.479910389943742
21/04/2022,17:14:59,31.435016,0.0,0.0,1.416229248046875,1.6729812622070312,0.0,0.0,-0.017422353848814964,0,0,0,47.641468,-122.140165,123.41622924804688,0.0,0.0,0.0,0.0,0.0,0.0,-0.38143042249436476,-0.006152103588618896,2.9756673127098954,2.0004815346053233,-0.25799739921976594,-0.004161248374512427,1.9837707519531262,0.0,0.0,0.0,-0.06448382420996149,-0.0010400616808058489,0.4958233099584211,-0.3169465982844033,-0.005112041907813046,2.479844002751474
21/04/2022,17:15:00,31.589006,0.0,0.0,1.4137344360351562,1.6729812622070312,0.0,0.0,-0.015187572687864304,0,0,0,47.641468,-122.140165,123.41373443603516,0.0,0.0,0.0,0.0,0.0,0.0,-0.381655707462392,-0.006155737217135464,2.9756352301962385,2.0029555323533224,-0.25799739921976594,-0.004161248374512427,1.986265563964845,0.0,0.0,0.0,-0.06440417582530811,-0.0010387770294404716,0.4958336673323567,-0.3172515316370839,-0.005116960187694993,2.479801562863882
21/04/2022,17:15:00,31.773005,0.0,0.0,1.4111557006835938,1.6729812622070312,0.0,0.0,-0.012964969500899315,0,0,0,47.641468,-122.140165,123.41111755371094,0.0,0.0,0.0,0.0,0.0,0.0,-0.38186238003944684,-0.006159070645797637,2.975606038125057,2.0055128074673494,-0.25799739921976594,-0.004161248374512427,1.9888442993164075,0.0,0.0,0.0,-0.06432205441523774,-0.0010374524905683688,0.495844344287733,-0.3175403256242091,-0.005121618155229268,2.479761693837324
21/04/2022,17:15:00,31.956017,0.0,0.0,1.4089202880859375,1.6729812622070312,0.0,0.0,-0.011121761985123158,0,0,0,47.641468,-122.140165,123.40888214111328,0.0,0.0,0.0,0.0,0.0,0.0,-0.38201626097220076,-0.006161552596325927,2.975584434396168,2.0077296613807323,-0.25799739921976594,-0.004161248374512427,1.9910797119140637,0.0,0.0,0.0,-0.06425103638516913,-0.0010363070384704878,0.4958535838068307,-0.3177652245870316,-0.0051252455578554386,2.479730850589337
21/04/2022,17:15:00,32.108007,0.0,0.0,1.4073104858398438,1.6729812622070312,0.0,0.0,-0.009864750318229198,0,0,0,47.641468,-122.140165,123.40731048583984,0.0,0.0,0.0,0.0,0.0,0.0,-0.3821055386001698,-0.006162992558067364,2.97557192468717,2.0093261243103475,-0.25799739921976594,-0.004161248374512427,1.9926895141601575,0.0,0.0,0.0,-0.0641999917169915,-0.0010354837373708493,0.49586023227561593,-0.3179055468831783,-0.0051275088206965145,2.479711692411554
21/04/2022,17:15:00,32.30001,0.0,0.0,1.4055938720703125,1.6729812622070312,0.0,0.0,-0.008596152067184448,0,0,0,47.641468,-122.140165,123.40559387207031,0.0,0.0,0.0,0.0,0.0,0.0,-0.3821786546774827,-0.006164171849636926,2.975561665746977,2.0110285371211645,-0.25799739921976594,-0.004161248374512427,1.9944061279296887,0.0,0.0,0.0,-0.06414565076334242,-0.0010346072703765088,0.4958673201719878,-0.31803300391414024,-0.005129564579260417,2.4796943455749894
21/04/2022,17:15:00,32.485007,0.0,0.0,1.4040908813476562,1.6729812622070312,0.0,0.0,-0.0075626191683113575,0,0,0,47.641468,-122.140165,123.40406799316406,0.0,0.0,0.0,0.0,0.0,0.0,-0.38221883097914977,-0.006164819854502526,2.9755559688848856,2.0125191139245806,-0.25799739921976594,-0.004161248374512427,1.995909118652345,0.0,0.0,0.0,-0.06409814910028457,-0.001033841114520737,0.49587352688396463,-0.3181206818788652,-0.005130978739981789,2.479682442000921
21/04/2022,17:15:01,32.668015,0.0,0.0,1.4027633666992188,1.6729812622070312,0.0,0.0,-0.006720274221152067,0,0,0,47.641468,-122.140165,123.40276336669922,0.0,0.0,0.0,0.0,0.0,0.0,-0.3822324796239732,-0.006165039993935162,2.975553924380846,2.0138356793419967,-0.25799739921976594,-0.004161248374512427,1.9972366333007825,0.0,0.0,0.0,-0.06405625308162052,-0.0010331653722842203,0.4958790113136813,-0.3181762265423527,-0.005131874621650942,2.4796749130671647
21/04/2022,17:15:01,32.82201,0.0,0.0,1.40179443359375,1.6729812622070312,0.0,0.0,-0.006156452931463718,0,0,0,47.641468,-122.140165,123.40177917480469,0.0,0.0,0.0,0.0,0.0,0.0,-0.38222662343723424,-0.006164945539310338,2.9755545862270063,2.014796629838636,-0.25799739921976594,-0.004161248374512427,1.9982055664062512,0.0,0.0,0.0,-0.06402570923522033,-0.0010326727296003462,0.4958830165491211,-0.3182009142020139,-0.005132272809709992,2.479671569677885
21/04/2022,17:15:01,33.008009,0.0,0.0,1.4007034301757812,1.6729812622070312,0.0,0.0,-0.0055751190520823,0,0,0,47.641468,-122.140165,123.40070343017578,0.0,0.0,0.0,0.0,0.0,0.0,-0.3822034162696377,-0.006164571230155557,2.9755575897889495,2.015878654111673,-0.25799739921976594,-0.004161248374512427,1.99929656982422,0.0,0.0,0.0,-0.0639913531681698,-0.001032118599486628,0.4958875293876623,-0.31821206310146793,-0.0051324526306689286,2.479670060401287
21/04/2022,17:15:01,33.195009,0.0,0.0,1.3997116088867188,1.6729812622070312,0.0,0.0,-0.005101569928228855,0,0,0,47.641468,-122.140165,123.39969635009766,0.0,0.0,0.0,0.0,0.0,0.0,-0.3821652587304328,-0.006163955785974831,2.9755626376090594,2.016862320936846,-0.25799739921976594,-0.004161248374512427,2.0002883911132825,0.0,0.0,0.0,-0.06396015333823164,-0.0010316153764231093,0.4958916353544717,-0.31820510539220115,-0.0051323404095517215,2.479671002254588
21/04/2022,17:15:01,33.351008,0.0,0.0,1.3989410400390625,1.6729812622070312,0.0,0.0,-0.004772670567035675,0,0,0,47.641468,-122.140165,123.39892578125,0.0,0.0,0.0,0.0,0.0,0.0,-0.38212349796277006,-0.006163282225206077,2.9755682055837407,2.017626559904521,-0.25799739921976594,-0.004161248374512427,2.0010589599609387,0.0,0.0,0.0,-0.06393593515547813,-0.001031224760572246,0.49589482798379025,-0.31818756280729193,-0.00513205746463383,2.4796733775999504
21/04/2022,17:15:02,33.53305,0.0,0.0,1.3980865478515625,1.6729812622070312,0.0,0.0,-0.004447597544640303,0,0,0,47.641468,-122.140165,123.39808654785156,0.0,0.0,0.0,0.0,0.0,0.0,-0.382064881365632,-0.006162336796219979,2.975576054841405,2.018474038447133,-0.25799739921976594,-0.004161248374512427,2.0019134521484387,0.0,0.0,0.0,-0.06390910153922501,-0.001030791960310099,0.4958983713518503,-0.31815577982640697,-0.0051315448359098795,2.479677683489555
21/04/2022,17:15:02,33.689047,0.0,0.0,1.3974227905273438,1.6729812622070312,0.0,0.0,-0.004226102493703365,0,0,0,47.641468,-122.140165,123.39742279052734,0.0,0.0,0.0,0.0,0.0,0.0,-0.38200972404055034,-0.006161447161944469,2.9755834639864447,2.019132351751983,-0.25799739921976594,-0.004161248374512427,2.0025772094726575,0.0,0.0,0.0,-0.06388827368460712,-0.0010304560271711008,0.4959011262139265,-0.3181214503559432,-0.005130991134773368,2.4796823377725183
21/04/2022,17:15:02,33.879043,0.0,0.0,1.3966598510742188,1.6729812622070312,0.0,0.0,-0.00400255061686039,0,0,0,47.641468,-122.140165,123.39664459228516,0.0,0.0,0.0,0.0,0.0,0.0,-0.38193670236594846,-0.006160269392999278,2.9755932962568394,2.0198890381132757,-0.25799739921976594,-0.004161248374512427,2.0033401489257825,0.0,0.0,0.0,-0.06386435103978572,-0.001030070178061078,0.4959042955859794,-0.31807235132616274,-0.0051301992149382,2.47968900067086
21/04/2022,17:15:02,34.027041,0.0,0.0,1.3960647583007812,1.6729812622070312,0.0,0.0,-0.0038528006989508867,0,0,0,47.641468,-122.140165,123.39605712890625,0.0,0.0,0.0,0.0,0.0,1.0,-0.3818721180740496,-0.006159227710871877,3.9756020112256873,2.0204792567399226,-0.25799739921976594,-0.004161248374512427,2.00393524169922,0.0,0.0,1.0,-0.0638457043166953,-0.0010297694244628456,0.4959067699839498,-0.3180264137573543,-0.005129458286409031,2.4796952412417377
21/04/2022,17:15:02,34.18104,0.0,0.0,1.4420928955078125,1.6729812622070312,0.0,0.0,0.8000420928001404,0,0,0.8000420928001404,47.641468,-122.140165,123.44446563720703,0.0,0.0,0.0,0.0,0.0,1.0,-0.06532098832868778,-0.0010535643278820794,1.4957120789122704,1.974836753712363,-0.25799739921976594,-0.004161248374512427,1.9579071044921887,0.0,0.0,1.0,-0.06532098832868778,-0.0010535643278820794,0.4957120789122704,-0.0,-0.0,0.0
21/04/2022,17:15:02,34.376191,0.0,0.0,1.6352615356445312,1.6729812622070312,0.0,0.0,1.0680402517318726,0,0,1.0680402517318726,47.641468,-122.140165,123.63846588134766,0.0,0.0,0.0,0.0,0.0,0.0,-0.07218205997550456,-0.001164226773798481,0.49373543322690666,1.7835026833643677,-0.25799739921976594,-0.004161248374512427,1.76473846435547,0.0,0.0,0.0,-0.07218205997550456,-0.001164226773798481,0.49373543322690666,-0.0,-0.0,-0.0
21/04/2022,17:15:03,34.535193,0.0,0.0,1.7688369750976562,1.7688369750976562,0.0,0.0,0.45693469047546387,0,0,1.0680402517318726,47.641468,-122.140165,123.76883697509766,0.0,0.0,0.0,0.0,0.0,0.0,-0.07745104110828256,-0.0012492103404561925,0.4896765427794403,1.6514456660153145,-0.25799739921976594,-0.004161248374512427,1.631163024902345,0.0,0.0,0.0,-0.07745104110828256,-0.0012492103404561925,0.4896765427794403,-0.0,-0.0,0.0
21/04/2022,17:15:03,34.723192,0.0,0.0,1.7916946411132812,1.7916946411132812,0.0,0.0,-0.04075608775019646,0,0,1.0680402517318726,47.641468,-122.140165,123.79169464111328,0.0,0.0,0.0,0.0,0.0,0.0,-0.4538541827370852,-0.007320228753824084,2.947864557482074,1.6288726473901938,-0.25799739921976594,-0.004161248374512427,1.60830535888672,0.0,0.0,0.0,-0.0783854304260011,-0.0012642811359032658,0.4886394521573971,-0.3754687523110841,-0.006055947617920818,2.459225105324677
21/04/2022,17:15:03,34.910193,0.0,0.0,1.7826766967773438,1.7916946411132812,0.0,0.0,-0.04779420047998428,0,0,1.0680402517318726,47.641468,-122.140165,123.78253173828125,0.0,0.0,0.0,0.0,0.0,0.0,-0.44893323651538974,-0.007240858653474154,2.951679316939898,1.6377773478526456,-0.25799739921976594,-0.004161248374512427,1.6173233032226575,0.0,0.0,0.0,-0.07801582668646445,-0.0012583197852655778,0.4890623506352472,-0.3709174098289253,-0.005982538868208577,2.4626169663046507
21/04/2022,17:15:03,35.094191,0.0,0.0,1.7745132446289062,1.7916946411132812,0.0,0.0,-0.03980409353971481,0,0,1.0680402517318726,47.641468,-122.140165,123.77439880371094,0.0,0.0,0.0,0.0,2.0,0.0,-0.4501341794533037,1.9927397712991402,2.950949763794556,1.6458393499606963,-0.25799739921976594,-0.004161248374512427,1.625486755371095,0.0,2.0,0.0,-0.07768231823438657,-0.0012529406166836765,0.4894296601376121,-0.37245186121891716,-0.006007288084176189,2.461520103656944
21/04/2022,17:15:03,35.283192,-7.316109258681536e-05,0.006596963852643967,1.7787017822265625,1.7916946411132812,-2.7474911235003674e-11,0.13667184114456177,0.1606285572052002,0,0.13667184114456177,1.0680402517318726,47.641468062978014,-122.140165,123.7791748046875,6.191113869122505e-10,-8.091527125899836,-2.490985406044507e-08,-1.3042769086381353e-09,3.0,0.0,-0.5422981604875394,2.991253255497044,2.7899148006080754,1.6417079638349914,-0.258030632124567,-0.004161784389105971,1.6212982177734387,-1.3042769086381353e-09,3.0,0.0,-0.07786311858403833,-0.0012558567513554727,0.4892416623218591,-0.4644350405992242,-0.007490887751600632,2.3006731382862164
21/04/2022,17:15:03,35.436193,-0.0005641940515488386,0.05087357200682163,1.8283004760742188,1.8283004760742188,-2.256764913832754e-10,0.49264293909072876,0.5123187303543091,0,0.49264293909072876,1.0680402517318726,47.64146847091782,-122.140165,123.829833984375,-5.307789562112378e-10,-13.717304804458223,-3.8937226855570575e-08,-2.0387484306769957e-09,3.0,0.0,-0.07997514953500008,2.9987100782661895,0.486718722670592,1.5927811234251155,-0.25825367998186455,-0.004165381935191337,1.5716995239257825,-2.0387484306769957e-09,3.0,0.0,-0.07997514749625165,-0.0012899217338105022,0.486718722670592,-0.0,-0.0,0.0
21/04/2022,17:15:04,35.587193,-0.0017636398551985621,0.15902801509946585,1.916595458984375,1.916595458984375,-5.807624381404253e-10,0.9047473073005676,0.5714743733406067,0,0.9047473073005676,1.0680402517318726,47.641469455191704,-122.140165,123.91830444335938,-7.723051224818245e-09,-14.850132768901581,-2.8387418992388078e-08,-1.4863617826810292e-09,3.0,0.0,-0.08385873973009121,2.998647439705746,0.48066903019011703,1.5058164328379517,-0.2587985189422064,-0.004174169660358218,1.4834045410156262,-1.4863617826810292e-09,3.0,0.0,-0.08385873824372943,-0.0013525602942537167,0.48066903019011703,-0.0,-0.0,0.0
21/04/2022,17:15:04,35.739192,-0.0035510023590177298,0.3201950993388891,1.9953765869140625,1.9953765869140625,-9.915317455977402e-10,1.2536622285842896,0.4637506902217865,0,1.2536622285842896,1.0680402517318726,47.64147091476413,-122.140165,123.99677276611328,-7.401089157686307e-09,-13.668394575442395,-4.6589540266719486e-08,-1.6262817492894643e-09,2.0,0.0,-0.08747941841744293,1.9985890416646586,0.473307811268116,1.4284194177491365,-0.25961041432794457,-0.0041872647472249724,1.4046234130859387,-1.6262817492894643e-09,2.0,0.0,-0.08747941679116118,-0.0014109583353413295,0.473307811268116,-0.0,-0.0,0.0
21/04/2022,17:15:04,35.925188,-0.006476338137872517,0.5839736210182309,2.0436325073242188,2.0436325073242188,-1.4364535116939692e-09,1.52479088306427,0.08148247748613358,0,1.52479088306427,1.0680402517318726,47.64147325450351,-122.140165,124.04363250732422,-5.1865776631664395e-09,-7.206405357389384,-7.637729003190261e-08,-2.666070369614691e-09,2.0,0.0,-0.6620059645531432,1.9893224844856907,2.669037484569485,1.381245730325108,-0.2609392251498435,-0.004208697179836296,1.3563674926757825,-2.666070369614691e-09,2.0,0.0,-0.08998262084836746,-0.0014513325943285454,0.46773152543244206,-0.5720233410387053,-0.00922618291998057,2.2013059591370427
21/04/2022,17:15:04,36.112189,-0.00973678135778755,0.8779688738286495,2.0508270263671875,2.0508270263671875,-1.8270688295629611e-09,1.6834481954574585,0.0125272860750556,0,1.6834481954574585,1.0680402517318726,47.64147589982692,-122.140165,124.05082702636719,-7.011020455227896e-09,-3.8757152351479425,-7.198619789419269e-08,-2.512792338491742e-09,2.0,0.0,-0.6420671652888706,1.9896440780197395,2.771578234702083,1.3744635382884987,-0.2624202555625594,-0.004232584767138503,1.3491729736328137,-2.512792338491742e-09,2.0,0.0,-0.0907895103427761,-0.0014643469410126732,0.46677324271803133,-0.5512776524333022,-0.00889157503924782,2.3048049919840516
21/04/2022,17:15:04,36.301192,-0.013303827261552215,1.1996104214340448,2.0513687133789062,2.0513687133789062,-2.208219829213931e-09,1.7756074666976929,-0.003734530881047249,0,1.7756074666976929,1.0680402517318726,47.64147884174454,-122.14016500000002,124.05135345458984,-1.1323477111926766e-08,-2.3325531563355573,-4.0107717756845806e-08,-1.4000234606351076e-09,2.0,0.0,-0.642030822787477,1.9896446641711694,2.790810560123365,1.3742422998308519,-0.26404055504174356,-0.004258718629705838,1.348631286621095,-1.4000234606351076e-09,2.0,0.0,-0.09135979989754425,-0.001473545159637913,0.46663545477622503,-0.5506710214899093,-0.008881790669192813,2.32417510534714
21/04/2022,17:15:04,36.490194,-0.017021610401570797,1.5348441367968917,2.050201416015625,2.0513687133789062,-2.6635700312027666e-09,1.832601547241211,-0.007953662425279617,0,1.832601547241211,1.0680402517318726,47.64148185966733,-122.14016500000002,124.05017852783203,-1.6961899467742166e-08,-1.5595391980729334,2.949419526087372e-08,1.0295416350567085e-09,2.0,0.0,-0.645840184520223,1.9895832228137134,2.795766201283236,1.3757131468818387,-0.2657293279838151,-0.004285956902964738,1.3497985839843762,1.0295416350567085e-09,2.0,0.0,-0.09187912031799753,-0.0014819212954515655,0.46670914138057373,-0.553961065231767,-0.008934855890834986,2.329057059902662
21/04/2022,17:15:05,36.689192,-0.02096047962550074,1.89001324493438,2.0485763549804688,2.0513687133789062,-3.274967186328581e-09,1.8718098402023315,-0.008718788623809814,0,1.8718098402023315,1.0680402517318726,47.64148500604423,-122.14016500000002,124.04857635498047,-2.3753261117726156e-08,-1.113994984360334,1.386077286305702e-07,4.838322466628522e-09,2.0,0.0,-0.6505454506850018,1.9895073313625269,2.7969532636079926,1.3776540379935376,-0.26751852730962467,-0.004314814956606572,1.3514236450195325,4.838322466628522e-09,2.0,0.0,-0.09241137245661772,-0.001490506007364706,0.4668346340813862,-0.5581340830667065,-0.00900216263010846,2.3301186295266065
21/04/2022,17:15:05,36.849192,-0.02421358833089471,2.183347102254629,2.0472259521484375,2.0513687133789062,-3.909072177066264e-09,1.894791841506958,-0.008477027527987957,0,1.894791841506958,1.0680402517318726,47.64148769647472,-122.14016500000002,124.04720306396484,-2.9599613662207764e-08,-0.8818710672549095,2.4587635416971786e-07,8.58270386612253e-09,2.0,0.0,-0.6543853190361487,1.9894453979416322,2.796974645959484,1.3792662606299497,-0.2689962254345456,-0.004338648797331146,1.3527740478515637,8.58270386612253e-09,2.0,0.0,-0.09284965138036984,-0.0014975750222639486,0.4669381458290856,-0.5615356762384828,-0.00905702703610396,2.3300365001303986
21/04/2022,17:15:05,37.004193,-0.027565216179937124,2.4855642579495907,2.0459136962890625,2.0513687133789062,-4.69956740190014e-09,1.91270911693573,-0.007967019453644753,0,1.91270911693573,1.0680402517318726,47.641490416262805,-122.14016500000005,124.04589080810547,-3.523688653956849e-08,-0.7127399269218933,3.332725210240407e-07,1.1633405596583068e-08,2.0,0.0,-0.6581963772370276,1.9893839292117652,2.796677390056098,1.3808508635012313,-0.2705186717808053,-0.004363204383561303,1.3540863037109387,1.1633405596583068e-08,2.0,0.0,-0.09330379493063665,-0.0015048999182360498,0.4670339018306306,-0.5648925939397966,-0.009111170869998625,2.3296434882254675
21/04/2022,17:15:05,37.169195,-0.030880784383043647,2.7845300808548927,2.0447158813476562,2.0513687133789062,-5.6193325548292705e-09,1.9263412952423096,-0.007394340820610523,0,1.9263412952423096,1.0680402517318726,47.64149310667864,-122.14016500000005,124.04469299316406,-3.981210241277408e-08,-0.5893593760003749,3.4355177539527063e-07,1.1992219263439032e-08,2.0,0.0,-0.6618151664484097,1.989325561638053,2.7962631412020698,1.3823211465524166,-0.2720247411819463,-0.004387495825515675,1.355284118652345,1.1992219263439032e-08,2.0,0.0,-0.09375665092131681,-0.0015122040471181551,0.467115231723362,-0.5680585275193121,-0.009162234314828953,2.3291479094787078
21/04/2022,17:15:05,37.355194,-0.034860998624935746,3.1434270506724715,2.04339599609375,2.0513687133789062,-6.894819382097239e-09,1.9388014078140259,-0.006723892409354448,0,1.9388014078140259,1.0680402517318726,47.641496336313,-122.14016500000008,124.04338073730469,-4.5155999418281413e-08,-0.47949190973211564,3.455569487866334e-07,1.2062213018944354e-08,2.0,0.0,-0.6659778137990344,1.9892584221635268,2.7957312856761045,1.383971924351543,-0.27383271740635634,-0.004416656732360913,1.3566040039062512,1.2062213018944354e-08,2.0,0.0,-0.09430450226685566,-0.0015210403591429458,0.46719715077637713,-0.5716733235943918,-0.009220537477330154,2.3285341348997273
21/04/2022,17:15:06,37.509189,-0.0381521227536723,3.4401886966079473,2.0424118041992188,2.0513687133789062,-8.08358002757359e-09,1.9466997385025024,-0.006217570509761572,0,1.9466997385025024,1.0680402517318726,47.64149895428098,-122.14016500000008,124.04241180419922,-4.915349048213655e-08,-0.41086932968742235,2.98915718765586e-07,1.0434126956849751e-08,2.0,0.0,-0.6692981926812553,1.9892048676916827,2.7952894016313743,1.385233107666163,-0.2753276825291486,-0.004440769073052131,1.3575881958007825,1.0434126956849751e-08,2.0,0.0,-0.09476150097226577,-0.0015284113060047505,0.46725085525206017,-0.5745367021431165,-0.00926672100231241,2.328038546379314
21/04/2022,17:15:06,37.662189,-0.041520109050907195,3.743880854919553,2.041473388671875,2.0513687133789062,-9.417309598802603e-09,1.953073263168335,-0.00575453694909811,0,1.953073263168335,1.0680402517318726,47.641501686855605,-122.14016500000011,124.04147338867188,-5.309145718412196e-08,-0.35589454062996473,2.318662853309115e-07,8.093660206786071e-09,2.0,0.0,-0.6725954006835454,1.989151686955204,2.7948651744915707,1.3864575730178967,-0.2768575588591222,-0.004465444497728122,1.3585266113281262,8.093660206786071e-09,2.0,0.0,-0.09523156248256649,-0.0015359929432673196,0.46729665754495614,-0.5773638462946391,-0.009312320101528843,2.3275685169466147
21/04/2022,17:15:06,37.812192,-0.04470285132993013,4.0308694979175925,2.0406570434570312,2.0513687133789062,-1.0781222137268287e-08,1.9578531980514526,-0.005369559861719608,0,1.9578531980514526,1.0680402517318726,47.64150432189947,-122.14016500000012,124.04064178466797,-5.677100495052287e-08,-0.31483746501114757,1.633810597650697e-07,5.703074856596199e-09,2.0,0.0,-0.6756372122981509,1.989102625516109,2.794484415265669,1.3875468076695119,-0.27830328956011424,-0.00448876273484089,1.35934295654297,5.703074856596199e-09,2.0,0.0,-0.09567833526065607,-0.0015431989558171496,0.4673307000283821,-0.5799588827405697,-0.009354175528073671,2.327153715237287
21/04/2022,17:15:06,37.965191,-0.04802293225657195,4.330241986550391,2.0398635864257812,2.0513687133789062,-1.230800705798174e-08,1.9618252515792847,-0.005019132047891617,0,1.9618252515792847,1.0680402517318726,47.6415070157106,-122.14016500000015,124.03984832763672,-6.080119855169537e-08,-0.2807916584445999,1.3062138194979058e-07,4.559546377057872e-09,2.0,0.0,-0.6787450061218411,1.9890524998277166,2.7941124951717162,1.3886273271685965,-0.27981140483013306,-0.00451308717468013,1.36013641357422,4.559546377057872e-09,2.0,0.0,-0.09614641746365893,-0.0015507486687688866,0.4673585178074481,-0.5825985932177286,-0.009396751503514553,2.3267539773642683
21/04/2022,17:15:06,38.151199,-0.052067113923840225,4.694906837306917,2.0389633178710938,2.0513687133789062,-1.4314075258425873e-08,1.9655741453170776,-0.004656111355870962,0,1.9655741453170776,1.0680402517318726,47.64151029700896,-122.14016500000018,124.03894805908203,-6.592256959302093e-08,-0.24869931666602796,1.3388524538899607e-07,4.6734767037570755e-09,2.0,0.0,-0.6824559939515323,1.9889926451834676,2.793693693440752,1.389880328699867,-0.2816484364082671,-0.004542716716262163,1.3610366821289075,4.6734767037570755e-09,2.0,0.0,-0.0967188093826179,-0.0015599807964937651,0.4673835548327319,-0.5857371892423912,-0.009447374020038752,2.32631013860802
21/04/2022,17:15:06,38.337193,-0.05605268618091941,5.0542866652831435,2.0381317138671875,2.0513687133789062,-1.6448684192482688e-08,1.9683717489242554,-0.004358350299298763,0,1.9683717489242554,1.0680402517318726,47.64151353072746,-122.14016500000022,124.03812408447266,-7.090657204492013e-08,-0.2247680396864474,1.232648131215616e-07,4.302753681653519e-09,2.0,0.0,-0.6860470236183773,1.988934725356108,2.793316353300096,1.391062560173737,-0.2834588420203123,-0.0045719168067783755,1.3618682861328137,4.302753681653519e-09,2.0,0.0,-0.09728463067134724,-0.0015691069463117588,0.4674006719817103,-0.5887623972497837,-0.009496167697580245,2.325915681318386
21/04/2022,17:15:07,38.526195,-0.06004323437809944,5.4141153274104,2.0373611450195312,2.0513687133789062,-1.8738550267016763e-08,1.9704991579055786,-0.004110894165933132,0,1.9704991579055786,1.0680402517318726,47.64151676846821,-122.14016500000025,124.03734588623047,-7.562711855086697e-08,-0.2065771054826286,4.49760021070022e-08,1.5699586423021906e-09,2.0,0.0,-0.6895953505501982,1.9888774943206406,2.7929565235786984,1.3921873632311337,-0.28527151036411713,-0.004601153392970403,1.36263885498047,1.5699586423021906e-09,2.0,0.0,-0.09785323750656592,-0.0015782780242997153,0.4674095332614433,-0.5917421146135908,-0.009544227655059747,2.325546990317255
21/04/2022,17:15:07,38.713191,-0.06410307809710503,5.780192199163139,2.0366134643554688,2.0513687133789062,-2.1220463608528917e-08,1.9721400737762451,-0.0039031768683344126,0,1.9721400737762451,1.0680402517318726,47.64152006241633,-122.14016500000031,124.03660583496094,-8.047254286994405e-08,-0.19254810706419176,-2.076256889784841e-08,-7.247503768792499e-10,2.0,0.0,-0.6931610540376697,1.9888199830110787,2.7926174798860215,1.3932981334739365,-0.287115652572911,-0.004630897622144303,1.3633865356445325,-7.247503768792499e-10,2.0,0.0,-0.09843261843557546,-0.0015876228779933507,0.46741341142736825,-0.5947284348773438,-0.009592394110927868,2.3252040684586532
21/04/2022,17:15:07,38.872191,-0.06751042685937136,6.087433406151831,2.0360183715820312,2.0513687133789062,-2.342287253043196e-08,1.9732043743133545,-0.0037576768081635237,0,1.9732043743133545,1.0680402517318726,47.6415227737756,-122.14016500000035,124.03601837158203,-8.456938211253479e-08,-0.18344794590009164,-6.67855441934343e-08,-2.331255277823218e-09,2.0,0.0,-0.6961285912573241,1.9887721195334511,2.7923437868933916,1.3942001724318598,-0.28866340450818984,-0.0046558613630356405,1.36398162841797,-2.331255277823218e-09,2.0,0.0,-0.09891980263699438,-0.0015954806876935673,0.4674121879545828,-0.5972087862890744,-0.009632399778855112,2.3249315989388086
21/04/2022,17:15:07,39.031193,-0.07085384929087013,6.388910349458456,2.0354537963867188,2.0513687133789062,-2.5689434579589943e-08,1.9740327596664429,-0.003636525943875313,0,1.9740327596664429,1.0680402517318726,47.641525539622585,-122.14016500000041,124.03543853759766,-8.856764674438371e-08,-0.1763691463281257,-1.182212580230472e-07,-4.126700396703872e-09,2.0,0.0,-0.6990205105506919,1.9887254757028379,2.792086308808659,1.3950677077960134,-0.2901821183335031,-0.004680356747314818,1.3645462036132825,-4.126700396703872e-09,2.0,0.0,-0.09939823999696364,-0.0016031974193059515,0.46740816357890325,-0.5996222664270279,-0.009671326877856198,2.324678145229756
21/04/2022,17:15:07,39.193191,-0.0742641327669844,6.6964161498472095,2.0348892211914062,2.0513687133789062,-2.8108384952929555e-08,1.974703311920166,-0.0035317130386829376,0,1.974703311920166,1.0680402517318726,47.64152835974235,-122.14016500000047,124.03487396240234,-9.265892327838952e-08,-0.17063488323817996,-1.6572021477223394e-07,-5.784726769775254e-09,2.0,0.0,-0.7019513208213062,1.98867820459618,2.791836653477474,1.3959429334235818,-0.29173120284375526,-0.0047053419813511965,1.365110778808595,-5.784726769775254e-09,2.0,0.0,-0.09988625748881771,-0.0016110686691745838,0.46740220251950537,-0.6020650575477617,-0.009710726734645424,2.3244344509579684
21/04/2022,17:15:07,39.370192,-0.07826595369260758,7.057260844856501,2.0342559814453125,2.0513687133789062,-3.108654667016708e-08,1.9753142595291138,-0.003429130185395479,0,1.9753142595291138,1.0680402517318726,47.64153150013147,-122.14016500000054,124.03425598144531,-9.755471450525743e-08,-0.16541259631286398,-1.8910134284242063e-07,-6.600882105085705e-09,2.0,0.0,-0.7053756753595771,1.9886229730845342,2.791545206754763,1.3969431440414384,-0.29354898475597385,-0.004734661044452082,1.3657440185546887,-6.600882105085705e-09,2.0,0.0,-0.10045965573470401,-0.001620317027979402,0.467391069465939,-0.604916013023991,-0.009756709887486377,2.324154137288824
21/04/2022,17:15:08,39.525196,-0.08148133102804422,7.347191887907684,2.03375244140625,2.0513687133789062,-3.359068756481065e-08,1.9756972789764404,-0.0033601538743823767,0,1.9756972789764404,1.0680402517318726,47.641534162135834,-122.14016500000061,124.03374481201172,-1.0154784169905289e-07,-0.16213819089728707,-1.8718673346307347e-07,-6.534049629967359e-09,2.0,0.0,-0.7081125200813227,1.9885788304266567,2.791321390749876,1.397743058475359,-0.2950095346107866,-0.0047582183001741996,1.3662475585937512,-6.534049629967359e-09,2.0,0.0,-0.10092010916709668,-0.001627743696243571,0.46738100497148893,-0.6071924043801764,-0.009793425877099655,2.323940385778387
21/04/2022,17:15:08,39.707194,-0.08555056096520275,7.71411466691643,2.0331344604492188,2.0513687133789062,-3.6902530808902156e-08,1.9760750532150269,-0.003287217114120722,0,1.9760750532150269,1.0680402517318726,47.64153746365623,-122.14016500000069,124.03312683105469,-1.0656291082015603e-07,-0.1589071379583889,-1.9815375630845973e-07,-6.916870945554214e-09,2.0,0.0,-0.7115649736262931,1.988523145698235,2.7910389653419516,1.3987383461297573,-0.2968579331595784,-0.004788031179995045,1.3668655395507825,-6.916870945554214e-09,2.0,0.0,-0.10150311604004497,-0.0016371470329045819,0.46736534878985475,-0.6100618506693772,-0.00983970726886036,2.323673616552097
21/04/2022,17:15:08,39.890196,-0.08948918443638831,8.069260612130165,2.0325546264648438,2.0513687133789062,-4.025802979867876e-08,1.9763530492782593,-0.003229008289054036,0,1.9763530492782593,1.0680402517318726,47.64154065921051,-122.14016500000079,124.03253936767578,-1.1133460052989603e-07,-0.15652802023671017,-2.381128416275335e-07,-8.311706155360546e-09,2.0,0.0,-0.7148970294129515,1.9884694028854628,2.790764426046568,1.3996857095100261,-0.29864700467583705,-0.004816887172191642,1.3674453735351575,-8.311706155360546e-09,2.0,0.0,-0.10206761680046746,-0.001646251883878754,0.4673473639323965,-0.6128294043007779,-0.009884345230658526,2.3234170621141716
21/04/2022,17:15:08,40.077192,-0.09342831198591739,8.424452166073024,2.0319747924804688,2.0513687133789062,-4.376111206738642e-08,1.9765654802322388,-0.003181345062330365,0,1.9765654802322388,1.0680402517318726,47.64154385517515,-122.14016500000089,124.03196716308594,-1.1618250127229771e-07,-0.1547128390313267,-2.500861315236095e-07,-8.729652817325137e-09,2.0,0.0,-0.7182159503378818,1.9884158719095397,2.790499136613153,1.4006350076458773,-0.3004363076781953,-0.004845746898036296,1.3680252075195325,-8.729652817325137e-09,2.0,0.0,-0.10263152868517363,-0.0016553472368579425,0.46732873071376607,-0.6155844129230553,-0.009928780853602465,2.3231704058993867
21/04/2022,17:15:08,40.26119,-0.09743336506653577,8.785587879829109,2.0313949584960938,2.0513687133789062,-4.74755985635511e-08,1.9767301082611084,-0.003141613444313407,0,1.9767301082611084,1.0680402517318726,47.6415471046179,-122.14016500000099,124.03138732910156,-1.211080742417242e-07,-0.1533071902828991,-2.635050997174984e-07,-9.198063171732654e-09,2.0,0.0,-0.721581793968399,1.988361584116604,2.7902296062259295,1.4015926455933427,-0.3022555509060185,-0.004875089530743892,1.3686050415039075,-9.198063171732654e-09,2.0,0.0,-0.10320467063901786,-0.0016645914619202093,0.4673079853121654,-0.618377114131318,-0.00997382442147569,2.322921620913764
21/04/2022,17:15:08,40.441191,-0.10143889207392931,9.146766304038465,2.03082275390625,2.0513687133789062,-5.134450020705117e-08,1.9768551588058472,-0.003108956851065159,0,1.9768551588058472,1.0680402517318726,47.64155030117529,-122.14016500000112,124.03082275390625,-1.260366438643246e-07,-0.15223747575898314,-2.758474651168678e-07,-9.628892999139097e-09,2.0,0.0,-0.7249402581810982,1.9883074153459301,2.7899595846258958,1.4025448284550364,-0.30407500902944096,-0.004904435629509152,1.3691772460937512,-9.628892999139097e-09,2.0,0.0,-0.10377757618065808,-0.0016738318738822781,0.46728567538268356,-0.6211626723715471,-0.010018752780187707,2.3226739092432123
21/04/2022,17:15:09,40.623194,-0.1053789232391864,9.502038937993348,2.0302658081054688,2.0513687133789062,-5.53000489844635e-08,1.9769492149353027,-0.003082718001678586,0,1.9769492149353027,1.0680402517318726,47.64155355114566,-122.14016500000125,124.03025817871094,-1.308670445861667e-07,-0.15143496213774651,-2.944115974908261e-07,-1.0276903464542383e-08,2.0,0.0,-0.728236749199556,1.9882542461464103,2.7896933707724347,1.4034775803120503,-0.3058647160530962,-0.004933301871826501,1.3697341918945325,-1.0276903464542383e-08,2.0,0.0,-0.1043407418442161,-0.0016829151910365517,0.4672624013514966,-0.6238959970784365,-0.01006283866255317,2.322430969420938
21/04/2022,17:15:09,40.811207,-0.10945029195863754,9.869154282845557,2.029693603515625,2.0513687133789062,-5.954267479069131e-08,1.9770228862762451,-0.00306059536524117,0,1.9770228862762451,1.0680402517318726,47.64155680110951,-122.14016500000137,124.02969360351562,-1.3577172429092462e-07,-0.15080499558319357,-3.465431855631614e-07,-6.048319588426846e-09,1.0,0.0,-0.7316357763137863,0.9881994230602296,2.7894182411351007,1.4044401763133236,-0.3077140814687703,-0.004963130346272493,1.3703063964843762,-6.048319588426846e-09,1.0,0.0,-0.10492215380566489,-0.001692292803317859,0.46723730615952275,-0.6267136164598018,-0.01010828413645263,2.322180934975578
21/04/2022,17:15:09,40.99219,-0.11336170404683799,10.221846119500697,2.031280517578125,2.0513687133789062,-6.349795711457773e-08,1.920643925666809,0.04000603035092354,0,1.9770228862762451,1.0680402517318726,47.6415600263666,-122.14016500000153,124.03140258789062,-1.4071631959334255e-07,3.820949102003201,-4.3973685294765576e-07,-7.674855926294725e-09,1.0,0.0,-0.7583491449487086,0.9877685623020312,2.7317659563148964,1.403282753266196,-0.30949078518933626,-0.0049917868578930324,1.3687194824218762,-7.674855926294725e-09,1.0,0.0,-0.10558778556142394,-0.0017030287993779804,0.46696078241971445,-0.6527613517124288,-0.010528408898590743,2.2648051738951818
21/04/2022,17:15:09,41.183191,-0.11711033969186246,10.559860352426767,2.042083740234375,2.0513687133789062,-6.677989006220741e-08,1.7690714597702026,0.06757518649101257,0,1.9770228862762451,1.0680402517318726,47.64156306368173,-122.14016500000169,124.04228973388672,-1.488720036585599e-07,5.034636629257715,-5.680003564612936e-07,-1.9826952745502043e-08,2.0,0.0,-0.7731155226527924,1.9875303951157117,2.6784348678144774,1.3931271249893509,-0.3111935490441977,-0.005019250791036711,1.3579162597656262,-1.9826952745502043e-08,2.0,0.0,-0.10669618397490874,-0.0017209061931441228,0.46557675607181626,-0.6664193188509309,-0.010748698691144167,2.212858111742661
21/04/2022,17:15:09,41.363189,-0.12062824796885252,10.877069663256407,2.0461196899414062,2.0513687133789062,-7.038128302383484e-08,1.670667052268982,-0.010623786598443985,0,1.9770228862762451,1.0680402517318726,47.64156587017468,-122.14016500000186,124.0461196899414,-1.5563257851250674e-07,0.6296309861430986,-6.833318303370893e-07,-2.3852780646122964e-08,1.9999999999999998,0.0,-0.7268084618525766,1.988277283258063,2.787863209255587,1.3895523996523207,-0.3127915042729852,-0.005045024262468445,1.353880310058595,-2.3852780646122964e-08,1.9999999999999998,0.0,-0.10743052153797843,-0.0017327503473870721,0.46500005857785914,-0.6193779164618176,-0.009989966394549563,2.3228631506777275
21/04/2022,17:15:10,41.539192,-0.12407210213132203,11.18760148063302,2.0452957153320312,2.0513687133789062,-7.566811888182201e-08,1.6847567558288574,0.001847671577706933,0,1.9770228862762451,1.0680402517318726,47.64156866429146,-122.14016500000204,124.04529571533203,-1.6304275130697235e-07,-1.355398595113414,-7.519181383704925e-07,-2.624689444006281e-08,1.9999999999999998,0.0,-0.7377069680612705,1.9881015009384742,2.772837390495475,1.3907080888863128,-0.31435582085993374,-0.005070255175160909,1.35470428466797,-2.624689444006281e-08,1.9999999999999998,0.0,-0.10790722429032988,-0.0017404391014571696,0.46502202088337163,-0.6297997175240462,-0.010158059960068454,2.3078153696121033
21/04/2022,17:15:10,41.689192,-0.12672777811530977,11.42706327792257,2.0458450317382812,2.0513687133789062,-8.015888397494564e-08,1.7202773094177246,0.00513141043484211,0,1.9770228862762451,1.0680402517318726,47.64157086527682,-122.14016500000218,124.04586029052734,-1.6798848445636837e-07,-1.7229879758582594,-8.229167399466101e-07,-2.8725213163692584e-08,1.9999999999999998,0.0,-0.7440842373501546,1.9879986417963702,2.7675485552657224,1.3904463433091325,-0.3155621181159814,-0.00508971158251903,1.35415496826172,-2.8725213163692584e-08,1.9999999999999998,0.0,-0.10833507581656598,-0.0017473399325263564,0.46489256071000906,-0.6357491328083754,-0.010254018271103388,2.3026559945557135
21/04/2022,17:15:10,41.869194,-0.1301457085646689,11.735257535241544,2.046722412109375,2.0513687133789062,-8.607729995446789e-08,1.76914381980896,0.004343844018876553,0,1.9770228862762451,1.0680402517318726,47.641573639682925,-122.1401650000024,124.04673767089844,-1.7444432619826383e-07,-1.679536414819753,-9.035978505266012e-07,-1.5770757605632767e-08,0.9999999999999999,0.0,-0.7495333157831798,0.9879107532256036,2.7668641986954716,1.3899453577276972,-0.31711465889789037,-0.00511475256286964,1.3532775878906262,-1.5770757605632767e-08,0.9999999999999999,0.0,-0.10889456472904091,-0.0017563639472427466,0.46470438926750135,-0.6406387352833813,-0.010332882827153533,2.3021598094279705
21/04/2022,17:15:10,42.042191,-0.13362897059414536,12.049342382699251,2.0466156005859375,2.0513687133789062,-9.132189404681412e-08,1.759878158569336,0.013266983442008495,0,1.9770228862762451,1.0680402517318726,47.64157641810151,-122.1401650000026,124.04661560058594,-1.812959422309403e-07,2.4738320874733075,-9.762989369526072e-07,-3.407926186708706e-08,1.9999999999999998,0.0,-0.7574843024843233,1.987782511799917,2.754923508169653,1.3904112520611653,-0.3186968698994691,-0.0051402720951561065,1.3533843994140637,-3.407926186708706e-08,1.9999999999999998,0.0,-0.10941312665399727,-0.0017647278492591806,0.46463593681150755,-0.6480711417510642,-0.010452760350823565,2.2902875713581454
21/04/2022,17:15:10,42.216191,-0.13701265398412943,12.35444837063551,2.047210693359375,2.0513687133789062,-9.597099648317453e-08,1.7080284357070923,-0.006323226261883974,0,1.9770228862762451,1.0680402517318726,47.64157916339752,-122.1401650000028,124.04721069335938,-1.8980582455630066e-07,0.007844303032308306,-1.054165253177311e-06,0.9999999448040362,3.0000000183986537,0.0,0.2538360517832582,2.9879651168983115,2.779073325756929,1.390185349278667,-0.3202338509920437,-0.005165062112777008,1.3527893066406262,0.9999999448040362,3.0000000183986537,0.0,-0.10995285585506334,-0.0017734331589533588,0.46448258725472286,-0.6362110371657147,-0.010261468341388864,2.314590738502206
21/04/2022,17:15:10,42.407191,-0.13707700977101922,12.671257956884801,2.0548095703125,2.0548095703125,0.06808683276176453,1.798737645149231,0.13311044871807098,0.06808683276176453,1.9770228862762451,1.0680402517318726,47.64158206209298,-122.14016495140987,124.05520629882812,4.118758713821839,-5.415456501767425,-0.16229201174134683,0.9943309360559064,2.0028245029463227,0.0,-0.0899922501435384,1.9853354192979362,2.4829690214533904,1.38396914853596,-0.3252780150239427,-0.005246419597160212,1.3451904296875012,0.9943309360559064,2.0028245029463227,0.0,-0.11202175832654615,-0.0018068025536539171,0.4632670831028779,-0.9723014278728986,-0.015682281094732558,2.0197019383505124
21/04/2022,17:15:11,42.578191,-0.11746544169727713,12.996320872567594,2.0752944946289062,2.0752944946289062,0.20686328411102295,1.9266139268875122,0.08305897563695908,0.20686328411102295,1.9770228862762451,1.0680402517318726,47.64158498810721,-122.14016463680225,124.07554626464844,5.137237175495898,-2.8153982445802135,0.0891669619530223,1.003111301915987,1.9984413216225323,0.0,-0.5135544819981996,1.9739789702690747,2.4166296761580677,1.3702061272404127,-0.3501260692366339,-0.0056471946651068805,1.324705505371095,1.003111301915987,1.9984413216225323,0.0,-0.12138088169434087,-0.0019577561563602955,0.45924578703283525,-1.3952849022198457,-0.022504595197097334,1.9573838891252322
21/04/2022,17:15:11,42.758193,-0.0705371064832434,13.348295747302473,2.0880355834960938,2.0880355834960938,0.36062145233154297,1.976935625076294,0.05924750864505768,0.36062145233154297,1.9770228862762451,1.0680402517318726,47.641588098148624,-122.14016396834285,124.0880355834961,4.810980024336059,-1.0448111836451073,0.2565092351396268,1.0089438100821349,1.995503041364995,0.0,-0.8826036581875496,1.9649942112316081,2.2151969027820853,1.3723973173811468,-0.40271773706402225,-0.006495447372001806,1.3119644165039075,1.0089438100821349,1.995503041364995,0.0,-0.1394665730063182,-0.0022494608549411175,0.45435093673796967,-1.7520808952633662,-0.02825936927844592,1.7608459660441156
21/04/2022,17:15:11,42.9392,0.001302091171965003,13.700051664374769,2.0968170166015625,2.0968170166015625,0.4947841763496399,1.991736888885498,0.039811719208955765,0.4947841763496399,1.991736888885498,1.0680402517318726,47.641591309309895,-122.14016294032606,124.09693908691406,4.08659240108001,-0.3757787168444931,0.315036233123593,1.016480059206994,2.994456259362382,0.0,-1.1026408393495422,2.9602768900308245,2.0066566319167336,1.3888656414879166,-0.4802102579080023,-0.007745326740453251,1.3031829833984387,1.016480059206994,2.994456259362382,0.0,-0.1649866914613203,-0.0026610756687315226,0.4477368928691063,-1.954134207095216,-0.03151829366282594,1.5589197390476273
21/04/2022,17:15:11,43.126192,0.09865891980007291,14.068304172717035,2.1057586669921875,2.1057586669921875,0.6129502058029175,2.0543177127838135,0.07567760348320007,0.6129502058029175,2.0543177127838135,1.0680402517318726,47.64159455899364,-122.14016160967702,124.10575866699219,3.298808178792054,-4.18429004843991,0.07214093887064978,1.002517400489778,1.9987393180990904,0.0,-1.3327648084064154,1.9610734760201227,1.74086553759464,1.4197175231891144,-0.5834797780025842,-0.009410964161332913,1.2942413330078137,1.002517400489778,1.9987393180990904,0.0,-0.19746101044101533,-0.003184855007113458,0.43799667272979187,-2.1378211984551783,-0.03448098707185438,1.302868864864848
21/04/2022,17:15:11,43.306191,0.2108456304995343,14.441686443984509,2.1136703491210938,2.1136703491210938,0.6985399723052979,2.141491174697876,0.011151054874062538,0.6985399723052979,2.141491174697876,1.0680402517318726,47.641597964734366,-122.14016003318818,124.11370086669922,2.5720810194993056,-1.341472551995599,0.21281705507386695,0.0,0.0,0.0,-2.4485424907698934,-0.03949262081887043,1.7181152336573438,1.465297257064164,-0.7016580398354355,-0.011317065158637618,1.2863296508789075,0.0,0.0,0.0,-0.2321047160079459,-0.0037436244517415796,0.42551094886602175,-2.2164377747619475,-0.035748996367128846,1.292604284791322
21/04/2022,17:15:11,43.486193,0.33814023330342025,14.829460269771516,2.1225433349609375,2.1225433349609375,0.7075561285018921,2.0118329524993896,0.20813170075416565,0.7075561285018921,2.141491174697876,1.0680402517318726,47.64160143731945,-122.14015828095886,124.12315368652344,-1.9875392960035303,8.310885513311852,0.3125320328978758,0.0,0.0,0.0,-2.6592817070193107,-0.04289164043579773,1.2993162726826617,1.5262993809039076,-0.8351723260192929,-0.013470521387411338,1.2774566650390637,0.0,0.0,0.0,-0.2677775565538938,-0.004318992847644534,0.40958520021620587,-2.391504150465417,-0.0385726475881532,0.8897310724664559
21/04/2022,17:15:12,43.666192,0.451809533755295,15.157657257281244,2.1785659790039062,2.1785659790039062,0.6066693067550659,1.6713685989379883,0.37135064601898193,0.7075561285018921,2.141491174697876,1.0680402517318726,47.64160436950865,-122.14015672334072,124.17967987060547,-3.5502656286000573,11.039340436280648,0.23697867204835987,-0.9999914465239556,0.004136046291683096,0.0,-3.755599339354223,-0.040309242302354935,0.9156610459511858,1.549984735767491,-0.9541041866597636,-0.015388777204188742,1.221434020996095,-0.9999914465239556,0.004136046291683096,0.0,-0.30216873969676994,-0.004873689349947588,0.38683320323670567,-2.453439153133498,-0.03957159924409044,0.5288278427144801
21/04/2022,17:15:12,43.84319,0.542176985531114,15.419933422468603,2.2491302490234375,2.2491302490234375,0.43354228138923645,1.3282054662704468,0.44227099418640137,0.7075561285018921,2.141491174697876,1.0680402517318726,47.641606710859264,-122.14015548851599,124.25045776367188,-7.446295612927986,10.388756691193375,0.33911019630306477,-0.9999824852005742,0.005918554898230054,0.0,-3.807749593288537,-0.03936801136125181,0.6999786970546212,1.557084244387713,-1.048677296378324,-0.016914149941587908,1.1508697509765637,-0.9999824852005742,0.005918554898230054,0.0,-0.3308920679656843,-0.005336968838156842,0.36313713777818246,-2.4768750401222785,-0.03994959742132502,0.3368415592764388
21/04/2022,17:15:12,44.028192,0.5966391715919599,15.633176385425031,2.324493408203125,2.324493408203125,0.18776835501194,1.040390968322754,0.3735920786857605,0.7075561285018921,2.141491174697876,1.0680402517318726,47.641608616151714,-122.14015474185153,124.32561492919922,-8.206982367418712,8.737313432558777,0.5872408017059966,-0.9999474765332458,0.01024910604852384,0.0,-3.7504023627050556,-0.03411306953489909,0.8614768239182266,1.5432162759665267,-1.106563826136761,-0.017847803647367044,1.0755065917968762,-0.9999474765332458,0.01024910604852384,0.0,-0.3516910896669864,-0.005672436930112662,0.34182039596722047,-2.398763796504823,-0.038689738653310275,0.5196564279510061
21/04/2022,17:15:12,44.207193,0.6080169066553935,15.79983623791486,2.3815536499023438,2.3815536499023438,-0.04430176690220833,0.8139027953147888,0.257041335105896,0.7075561285018921,2.141491174697876,1.0680402517318726,47.64161010830145,-122.14015457507473,124.38232421875,-7.3143401996590764,6.987703967216542,0.8358097270312717,-0.999893602388117,0.014587114290163794,0.0,-3.362213245571308,-0.023514815438603724,1.282101200350611,1.514385094144624,-1.1206259651323938,-0.018074612340850393,1.0184463500976575,-0.999893602388117,0.014587114290163794,0.0,-0.36151949271165323,-0.005830959559867095,0.3285558422678892,-2.0008001504715374,-0.032270970168900424,0.9535453580827218
