date,fly_time,fly_time_s,x,y,z,z_max,vx,vy,vz,vx_max,vy_max,vz_max,latitude,longitude,altitude,pitch,roll,yaw,cx,cy,cz,scx,scy,scz,d,dx,dy,dz,gc_pow_x,gc_pow_y,gc_pow_z,gpc_pow_x,gpc_pow_y,gpc_pow_z,gfc_pow_x,gfc_pow_y,gfc_pow_z
14/04/2022,21:34:12,20.444226,3.5297125577926636e-06,-2.705492079257965e-06,1.6307296752929688,1.6307296752929688,0.0,0.0,-0.0031445003114640713,0,0,0,47.6414679999753,-122.14016499995341,123.63072204589844,0.0,0.0,0.1516503404538065,0.0,0.0,0.0,-0.4308750462393428,-0.006949597519989559,2.9635221277448633,1.7879874872856762,-0.25800088438870306,-0.00416130458691466,1.7692703247070325,0.0,0.0,0.0,-0.07201089103508676,-0.0011614659844369098,0.4938228520648799,-0.3588641552042561,-0.005788131535552649,2.4696992756799836
14/04/2022,21:34:12,20.622228,3.5297125577926636e-06,-2.705492079257965e-06,1.6301345825195312,1.6307296752929688,0.0,0.0,-0.0031212156172841787,0,0,0,47.6414679999753,-122.14016499995341,123.63013458251953,0.0,0.0,0.1516503404538065,0.0,0.0,0.0,-0.43074888529735006,-0.006947562666086449,2.9635832282013763,1.7885763525202205,-0.25800088438870306,-0.00416130458691466,1.76986541748047,0.0,0.0,0.0,-0.07198832466203388,-0.0011611020106779921,0.49383414550523536,-0.3587605606353162,-0.005786460655408457,2.469749082696141
14/04/2022,21:34:13,20.817226,3.5297125577926636e-06,-2.705492079257965e-06,1.629547119140625,1.6307296752929688,0.0,0.0,-0.0031022827606648207,0,0,0,47.6414679999753,-122.14016499995341,123.6295394897461,0.0,0.0,0.1516503404538065,0.0,0.0,0.0,-0.4306228549883662,-0.006945529919167356,2.9636440417635592,1.7891576722425786,-0.25800088438870306,-0.00416130458691466,1.7704528808593762,0.0,0.0,0.0,-0.07196605579491144,-0.0011607428354018239,0.49384524827530596,-0.3586567991934548,-0.005784787083765532,2.4697987934882533
14/04/2022,21:34:13,21.006256,3.5297125577926636e-06,-2.705492079257965e-06,1.6289520263671875,1.6307296752929688,0.0,0.0,-0.0030866034794598818,0,0,0,47.6414679999753,-122.14016499995341,123.62894439697266,0.0,0.0,0.1516503404538065,0.0,0.0,0.0,-0.4304939123634728,-0.00694345019941101,2.963706030806017,1.789746545662294,-0.25800088438870306,-0.00416130458691466,1.7710479736328137,0.0,0.0,0.0,-0.07194350603107927,-0.0011603791295335634,0.4938564488810804,-0.3585504063323935,-0.005783071069877447,2.4698495819249366
14/04/2022,21:34:13,21.167224,3.5297125577926636e-06,-2.705492079257965e-06,1.6284713745117188,1.6307296752929688,0.0,0.0,-0.0030760664958506823,0,0,0,47.6414679999753,-122.14016499995341,123.62847137451172,0.0,0.0,0.1516503404538065,0.0,0.0,0.0,-0.4303889977599896,-0.006941758028387088,2.9637562979174477,1.790222177196345,-0.25800088438870306,-0.00416130458691466,1.7715286254882825,0.0,0.0,0.0,-0.07192529887202191,-0.0011600854656777992,0.4938654615486507,-0.3584636988879677,-0.005781672562709289,2.469890836368797
14/04/2022,21:34:13,21.356226,3.5297125577926636e-06,-2.705492079257965e-06,1.6278915405273438,1.6307296752929688,0.0,0.0,-0.003065443132072687,0,0,0,47.6414679999753,-122.14016499995341,123.62788391113281,0.0,0.0,0.1516503404538065,0.0026467946623165,0.9999964972328731,0.0,-0.42761489292299787,0.9930567925944002,2.9638170908892394,1.7907959584876703,-0.25800088438870306,-0.00416130458691466,1.7721084594726575,0.0026467946623165,0.9999964972328731,0.0,-0.07190334195615058,-0.0011597313218734229,0.493876293667577,-0.3583583456291638,-0.005779973316599548,2.4699407972216623
14/04/2022,21:34:13,21.548231,-2.6093446649610996e-05,0.003509143367409706,1.6304779052734375,1.6307296752929688,0.00017862032109405845,0.06748522073030472,0.04887114837765694,0.00017862032109405845,0.06748522073030472,0.04887114837765694,47.64146803336246,-122.14016499982228,123.63062286376953,-4.59204486030676e-09,-4.191055075872692,0.15165062222344045,0.007940398740321358,2.9999894916595697,0.0,-0.44681529757237903,2.9926547223642035,2.9495571653846144,1.7882405205675098,-0.2580278969258409,-0.004161740272997483,1.7695220947265637,0.007940398740321358,2.9999894916595697,0.0,-0.07200873178469604,-0.0011614311578176917,0.4938266110926771,-0.3827469645280044,-0.006173338137548668,2.455730554291937
14/04/2022,21:34:14,21.706226,-0.0002449086168780923,0.029285951517522335,1.6597137451171875,1.6597137451171875,0.0008534925291314721,0.33883199095726013,0.4375571310520172,0.0008534925291314721,0.33883199095726013,0.4375571310520172,47.6414682725243,-122.14016499890293,123.66101837158203,0.049164103158928454,-12.326491608773182,-0.09674030023484204,-0.0067537438249124305,3.99999429836398,0.0,-0.07993581751674717,3.998813942336692,0.4932050062511583,1.7593446607495973,-0.25822478550606165,-0.004164915895259025,1.7402862548828137,-0.0067537438249124305,3.99999429836398,0.0,-0.07318207369183473,-0.0011803560272876474,0.4932050062511583,-0.0,-0.0,0.0
14/04/2022,21:34:14,21.891227,-0.0013918773038312793,0.15248795505613089,1.798370361328125,1.798370361328125,0.0009479433065280318,1.0259664058685303,0.9920551180839539,0.0009479433065280318,1.0259664058685303,0.9920551180839539,47.64146937203297,-122.14016499601658,123.79837036132812,0.36447120749719836,-18.926551256748787,-1.2263453806551028,-0.08560852177455458,3.999083792695469,0.0,-0.16458662744361474,3.997809952281452,0.4882705419400448,1.6224516917343277,-0.259064727401184,-0.004178463345180461,1.6016296386718762,-0.08560852177455458,3.999083792695469,0.0,-0.07897810566906016,-0.0012738404140171218,0.4882705419400448,-0.0,-0.0,-0.0
14/04/2022,21:34:14,22.04623,-0.003559674951247871,0.3428240558132529,1.9469985961914062,1.9469985961914062,-0.0032945333514362574,1.5182757377624512,0.9376470446586609,0.0009479433065280318,1.5182757377624512,0.9920551180839539,47.6414711254512,-122.14016499690327,123.94982147216797,0.4618326215347017,-18.925061140250587,-2.467240718666605,-0.17219266853260734,3.996291991947488,0.0,-0.2577196459334494,3.994912524570055,0.4780260341798985,1.4760803876078177,-0.2599666322361053,-0.004193010197356628,1.453001403808595,-0.17219266853260734,3.996291991947488,0.0,-0.0855269774008421,-0.0013794673774329674,0.4780260341798985,-0.0,-0.0,-0.0
14/04/2022,21:34:14,22.232228,-0.00920123199466616,0.6770886546000838,2.1005783081054688,2.1005783081054688,-0.020265832543373108,2.0244336128234863,0.6710089445114136,0.0009479433065280318,2.0244336128234863,0.9920551180839539,47.64147414696737,-122.14016502333044,124.10260009765625,0.35020664115695543,-16.313916417033855,-4.210840633095758,-0.29370756976992485,3.9892024094372354,0.0,-0.3856799961667399,3.9877189832050286,0.4601593034188204,1.3251290290870334,-0.25971650475883185,-0.004188975883207213,1.2994216918945325,-0.29370756976992485,3.9892024094372354,0.0,-0.09197242639681508,-0.0014834262322067828,0.4601593034188204,-0.0,-0.0,-0.0
14/04/2022,21:34:14,22.38723,-0.01767410314641893,1.0122702242806554,2.1878585815429688,2.1878585815429688,-0.04519631713628769,2.369464159011841,0.4695831835269928,0.0009479433065280318,2.369464159011841,0.9920551180839539,47.64147717266516,-122.14016508763095,124.18927764892578,-0.05298423779939899,-13.753460006919008,-5.44901739446136,-0.3798399875759781,3.9819243568704668,0.0,-0.4742817642701417,3.9804011024076575,0.4460414104325087,1.2390211770063742,-0.25665058554240994,-0.004139525573264802,1.2121414184570325,-0.3798399875759781,3.9819243568704668,0.0,-0.09444177669416359,-0.0015232544628091362,0.4460414104325087,-0.0,-0.0,0.0
14/04/2022,21:34:14,22.541229,-0.03144959476776421,1.3962527569383383,2.2479248046875,2.2479248046875,-0.0826273038983345,2.662343740463257,0.3181000351905823,0.0009479433065280318,2.662343740463257,0.9920551180839539,47.641480564857304,-122.14016521252826,124.2479248046875,-0.5781637739879384,-11.359909572277068,-6.139159365851689,-0.42777454617433214,3.977060338698087,0.0,-0.5217228664780135,3.9755450432093182,0.4345580959256053,1.1786981906386471,-0.2490703325469158,-0.004017263428176099,1.1520751953125012,-0.42777454617433214,3.977060338698087,0.0,-0.09394832030368129,-0.0015152954887690672,0.4345580959256053,-0.0,-0.0,0.0
14/04/2022,21:34:15,22.691225,-0.05212700495030731,1.8212144877761602,2.288299560546875,2.288299560546875,-0.12859469652175903,2.905606746673584,0.21211974322795868,0.0009479433065280318,2.905606746673584,0.9920551180839539,47.641484390189504,-122.14016542505055,124.28829956054688,-0.9276039860398051,-9.28482586205398,-6.526901882106702,-0.5683485475341209,4.9675929713006735,0.0,-0.6585247273816347,4.966138516787004,0.42613638204762533,1.136325294301685,-0.2352507389370977,-0.0037943667570501383,1.1117004394531262,-0.5683485475341209,4.9675929713006735,0.0,-0.09017617984751379,-0.0014544545136696444,0.42613638204762533,-0.0,-0.0,0.0
14/04/2022,21:34:15,22.879227,-0.08815712679643184,2.3794861482456326,2.339263916015625,2.339263916015625,-0.20222336053848267,3.2349765300750732,0.3484359085559845,0.0009479433065280318,3.2349765300750732,0.9920551180839539,47.64148950351505,-122.14016583033354,124.3403091430664,-0.996131377718908,-11.311153280523182,-7.094041621386244,-0.61749140087356,4.961723931240755,0.0,-0.6988553456345747,4.960411609551061,0.4144687691624156,1.0809870014090952,-0.20823202751254755,-0.0033585810889120715,1.0607360839843762,-0.61749140087356,4.961723931240755,0.0,-0.0813639447610147,-0.0013123216896937912,0.4144687691624156,0.0,0.0,0.0
14/04/2022,21:34:15,23.066226,-0.14057659485843033,3.0209458768367767,2.4023361206054688,2.4023361206054688,-0.27834227681159973,3.5725815296173096,0.29845955967903137,0.0009479433065280318,3.5725815296173096,0.9920551180839539,47.6414952888978,-122.14016643649478,124.40322875976562,-0.8643317127648138,-10.773271049683853,-8.404484437563038,-0.7308022834013326,4.946304481385614,0.0,-0.7970762590620875,4.9452355462943105,0.39790154837727365,1.0114112636498234,-0.16616962645723637,-0.002680155265439854,0.9976638793945325,-0.7308022834013326,4.946304481385614,0.0,-0.06627397566075487,-0.0010689350913027204,0.39790154837727365,0.0,0.0,0.0
14/04/2022,21:34:15,23.253227,-0.2066874634474516,3.7099115336313844,2.4497451782226562,2.4497451782226562,-0.3529108166694641,3.854349374771118,0.20927593111991882,0.0009479433065280318,3.854349374771118,0.9920551180839539,47.641501397722095,-122.14016720374879,124.44974517822266,-1.0746827902027538,-9.124652881434697,-9.650579184484869,-0.8381954630009552,4.929242169523081,0.0,-0.8381954630009552,4.929242169523081,0.0,0.9567390646980947,-0.11118541107754015,-0.0017933130818965637,0.950254821777345,-0.8381954630009552,4.929242169523081,0.0,-0.0,-0.0,0.0,0.0,0.0,0.0
14/04/2022,21:34:15,23.403226,-0.27079807373229414,4.300355453044176,2.4767303466796875,2.4767303466796875,-0.4171003997325897,4.040846347808838,0.15096022188663483,0.0009479433065280318,4.040846347808838,0.9920551180839539,47.64150671618759,-122.14016797003026,124.47673034667969,-1.4377988826133927,-7.723032376596983,-10.18334224941525,-0.883992975488691,4.921235253397937,0.0,-0.883992975488691,4.921235253397937,0.0,0.9250041283749085,-0.056612286778101484,-0.000913101399647509,0.9232696533203137,-0.883992975488691,4.921235253397937,0.0,-0.0,-0.0,0.0,0.0,0.0,0.0
14/04/2022,21:34:15,23.589224,-0.3628832178656012,5.054419241845608,2.4994888305664062,2.4994888305664062,-0.49924302101135254,4.221694469451904,0.09917779266834259,0.0009479433065280318,4.221694469451904,0.9920551180839539,47.64151350948922,-122.14016908455766,124.4994888305664,-1.651905278279017,-6.202587569688477,-10.537983021462539,-0.9144365669053472,4.915669411698305,0.0,0.7863143569600156,4.94310087821226,1.348808608535067,0.900812366661149,0.023289752010648423,0.000375641161461715,0.900511169433595,-0.9144365669053472,4.915669411698305,0.0,0.0,0.0,0.0,1.7007509238653629,0.027431466513954443,1.348808608535067
14/04/2022,21:34:16,23.770227,-0.47007436701096594,5.83741295710206,2.5143356323242188,2.5143356323242188,-0.5771307349205017,4.359490871429443,0.06424500048160553,0.0009479433065280318,4.359490871429443,0.9920551180839539,47.64152056457297,-122.14017039590792,124.51433563232422,-1.6273872401949232,-4.960721289168785,-10.722497037394014,-0.9302621069902692,4.912699096453804,0.0,1.0388640024379583,4.944459194992967,1.3180484862144493,0.893469794985269,0.11782737670996757,0.0019004415598375957,0.8856643676757825,-0.9302621069902692,4.912699096453804,0.0,0.0,0.0,0.0,1.9691261094282275,0.031760098539162444,1.3180484862144493
14/04/2022,21:34:16,23.954226,-0.5889662625268102,6.628961835056543,2.5237808227539062,2.5237808227539062,-0.6451171636581421,4.461884498596191,0.04151610657572746,0.0009479433065280318,4.461884498596191,0.9920551180839539,47.641527818023974,-122.14017188754089,124.5239028930664,-1.4735420807129722,-3.999334590444208,-10.818768709505228,-0.9385153901800902,4.911129082237109,0.0,1.1934507191833656,4.9455156323881315,1.2344052026157912,0.9043867460099609,0.22392475406490314,0.0036116895816915573,0.876219177246095,-0.9385153901800902,4.911129082237109,0.0,0.0,0.0,0.0,2.131966109363456,0.03438655015102176,1.2344052026157912
14/04/2022,21:34:16,24.133224,-0.7193984451005235,7.436491711065173,2.5298614501953125,2.5298614501953125,-0.7026545405387878,4.539096832275391,0.02661922760307789,0.0009479433065280318,4.539096832275391,0.9920551180839539,47.641535098256334,-122.14017350696373,124.52993774414062,-1.223112584642627,-3.270698338453926,-11.54740520969039,-1.0008931661998441,4.898797083964027,0.0,1.2216682534524965,4.934644848797126,1.1348552935355347,0.9346968854422132,0.3413017261067287,0.005504866550107401,0.8701385498046887,-1.0008931661998441,4.898797083964027,0.0,0.0,0.0,0.0,2.2225614196523407,0.03584776483309912,1.1348552935355347
14/04/2022,21:34:16,24.316229,-0.8619677108945325,8.269785738550127,2.5339508056640625,2.5339508056640625,-0.7535076141357422,4.597631931304932,0.018500274047255516,0.0009479433065280318,4.597631931304932,0.9920551180839539,47.641542487092835,-122.14017525375962,124.53395080566406,-1.1458665688645542,-2.7378668400819595,-13.779958486936861,-1.1909687477714201,4.856088286041737,0.0,1.0857330835502217,4.892809283321117,1.0321248344685394,0.9855822031750281,0.4703971820256112,0.007587051322992977,0.8660491943359387,-1.1909687477714201,4.856088286041737,0.0,0.0,0.0,0.0,2.276701831321642,0.03672099727938045,1.0321248344685394
14/04/2022,21:34:16,24.49623,-1.008985036285594,9.084374732337892,2.5372238159179688,2.5372238159179688,-0.8083564639091492,4.637256145477295,0.01917189359664917,0.0009479433065280318,4.637256145477295,0.9920551180839539,47.64154995537132,-122.14017712293162,124.53727722167969,-1.6864123557611,-2.405536837231871,-16.659494159443604,-1.4334165281639,4.790127039733555,0.0,1.13279689228382,4.831517578773033,1.266823005378105,1.0533684540203985,0.6042411563268855,0.009745825102045913,0.8627761840820325,-1.4334165281639,4.790127039733555,0.0,0.23815367997733003,0.0038411883867308827,0.34005185029928076,2.32805974047039,0.0375493506527468,0.9267711550788242
14/04/2022,21:34:16,24.673226,-1.1703252417501062,9.918296104297042,2.5415573120117188,2.5415573120117188,-0.8872263431549072,4.659692764282227,0.029691167175769806,0.0009479433065280318,4.659692764282227,0.9920551180839539,47.6415574746461,-122.14017915075239,124.5416488647461,-2.6479694208133533,-2.2514627256463964,-19.937772283017907,-1.70499680906016,4.700317636191694,0.0,1.0137626835181002,4.744168595749409,1.146071189459421,1.1413650635320505,0.7520925541797118,0.01213052506741441,0.8584426879882825,-1.70499680906016,4.700317636191694,0.0,0.2877575475657587,0.004641250767189543,0.32844808959807886,2.4310019450125013,0.039209708790525356,0.8176230998613422
14/04/2022,21:34:17,24.852226,-1.3485439835349098,10.754462981596589,2.5486526489257812,2.5486526489257812,-0.9950527548789978,4.663487911224365,0.04958765581250191,0.0009479433065280318,4.663487911224365,0.9920551180839539,47.641564889628775,-122.14018136432901,124.54865264892578,-3.740570655411174,-2.2282101054397003,-23.002188378565215,-1.9538314317259369,4.602449645178074,0.0,1.0969601536216114,4.651655961070774,1.0526868021376172,1.251199422948575,0.9167818902078556,0.01478680468077087,0.85134735107422,-1.9538314317259369,4.602449645178074,0.0,0.33559755853037454,0.005412863847263741,0.31164456402714585,2.7151940268171737,0.0437934520454368,0.7410422381104714
14/04/2022,21:34:17,25.027228,-1.5423028204822913,11.561574370600283,2.5594482421875,2.5594482421875,-1.1336522102355957,4.648415565490723,0.0728110522031784,0.0009479433065280318,4.663487911224365,0.9920551180839539,47.64157229561581,-122.14018386981903,124.5596694946289,-4.748199298149549,-2.2056021782757536,-25.087125345250342,-2.1199796304808087,4.528320479642144,0.0,1.7479108862115198,4.590705810556532,1.0441497387648586,1.3824954650859846,1.0974757947871807,0.01770122249656758,0.8405517578125012,-2.1199796304808087,4.528320479642144,0.0,0.3782265825241722,0.006100428750389926,0.28968203244405766,3.4896639341681563,0.05628490216399829,0.7544677063208011
14/04/2022,21:34:17,25.207226,-1.7656219092896208,12.37820889055729,2.573577880859375,2.573577880859375,-1.2911864519119263,4.617461681365967,0.08388824015855789,0.0009479433065280318,4.663487911224365,0.9920551180839539,47.64157966412247,-122.14018672842036,124.5738296508789,-5.2536627006211525,-2.089076549222354,-26.129465722297052,0.0,0.0,0.0,5.740302935333898,0.09258553121506169,1.1999243258985444,1.5469822933461932,1.3075687043159299,0.021089817811546396,0.8264221191406262,0.0,0.0,0.0,0.4147609271809278,0.006689692373885659,0.26214118099202766,5.32554200815297,0.08589583884117603,0.9377831449065166
14/04/2022,21:34:17,25.375228,-2.004098502919078,13.149346880614758,2.604278564453125,2.604278564453125,-1.3479914665222168,4.288311958312988,0.5290173888206482,0.0009479433065280318,4.663487911224365,0.9920551180839539,47.64158661692635,-122.14018979159103,124.60584259033203,-5.541235551003932,15.905590130033726,-28.350103937298417,0.0,0.0,0.0,7.553422735571237,0.12182939896082036,-0.2267030582222303,1.7278762485700527,1.533548800682138,0.024734658075518112,0.7957214355468762,0.0,0.0,0.0,0.44197848500499615,0.007128685242015996,0.2293319615343007,7.111444250566241,0.11470071371880436,-0.456035019756531
14/04/2022,21:34:17,25.556229,-2.2316434116801247,13.82249478250742,2.7761917114257812,2.7761917114257812,-1.0940523147583008,3.2784409523010254,1.4248895645141602,0.0009479433065280318,4.663487911224365,1.4248895645141602,47.641592668614386,-122.14019271123519,124.78044891357422,-5.107233790945773,23.118174665401767,-29.368888540463857,0.0,0.0,0.0,8.850865029625389,0.1427558875745988,-4.700243918536309,1.8582422142468382,1.7501801295144186,0.028228711766359993,0.62380828857422,0.0,0.0,0.0,0.47065527360863585,0.007591214090461439,0.1677533962288169,8.380209756016754,0.13516467348413738,-4.867997314765126
14/04/2022,21:34:18,25.726233,-2.4049612099770457,14.31793212145567,3.0283279418945312,3.0283279418945312,-0.8760895133018494,2.5926315784454346,1.3727089166641235,0.0009479433065280318,4.663487911224365,1.4248895645141602,47.641597124635865,-122.1401949365731,125.03245544433594,-4.239685078702323,22.190948728629145,-29.43402235076358,0.0,0.0,-5.0,7.6384340358380225,0.12320054896511971,-9.639353247832616,1.9514345873588443,1.9154640051031242,0.03089458072746787,0.37167205810547,0.0,0.0,-5.0,0.49077231069631744,0.007915682430585285,0.09522828635344527,7.147661725141705,0.11528486653453443,-4.734581534186063
14/04/2022,21:34:18,25.897267,-2.5479941858211532,14.725038056261837,3.2067337036132812,3.2067337036132812,-0.7438551187515259,2.204096555709839,0.5872673988342285,0.0009479433065280318,4.663487911224365,1.4248895645141602,47.64160073152159,-122.14019674544757,125.20673370361328,-5.028632036796614,27.15763199300302,-29.941637152024214,0.0,0.0,-5.0,4.890916501820268,0.0788857500293599,-6.196109924067148,2.0612426643088195,2.0518952641894095,0.03309508490627877,0.19326629638672,0.0,0.0,-5.0,0.49775544724947096,0.008028313665313555,0.04688316868562181,4.393161054570797,0.07085743636404634,-1.2429930927527701
14/04/2022,21:34:18,26.059228,-2.6622723031323403,15.051717799156904,3.2339019775390625,3.2339019775390625,-0.6140912771224976,1.8351598978042603,-0.28107234835624695,0.0009479433065280318,4.663487911224365,1.4248895645141602,47.64160368197509,-122.14019821851146,125.23390197753906,-4.882024325882966,27.564273007553496,-30.01153322196237,0.0,0.0,-5.0,4.306153225144678,0.06945408427652155,-4.128931285842059,2.1675304776877393,2.1608760025209333,0.03485283875033218,0.16609802246093874,0.0,0.0,-5.0,0.4989337190927701,0.008047318049882131,0.03835106872569743,3.8072195060519083,0.06140676622663942,0.8327176454322431
14/04/2022,21:34:18,26.218227,-2.7532582879066467,15.314933812245727,3.1260147094726562,3.2339019775390625,-0.4889248311519623,1.4854884147644043,-1.0985891819000244,0.0009479433065280318,4.663487911224365,1.4248895645141602,47.641606059138205,-122.14019939087542,125.12601470947266,-4.131226209471261,24.16565914204591,-29.72773346564189,0.0,0.0,-5.0,5.750675847520783,0.0927528362503367,-0.8540367571200784,2.264522231844456,2.2475940084145423,0.03625151626474654,0.273985290527345,0.0,0.0,-5.0,0.49809937583458036,0.008033860900556829,0.06071910749388155,5.2525764716862025,0.08471897534977987,4.08524413538604
14/04/2022,21:34:18,26.389225,-2.8283047165023163,15.536348190158606,2.8756103515625,3.2339019775390625,-0.3733447194099426,1.162047028541565,-1.8984487056732178,0.0009479433065280318,4.663487911224365,1.4248895645141602,47.64160809002904,-122.14020037219318,124.86993408203125,-3.2466236051220254,19.04561992727607,-29.37570305705151,0.0,0.0,-5.0,12.02304259858916,0.1939200419127266,11.565860240543914,2.377893915812176,2.3190506482301876,0.03740404271338704,0.5243896484375012,0.0,0.0,-5.0,0.49288994837664185,0.007949837877041956,0.11145353248099915,11.53015265021252,0.18597020403568465,16.454406708062915
14/04/2022,21:34:18,26.562225,-2.886935052345507,15.713788371533155,2.4815216064453125,3.2339019775390625,-0.27786004543304443,0.889431357383728,-2.641446828842163,0.0009479433065280318,4.663487911224365,1.4248895645141602,47.64160968488778,-122.14020112266503,124.47361755371094,-2.437857361165511,13.838031388968432,-29.102175576568342,0.0,0.0,-5.0,25.668118212352635,0.4140019066508248,49.01389700565895,2.5465204323968744,2.374804541529538,0.03830329905692764,0.9184783935546887,0.0,0.0,-5.0,0.4815071994235021,0.007766245151991892,0.18622751947689697,25.186611012929134,0.40623566149883295,53.82766948618205
14/04/2022,21:34:19,26.731226,-2.92988669348415,15.847295420244336,1.97589111328125,3.2339019775390625,-0.20757639408111572,0.6820587515830994,-3.2790677547454834,0.0009479433065280318,4.663487911224365,1.4248895645141602,47.64161088469909,-122.14020167192011,123.96607208251953,-1.7960414212798166,9.673280227277596,-28.93889953435855,0.0,0.0,0.0,46.08750082208224,0.7433467874529057,129.91102257557205,2.804405449822552,2.4155922324311896,0.03896116503920766,1.4241088867187512,0.0,0.0,0.0,0.47551217346045715,0.007669551184845083,0.2803375101460861,45.61198864862178,0.7356772362680606,129.63068506542595
14/04/2022,21:34:19,26.907224,-2.9586488055065274,15.939688060432673,1.4622344970703125,3.2339019775390625,-0.11477751284837723,0.39691585302352905,-2.4028713703155518,0.0009479433065280318,4.663487911224365,1.4248895645141602,47.64161171112778,-122.14020203745693,123.45498657226562,-0.8600854974653629,4.2875793608792865,-28.804581007110695,0.0,0.0,0.0,27.949577043399593,0.45079962973225857,69.99503205243612,3.1183390021965605,2.442857047755596,0.039400920125086,1.9377655029296887,0.0,0.0,0.0,0.501262904461389,0.00808488555582798,0.39762046864594097,27.448314138938205,0.4427147441764306,69.59741158379018
14/04/2022,21:34:19,27.07723,-2.9746745439479128,15.993746322579682,1.1486892700195312,3.2339019775390625,-0.0663718581199646,0.23906466364860535,-1.1724565029144287,0.0009479433065280318,4.663487911224365,1.4248895645141602,47.641612188326945,-122.14020223819769,123.14868927001953,-0.4966872393970282,2.282177805074143,-28.77291959656518,0.0,0.0,0.0,10.352640110782593,0.1669780663029429,17.95225146518675,3.333432143561178,2.458006937564587,0.039645273186526,2.25131072998047,0.0,0.0,0.0,0.5435153966956668,0.00876637736605923,0.49781065536898805,9.809124714086925,0.15821168893688367,17.454440809817765
14/04/2022,21:34:19,27.250229,-2.9841938820900396,16.026922290213406,1.0437469482421875,3.2339019775390625,-0.039915431290864944,0.14779406785964966,-0.0016603153198957443,0.0009479433065280318,4.663487911224365,1.4248895645141602,47.64161248775217,-122.14020236002318,123.04374694824219,-0.339486023304298,1.4749566415784419,-28.762709269659616,0.0,0.0,0.0,3.5578206498195413,0.05738420402934407,3.3176437785243964,3.411677835042168,2.466988842850684,0.039790142626621616,2.3562530517578137,0.0,0.0,0.0,0.5649764396978285,0.009112523220932187,0.5396163278432169,2.9928442101217128,0.04827168080841188,2.7780274506811797
14/04/2022,21:34:19,27.427227,-2.9902415391989052,16.04846418276429,1.0773696899414062,3.2339019775390625,-0.028028106316924095,0.10522636026144028,0.24726079404354095,0.0009479433065280318,4.663487911224365,1.4248895645141602,47.6416126850023,-122.14020243847683,123.07810974121094,-0.2458412476159182,1.0312106517704966,-28.758224760280978,0.0,0.0,0.0,3.151885862722981,0.050836868753595055,2.4025785614467914,3.392695969665808,2.472687567581068,0.039882057541625215,2.322630310058595,0.0,0.0,0.0,0.5612895919218903,0.009053057934222924,0.5272272308116668,2.590596270801091,0.04178381081937213,1.8753513306351248
14/04/2022,21:34:19,27.602228,-2.9946824052603915,16.064422913827002,1.11749267578125,3.2339019775390625,-0.021069999784231186,0.07963371276855469,0.20995967090129852,0.0009479433065280318,4.663487911224365,1.4248895645141602,47.64161282834444,-122.14020249495573,123.11812591552734,-0.1821214488981126,0.7476300329043276,-28.75604116436492,0.0,0.0,0.0,3.1467693883464944,0.05075434497332868,2.429996977702403,3.3684299579893047,2.4768699467265725,0.03994951526978241,2.2825073242187512,0.0,0.0,0.0,0.5560865272701206,0.008969137536614621,0.5124498252606634,2.590682861076374,0.04178520743671406,1.9175471524417396
14/04/2022,21:34:20,27.873229,-2.9995000649942085,16.08184432052076,1.1660995483398438,3.2339019775390625,-0.013905133120715618,0.05279761552810669,0.15552200376987457,0.0009479433065280318,4.663487911224365,1.4248895645141602,47.64161298481835,-122.1402025562298,123.16657257080078,-0.11796019614660602,0.4762412571591451,-28.754576325525207,0.0,0.0,0.0,3.1532093810382933,0.05085821582319383,2.4913871790408013,3.3390546537039,2.48140543614186,0.040022668324862565,2.2339004516601575,0.0,0.0,0.0,0.5500035565656142,0.00887102510589564,0.49514407260143417,2.603205824472679,0.041987190717298194,1.9962431064393673
14/04/2022,21:34:20,28.028227,-3.0015249681891873,16.089177859947085,1.1884231567382812,3.2339019775390625,-0.010977048426866531,0.04172462970018387,0.13040168583393097,0.0009479433065280318,4.663487911224365,1.4248895645141602,47.64161305071169,-122.14020258198464,123.18881225585938,-0.0923488123569573,0.3711620374610524,-28.754192220387235,0.0,0.0,0.0,3.1580638568614066,0.05093651382034193,2.521430770546587,3.3255845676151994,2.483311560572826,0.040053412267301525,2.21157684326172,0.0,0.0,0.0,0.5472990883048631,0.00882740465007797,0.48741124925705437,2.6107647685565434,0.04210910917026396,2.0340195212895327
14/04/2022,21:34:20,28.200227,-3.0032875831238925,16.095567296259105,1.2090911865234375,3.2339019775390625,-0.008458391763269901,0.032167140394449234,0.10707807540893555,0.0009479433065280318,4.663487911224365,1.4248895645141602,47.64161310723824,-122.14020260406816,123.20909118652344,-0.0706247068571093,0.2830969929913366,-28.753963009961122,0.0,0.0,0.0,3.1636309850018955,0.051026306209707224,2.5503466117140308,3.313120458379762,2.484970688468187,0.040080172394645786,2.1909088134765637,0.0,0.0,0.0,0.544843155298252,0.008787792827390638,0.48036851156628946,2.6187878297036433,0.042238513382316586,2.0699781001477415
14/04/2022,21:34:20,28.374227,-3.0046259610680863,16.100423629395664,1.2257919311523438,3.2339019775390625,-0.006560093257576227,0.02495041862130165,0.08820781856775284,0.0009479433065280318,4.663487911224365,1.4248895645141602,47.64161315174035,-122.1402026214314,123.22605895996094,-0.05444523972349756,0.21798165941840947,-28.75382681041962,2.63008388489908,1.4431419744412408,0.0,5.7989602980549595,1.49425288433085,2.5744516079844515,3.3030486571203785,2.4862304107472544,0.04010049049592013,2.1742080688476575,2.63008388489908,1.4431419744412408,0.0,0.5428899545592081,0.008756289589663919,0.47475717238299087,2.6259864585966715,0.0423546202999451,2.0996944356014606
14/04/2022,21:34:20,28.542226,-2.997735852492042,16.108642318286,1.2579421997070312,3.2339019775390625,0.17894050478935242,0.11884954571723938,0.46278712153434753,0.17894050478935242,4.663487911224365,1.4248895645141602,47.64161322431688,-122.14020252823227,123.25794219970703,11.480060526196603,0.1680140003114435,-28.757725862353183,2.6299856711305147,1.443320951711079,0.0,5.370818281250842,1.4875279292936634,1.729638446934762,3.2766584636847833,2.4792095691146105,0.0399872511147521,2.14205780029297,2.6299856711305147,1.443320951711079,0.0,0.5357504978082187,0.00864113706142295,0.46289291036044883,2.2050821123121085,0.035565840521161386,1.2667455365743132
14/04/2022,21:34:21,28.721226,-2.932861087610945,16.14810819271952,1.3654098510742188,3.2339019775390625,0.5979108214378357,0.34312447905540466,0.7091137766838074,0.5979108214378357,4.663487911224365,1.4248895645141602,47.641613582105855,-122.14020163500582,123.36753845214844,15.320124348738775,0.3853490226565693,-29.70750380447334,3.474266474808632,1.9822897018399708,0.0,6.082107985130705,2.0243516616838724,1.4979586225173613,3.1570705120768525,2.4137152959240216,0.038930891869739526,2.0345901489257825,3.474266474808632,1.9822897018399708,0.0,0.5007066831246456,0.008075914243945326,0.4220600858382159,2.1071348271974273,0.033986045599956535,1.0758985366791454
14/04/2022,21:34:21,28.893232,-2.7873501661233604,16.23231036402285,1.51025390625,3.2339019775390625,1.1178035736083984,0.6290662288665771,0.9617961645126343,1.1178035736083984,4.663487911224365,1.4248895645141602,47.64161433283218,-122.14019966474065,123.51313781738281,18.27409559391183,1.2165664122888367,-32.99081924295986,3.3550313084334804,2.178018576466034,0.0,3.805215369019299,2.185279609701289,0.37528757215223774,2.951481380119905,2.2668844723039743,0.03656265277909654,1.8897460937500012,3.3550313084334804,2.178018576466034,0.0,0.45018406058581883,0.007261033235255178,0.37528757215223774,0.0,0.0,-0.0
14/04/2022,21:34:21,29.068282,-2.5555041243787855,16.36643371451646,1.669219970703125,3.2339019775390625,1.5567618608474731,0.8900771141052246,0.8210381865501404,1.5567618608474731,4.663487911224365,1.4248895645141602,47.64161552340802,-122.14019654096988,123.67168426513672,17.308379629763206,1.7469742472283039,-38.25969092886387,3.1408488278168227,2.4769070714909134,0.0,1.4014839388537337,2.448852799088285,0.5150930050989802,2.6701130076851753,2.0329360113945465,0.03278929050636492,1.7307800292968762,3.1408488278168227,2.4769070714909134,0.0,0.4035942074018751,0.006509583990353077,0.3436078608455019,-2.1429590963649643,-0.03456385639298157,0.17148514425347822
14/04/2022,21:34:21,29.243282,-2.250273240497336,16.54862449876964,1.7940597534179688,3.2339019775390625,1.9058750867843628,1.144091248512268,0.5861688852310181,1.9058750867843628,4.663487911224365,1.4248895645141602,47.6416171081456,-122.1401925129174,123.79405975341797,14.78656716152409,1.1964749500768233,-44.86142533545226,2.835259634599877,2.8215780698766024,0.0,0.7531056755373045,2.7879949415046266,0.8445078611204755,2.3568865528074032,1.7248467145768638,0.027820108299625446,1.6059402465820325,2.835259634599877,2.8215780698766024,0.0,0.36924297756514357,0.005955531896211695,0.3437883224220999,-2.451396936627716,-0.03953866026818769,0.5007195386983756
14/04/2022,21:34:21,29.419283,-1.8979988798964769,16.773028704337776,1.8802642822265625,3.2339019775390625,2.157207727432251,1.4080216884613037,0.41309982538223267,2.157207727432251,4.663487911224365,1.4248895645141602,47.64161912978823,-122.14018770403251,123.88150787353516,12.413284274447383,-0.32198531294255184,-51.95470477809453,2.465136981495867,3.1500951830796233,0.0,-0.23089089452218303,3.106610862498683,1.074526923749171,2.0455732196256498,1.3690454914572472,0.022081378894469594,1.5197357177734387,2.465136981495867,3.1500951830796233,0.0,0.3346424842829948,0.005397459423918749,0.3714764331957814,-3.0306703603010448,-0.048881780004858884,0.7030504905533898
14/04/2022,21:34:21,29.563281,-1.5860319486819208,16.989910817705095,1.9325103759765625,3.2339019775390625,2.2880499362945557,1.6373075246810913,0.3357562720775604,2.2880499362945557,4.663487911224365,1.4248895645141602,47.64162105606887,-122.14018351378553,123.93351745605469,10.924618446633959,-2.0349582198046723,-57.888192104784075,2.126292595001709,3.3880495569635487,0.0,-2.2629623626717157,3.317255122162362,1.4479273941340454,1.8066597052480624,1.0536625071614012,0.0169945565671199,1.4674896240234387,2.126292595001709,3.3880495569635487,0.0,0.29118364363124744,0.004696510381149297,0.4055463422205063,-4.680438601304672,-0.07549094518233614,1.042381051913539
14/04/2022,21:34:22,29.740287,-1.169987627537921,17.31566616985947,1.9892730712890625,3.2339019775390625,2.349795341491699,1.9481045007705688,0.2973487377166748,2.349795341491699,4.663487911224365,1.4248895645141602,47.641623901234865,-122.14017801871464,123.98927307128906,9.599884437168043,-3.9283379835296692,-65.44879196336288,1.6620254150201266,3.63836110355022,0.0,-5.87701219755942,3.516763722702157,1.9774394576801366,1.546052209422107,0.6324736378997351,0.010201187708059223,1.4107269287109387,1.6620254150201266,3.63836110355022,0.0,0.20071791972204536,0.0032373858019681496,0.44769956794882,-7.739755532301592,-0.12483476665003154,1.5297398897313166
14/04/2022,21:34:22,29.919287,-0.7595599554479122,17.69077038578689,2.0422592163085938,3.2339019775390625,2.3079771995544434,2.2552216053009033,0.3034251034259796,2.349795341491699,4.663487911224365,1.4248895645141602,47.64162729570733,-122.14017240730013,124.04316711425781,8.763517897888276,-5.686811896970018,-72.54018310944076,1.200147430484828,3.815710437795387,0.0,-9.217871208168708,3.6476778791074254,2.2317320095696433,1.374835705203797,0.21610421451833228,0.0034855518470671143,1.3577407836914075,1.200147430484828,3.815710437795387,0.0,0.0747521782116032,0.0012056802937345803,0.46965340890680346,-10.49277081686514,-0.1692382389816965,1.76207860066284
14/04/2022,21:34:22,30.103283,-0.35884542332496494,18.126959213986993,2.0994796752929688,3.2339019775390625,2.1708786487579346,2.555532217025757,0.32875388860702515,2.349795341491699,4.663487911224365,1.4248895645141602,47.64163118810557,-122.14016701397259,124.1004638671875,8.177360278076602,-7.215902216767983,-78.97956131080161,0.7646366066180337,3.9262362205832266,0.0,-11.096088462327561,3.7349342033421724,2.1060196948299477,1.3145531817511136,-0.19153957451392145,-0.0030893479760329967,1.3005203247070325,0.7646366066180337,3.9262362205832266,0.0,-0.06816101854103443,-0.0010993712667915915,0.46280143510972077,-11.792564050404561,-0.19020264597426273,1.6432182597202267
14/04/2022,21:34:22,30.279284,0.003995938342995942,18.60602414328605,2.1598281860351562,3.2339019775390625,1.9641730785369873,2.8239381313323975,0.3495370149612427,2.349795341491699,4.663487911224365,1.4248895645141602,47.64163546918061,-122.14016212128098,124.16088104248047,7.727741877251106,-8.2428856931205,-84.88048456483627,0.3569342074191403,3.984042917888068,0.0,-11.177327439167748,3.7980064397173066,1.7711778467712718,1.36160387982152,-0.5620114132312644,-0.009064700213411214,1.240171813964845,0.3569342074191403,3.984042917888068,0.0,-0.19563942575611942,-0.0031554746089709645,0.43171098630904114,-11.338622220830768,-0.18288100356179066,1.3394668604622306
14/04/2022,21:34:22,30.427285,0.2790293969446793,19.046795174479485,2.2135009765625,3.2339019775390625,1.7464309930801392,3.025202512741089,0.3672415018081665,2.349795341491699,4.663487911224365,1.4248895645141602,47.64163941264649,-122.14015840360528,124.21460723876953,7.348238602146056,-9.00117618372265,-89.25763436990356,0.051825447919287254,3.9996642512775953,0.0,-10.093912874956203,3.8360233105860493,1.4000830769422,1.4561722124154413,-0.8440807029058713,-0.01361420488558096,1.1864990234375012,0.051825447919287254,3.9996642512775953,0.0,-0.28050560421895043,-0.004524283939016123,0.3942983465073311,-9.86523271865654,-0.15911665675252953,1.0057847304348688
14/04/2022,21:34:22,30.577284,0.5144019557628781,19.505697355605662,2.2678070068359375,3.2339019775390625,1.5062483549118042,3.1943745613098145,0.3689345717430115,2.349795341491699,4.663487911224365,1.4248895645141602,47.64164352235691,-122.14015521212912,124.26891326904297,6.791707728747546,-9.531120533484366,-92.109582030145,-0.14724333540133203,3.997289006336656,0.0,-8.42647423568044,3.8637530240740867,1.0999849601972653,1.5694854527821602,-1.0867917695708853,-0.017528899509208884,1.1321929931640637,-0.14724333540133203,3.997289006336656,0.0,-0.3407002417531892,-0.005495165189567899,0.3549331502892872,-7.938530658525917,-0.1280408170730014,0.7450518099079783
14/04/2022,21:34:23,30.761282,0.75642522983253,20.107659089379013,2.3324508666992188,3.2339019775390625,1.1982643604278564,3.3626439571380615,0.3261503279209137,2.349795341491699,4.663487911224365,1.4248895645141602,47.64164891844676,-122.14015191371746,124.33343505859375,5.844067891206422,-9.452449654428008,-93.9124191857103,-0.27292617120446405,3.990678050791829,0.0,-6.3748987620661595,3.892259138035992,0.9275990204300443,1.7121912013623584,-1.338458633814758,-0.021588042480882308,1.0675491333007825,-0.27292617120446405,3.990678050791829,0.0,-0.3889976699363243,-0.006274155966714651,0.31026295090866485,-5.712974920925371,-0.09214475678912237,0.6173360695213794
14/04/2022,21:34:23,30.913285,0.9160885697929189,20.631489753723145,2.3781890869140625,3.2339019775390625,0.9542140960693359,3.4719924926757812,0.26912176609039307,2.349795341491699,4.663487911224365,1.4248895645141602,47.64165361825312,-122.1401497206794,124.37899780273438,4.997303881523963,-8.858197930333427,-94.61456745090625,-0.32180941098327703,3.98703382265596,0.0,-5.091550057476413,3.91010252190607,0.8776981063830016,1.8205251928889765,-1.506527133163801,-0.024298824728447244,1.0218109130859387,-0.32180941098327703,3.98703382265596,0.0,-0.41328328281959353,-0.0066658594003157065,0.2803118239856671,-4.356457363673542,-0.07026544134957428,0.5973862823973345
14/04/2022,21:34:23,31.097289,1.061980121070519,21.287582858465612,2.4212188720703125,3.2339019775390625,0.6879648566246033,3.5742814540863037,0.19120027124881744,2.349795341491699,4.663487911224365,1.4248895645141602,47.64165941282979,-122.14014771993887,124.42121887207031,4.051312633715163,-7.667977210463906,-94.98548447332777,-0.3476134410787872,3.9848669859333277,0.0,-4.105057546085946,3.9242630487557912,0.8826366676123867,1.9298104379439984,-1.662960135921962,-0.0268219376761607,0.9787811279296887,-0.3476134410787872,3.9848669859333277,0.0,-0.43083120882271797,-0.006948890464882554,0.2535776098355011,-3.3266128961844403,-0.05365504671265375,0.6290590577768855
14/04/2022,21:34:23,31.246282,1.142851805430837,21.806813928298652,2.44500732421875,3.2339019775390625,0.5100261569023132,3.6358532905578613,0.13901309669017792,2.349795341491699,4.663487911224365,1.4248895645141602,47.64166417411325,-122.14014654623213,124.44542694091797,3.4258230212175036,-6.629482354064665,-95.09854382178388,-0.3554759294004131,3.9841732973876667,0.0,-3.6695237591803056,3.930720913036375,0.9129072226484105,1.9957344579614444,-1.7521833039351504,-0.028261021031216416,0.9549926757812512,-0.3554759294004131,3.9841732973876667,0.0,-0.43898206741572904,-0.007080355926061225,0.2392584487249791,-2.8750657623641636,-0.04637202842523059,0.6736487739234314
14/04/2022,21:34:23,31.393283,1.201609472045675,22.35587534867227,2.46258544921875,3.2339019775390625,0.35135185718536377,3.6872663497924805,0.09575770795345306,2.349795341491699,4.663487911224365,1.4248895645141602,47.64166910940576,-122.14014568933281,124.46287536621094,2.879766322830745,-5.565425413770803,-95.14290371646314,0.0,0.0,0.0,-3.048884686800472,-0.049175559464524815,0.9644613861905064,2.0472430069054273,-1.8197792151264642,-0.029351277663330677,0.9374145507812512,0.0,0.0,0.0,-0.4444556862884012,-0.007168640101425975,0.22895042653581488,-2.604429000512071,-0.04200691936309884,0.7355109596546915
14/04/2022,21:34:23,31.650284,1.25200290849898,23.248422612436116,2.5439376831054688,3.2339019775390625,0.13360142707824707,3.159860134124756,0.8290994167327881,2.349795341491699,4.663487911224365,1.4248895645141602,47.64167703502953,-122.14014490082413,124.54393768310547,-16.5631019052129,-4.049488265759154,-95.39063284001891,0.0,0.0,0.0,-2.8386470681499407,-0.04578463013145403,-0.6415691578036097,2.0700970534680896,-1.8845517249001609,-0.03039599556290895,0.8560623168945325,0.0,0.0,0.0,-0.45521574470859605,-0.007342189430784564,0.20678288632420308,-2.3834313234413447,-0.03844244070066946,-0.8483520441278127
14/04/2022,21:34:24,31.811283,1.2635105955414474,23.713751833885908,2.6945266723632812,3.2339019775390625,0.07806620001792908,2.5905442237854004,0.9445396661758423,2.349795341491699,4.663487911224365,1.4248895645141602,47.64168129025787,-122.14014467579646,124.6973648071289,-18.44879270144198,-3.2702615544638007,-95.64917268843625,0.0,0.0,0.0,-2.6965117304059367,-0.043492124683972795,-1.0565520545720255,2.0303140371011494,-1.903559777103316,-0.030702577050053748,0.70547332763672,0.0,0.0,0.0,-0.4687871796524204,-0.007561083542781039,0.1737359948244358,-2.2277245507535164,-0.03593104114119176,-1.2302880493964614
14/04/2022,21:34:24,31.992285,1.2703138674842194,24.139748154208064,2.8499832153320312,3.2339019775390625,0.05001198872923851,2.071995735168457,0.724531888961792,2.349795341491699,4.663487911224365,1.4248895645141602,47.641685052224034,-122.1401445254715,124.84998321533203,-16.61385565707783,-2.5274928125856473,-95.89079855573313,0.0,0.0,0.0,-2.7848446473624975,-0.04491684915101478,-0.8561946607339722,1.9948050307181948,-1.9172304010845875,-0.03092307098523861,0.55001678466797,0.0,0.0,0.0,-0.48055582320119417,-0.0077509003742136425,0.13786228748567023,-2.3042888241613033,-0.037165948776801135,-0.9940569482196424
14/04/2022,21:34:24,32.143323,1.2735994334798306,24.4185710567981,2.94183349609375,3.2339019775390625,0.036989301443099976,1.7206679582595825,0.5209095478057861,2.349795341491699,4.663487911224365,1.4248895645141602,47.64168760684879,-122.14014443908452,124.94340515136719,-14.275583402916906,-2.036403400336375,-96.03027939790799,0.0,0.0,0.0,-2.8921114777999724,-0.04664695931935699,-0.5676976894833493,1.979027094842448,-1.925011086558635,-0.03104856591223637,0.45816650390625124,0.0,0.0,0.0,-0.4863519907971564,-0.007844386948341314,0.11575527686426709,-2.405759487002816,-0.03880257237101567,-0.6834529663476164
14/04/2022,21:34:24,32.331325,1.2762892553582788,24.703243190422654,3.0194320678710938,3.2339019775390625,0.026225650683045387,1.3447682857513428,0.31920138001441956,2.349795341491699,4.663487911224365,1.4248895645141602,47.64169015756529,-122.14014436168128,125.02039337158203,-11.328662295013643,-1.5411127002028358,-96.14721360339327,-0.2141668045525452,1.9885000829338055,-1.0,-3.18444394479875,1.9405923871233792,-1.2186490443748434,1.9696572920998374,-1.9322905007551179,-0.031165975818630898,0.3805679321289075,-0.2141668045525452,1.9885000829338055,-1.0,-0.49051165206303476,-0.007911478259081199,0.0966071121489308,-2.47976548818317,-0.03999621755134506,-0.31525615652377426
14/04/2022,21:34:24,32.478323,1.2776488352101296,24.891568874940276,3.035247802734375,3.2339019775390625,0.018106607720255852,1.2090282440185547,-0.24836187064647675,2.349795341491699,4.663487911224365,1.4248895645141602,47.641691815425496,-122.1401443168296,125.03524780273438,-2.7425545428331928,-1.32494191526513,-96.40038571079069,-0.33442686651950243,2.9813015062133426,-1.0,-3.1267408835226504,2.9362641833584506,0.07781230294836705,1.970983081122733,-1.9366864480608674,-0.0312368781945338,0.36475219726562624,-0.33442686651950243,2.9813015062133426,-1.0,-0.4912972118575634,-0.00792414857834873,0.09253007254475819,-2.3010168051455846,-0.03711317427654301,0.9852822304036088
14/04/2022,21:34:24,32.630323,1.2772289760177955,25.068745261989534,2.949005126953125,3.2339019775390625,-0.0007574947667308152,1.2289493083953857,-0.9175342917442322,2.349795341491699,4.663487911224365,1.4248895645141602,47.64169344256673,-122.14014429627777,124.9462661743164,5.8296436404195875,-1.032632608353108,-97.38780308668274,-0.38575347113106323,2.9750956723289312,-1.0,-2.8578637675036105,2.935222925613246,1.4084788997727933,1.9911240696766404,-1.9391236385060486,-0.031276187717839576,0.45099487304687624,-0.38575347113106323,2.9750956723289312,-1.0,-0.48694187289614543,-0.007853901175744301,0.11325130785224051,-1.9851684234764018,-0.032018845539941033,2.2952275919205527
14/04/2022,21:34:25,32.816324,1.2689511987846345,25.31716160196811,2.773590087890625,3.2339019775390625,-0.06439875066280365,1.4800212383270264,-0.9173828959465027,2.349795341491699,4.663487911224365,1.4248895645141602,47.641695645239174,-122.14014436978064,124.77359008789062,9.361371616206771,-0.5427553004590561,-99.78690087527204,-0.5099526238559737,2.9563403595361626,-1.0,-2.8700320820083163,2.918274561824024,1.6558165097047364,2.033967075863162,-1.9348536872432138,-0.031207317536185997,0.6264099121093762,-0.5099526238559737,2.9563403595361626,-1.0,-0.4756391771430406,-0.007671599631340625,0.15398843701430534,-1.884440281009302,-0.030394198080797755,2.501828072690431
14/04/2022,21:34:25,33.001323,1.2472354710334912,25.618125649169087,2.6039657592773438,3.2339019775390625,-0.13687583804130554,1.7684017419815063,-0.9197508692741394,2.349795341491699,4.663487911224365,1.4248895645141602,47.64169835510032,-122.14014461443115,124.60396575927734,9.079953476170358,-0.36341670733016285,-103.28814946491536,-0.6895453465506758,2.919679300034562,-1.0,-2.9058535339441676,2.8839323937862753,1.9095550590194927,2.076857839298621,-1.9179966036154028,-0.03093542909057234,0.7960342407226575,-0.6895453465506758,2.919679300034562,-1.0,-0.46179635526415896,-0.007448328310712561,0.19166129404935472,-1.7545118321293327,-0.02829857793757408,2.717893764970138
14/04/2022,21:34:25,33.185359,1.2112813696730882,25.963192298077047,2.4325103759765625,3.2339019775390625,-0.2198052704334259,2.0126519203186035,-0.9556640982627869,2.349795341491699,4.663487911224365,1.4248895645141602,47.641701517356246,-122.1401450508772,124.42964172363281,7.824481832296874,-0.6167724514000845,-107.87499933576511,-0.9208240984021527,2.855185279417408,-1.0,-2.985764506124679,2.8218797889702696,2.3102238357335536,2.1213338368433154,-1.8876159967500983,-0.030445419302420618,0.9674896240234387,-0.9208240984021527,2.855185279417408,-1.0,-0.4450714734955986,-0.007178572153154741,0.22811950804463438,-1.6198689342269277,-0.02612691829398365,3.0821043276889193
14/04/2022,21:34:25,33.338354,1.1691156447632238,26.276310215704143,2.2874908447265625,3.2339019775390625,-0.3022805452346802,2.175081729888916,-0.9761135578155518,2.349795341491699,4.663487911224365,1.4248895645141602,47.64170434300629,-122.14014556925865,124.28456115722656,6.77105772201387,-1.2421379244702055,-112.07856755613078,-1.127632959920751,2.7800078970571946,-1.0,-3.0106564011748906,2.7730913278223417,2.6481018545826274,2.1593877631170244,-1.8505102137434302,-0.029846938931346045,1.1125091552734387,-1.127632959920751,2.7800078970571946,-1.0,-0.4288272925608894,-0.006916569234853148,0.2578068931811129,-1.4541961486932502,0.0,3.3902949614015148
14/04/2022,21:34:25,33.487354,1.1116653449134901,26.617886193096638,2.1374664306640625,3.2339019775390625,-0.4060559868812561,2.3034651279449463,-0.9830859899520874,2.349795341491699,4.663487911224365,1.4248895645141602,47.64170736320985,-122.14014627156627,124.13746643066406,5.877814420601954,-2.021042441285495,-116.55819021716316,-1.3413194637330976,2.6834422103355897,-1.0,-2.9436489798075085,2.67683196620504,2.9561181160384837,2.197665200354897,-1.7985827125668263,-0.029009398589789015,1.2625335693359387,-1.3413194637330976,2.6834422103355897,-1.0,-0.4098351360940619,-0.006610244130549727,0.2876879743126582,-1.1924943799803487,0.0,3.6684301417258256
14/04/2022,21:34:25,33.63636,1.0399639725219458,26.96185844950378,1.99322509765625,3.2339019775390625,-0.5245118141174316,2.392066478729248,-0.9779239296913147,2.349795341491699,4.663487911224365,1.4248895645141602,47.64171052945228,-122.14014719621606,123.99028778076172,5.224555661132323,-2.8478784852088497,-120.95647594696445,-1.5431603684768076,2.572674887575677,-1.0,-2.7936793219373017,2.566399308681434,3.225401121157781,2.231852872029783,-1.732446484848789,-0.02794268523950194,1.4067749023437512,-1.5431603684768076,2.572674887575677,-1.0,-0.3890858914429996,-0.00627557889424313,0.31594411240115816,-0.8614330620174947,0.0,3.9094570087566227
14/04/2022,21:34:26,33.792357,0.9433307994622737,27.338265218771994,1.8415603637695312,3.2339019775390625,-0.6676449179649353,2.4507431983947754,-0.9657163023948669,2.349795341491699,4.663487911224365,1.4248895645141602,47.641713927116186,-122.14014843276387,123.83866882324219,4.723721429562703,-3.622209243382334,-125.66331130748347,-1.7490632502676966,2.4373710728083653,-1.0,-2.543229644533541,2.431500759918276,3.5387411161215905,2.2639119033882915,-1.6419079419237566,-0.026482386160065374,1.55843963623047,-1.7490632502676966,2.4373710728083653,-1.0,-0.3639593991854566,-0.005870312890089071,0.34545709852932927,-0.43020699508038746,0.0,4.193284017592261
14/04/2022,21:34:26,33.946358,0.8257488487288356,27.71363456454128,1.6950149536132812,3.2339019775390625,-0.821158230304718,2.4759573936462402,-0.9491675496101379,2.349795341491699,4.663487911224365,1.4248895645141602,47.641717249897745,-122.14014991597317,123.69501495361328,4.389387077252112,-4.319352108229814,-130.30095909562115,-1.9404076380363116,2.2879725081937377,0.0,-2.1917435476699008,2.282559266943951,4.936274690158882,2.2912302506376783,-1.5304093413563598,-0.02468402163478345,1.70498504638672,-1.9404076380363116,2.2879725081937377,0.0,-0.3356209574867416,-0.005413241249786913,0.3739056592935698,0.0842850478531523,0.0,4.562369030865312
14/04/2022,21:34:26,34.138355,0.6407329165376723,28.17862186022103,1.5774383544921875,3.2339019775390625,-1.1049489974975586,2.4631311893463135,-0.10097850114107132,2.349795341491699,4.663487911224365,1.4248895645141602,47.64172145172647,-122.14015231029512,123.57743835449219,3.759557222821036,-4.653727339246675,-135.27136599906416,-2.1313435748378042,2.1112495271752243,0.0,-1.4916562227128267,2.1064239807825706,2.723399768981721,2.269945391226685,-1.352939372302865,-0.021821602779080962,1.8225616455078137,-2.1313435748378042,2.1112495271752243,0.0,-0.2991838763444932,-0.004825546392653668,0.4030343629158283,0.9388712284694707,0.0,2.3203654060658927
14/04/2022,21:34:26,34.325361,0.40564013144467026,28.636818574741483,1.5949020385742188,3.2339019775390625,-1.3177908658981323,2.4143171310424805,0.1537303775548935,2.349795341491699,4.663487911224365,1.4248895645141602,47.641725597458574,-122.14015537225373,123.59490203857422,3.2647839430384713,-5.141758586415107,-138.28823318269485,-2.2395046451389455,1.9961510324624951,0.0,-0.7464717799196707,1.991883128829173,2.203122376520885,2.12720458159327,-1.1252960772190597,-0.018149936729347615,1.8050979614257825,-2.2395046451389455,1.9961510324624951,0.0,-0.2646100252658538,-0.004267903633322091,0.4244634162065373,1.7576428904851285,0.0,1.7786589603143477
14/04/2022,21:34:26,34.479361,0.18888934946153313,28.99935038294643,1.6181640625,3.2339019775390625,-1.4633673429489136,2.358440399169922,0.14742179214954376,2.349795341491699,4.663487911224365,1.4248895645141602,47.641728944289,-122.14015826264203,123.61860656738281,2.857132607291524,-5.331130893101294,-139.50986433692742,-2.281553299967211,1.9479513698777824,0.0,-0.46299484126367263,1.9442693116718284,1.9759545658391604,2.002840721298749,-0.9144474338290799,-0.014749152158533008,1.7818359375000012,-2.281553299967211,1.9479513698777824,0.0,-0.22828760876916318,-0.0036820582059541103,0.44482717140727995,2.046846067472701,0.0,1.5311273944318804
14/04/2022,21:34:26,34.67036,-0.11333033908158541,29.440631043165922,1.64410400390625,3.2339019775390625,-1.630607008934021,2.276540994644165,0.11959245055913925,2.349795341491699,4.663487911224365,1.4248895645141602,47.64173288092877,-122.14016216222844,123.64410400390625,2.351754501999423,-5.00548658404724,-140.2583053779302,-2.306803543912067,1.917982640639568,0.0,0.1663180430117599,1.9153012357807528,1.9965442064095815,1.861975854773088,-0.6194219249016054,-0.009990676208090576,1.7558959960937512,-2.306803543912067,1.917982640639568,0.0,-0.1662471012465304,-0.0026814048588150513,0.4712662043523004,2.6393686881703573,0.0,1.5252780020572811
14/04/2022,21:34:27,34.85736,-0.43453564413357526,29.852810038253665,1.6636428833007812,3.2339019775390625,-1.769235610961914,2.1986968517303467,0.08980568498373032,2.349795341491699,4.663487911224365,1.4248895645141602,47.64173662124318,-122.14016637733079,123.66364288330078,1.9145240005342539,-4.359874691269257,-140.5769867371792,-2.3174357012596736,1.905122508010203,0.0,1.6208834505354623,1.9037312552763153,2.4350612207553475,1.7629386212980163,-0.3049464775870647,-0.004918491573988604,1.73635711669922,-2.3174357012596736,1.905122508010203,0.0,-0.08625766950097055,-0.0013912527338876652,0.49114887141182906,4.024576821296106,0.0,1.9439123493435184
14/04/2022,21:34:27,35.014358,-0.7165459983516484,30.181255475617945,1.675750732421875,3.2339019775390625,-1.8649510145187378,2.140854597091675,0.06829861551523209,2.349795341491699,4.663487911224365,1.4248895645141602,47.641739604317976,-122.14017008302395,123.67575073242188,1.6116525428372237,-3.7499761507075067,-140.698599297188,-2.321474175935002,1.900199371241582,0.0,3.7709190938824997,1.9000675541803977,3.1180800663849944,1.7244816473409477,-0.028305597353595724,-0.0004565418928059728,1.7242492675781262,-2.321474175935002,1.900199371241582,0.0,-0.008172657793315448,-0.00013181706118425165,0.4978414353265972,6.100565927610817,0.0,2.620238631058397
14/04/2022,21:34:27,35.171355,-1.017873577773571,30.507439167238772,1.6850128173828125,3.2339019775390625,-1.9464330673217773,2.0894393920898438,0.050585247576236725,2.349795341491699,4.663487911224365,1.4248895645141602,47.641742625276756,-122.14017412403426,123.68516540527344,1.3564745485737095,-3.136004336635428,-140.7590565130929,0.0,0.0,0.0,9.37075056940549,0.0,4.096981122493412,1.7357814638399778,0.267873577773571,0.0,1.7149871826171887,0.0,0.0,0.0,0.07687758287847614,0.0,0.4921876594287428,9.293872986527013,0.0,3.604793463064669
14/04/2022,21:34:27,35.463358,-1.576625048648566,31.067836684174836,1.7647552490234375,3.2339019775390625,-1.6644645929336548,1.6578501462936401,0.5814885497093201,2.349795341491699,4.663487911224365,1.4248895645141602,47.641747711232235,-122.14018146838214,123.76649475097656,-13.937765825902614,-2.1679819026423215,-140.9329729067109,0.0,0.0,0.0,7.872688760891936,0.0,1.3149045602631402,1.8323030226056083,0.826625048648566,0.0,1.6352447509765637,0.0,0.0,0.0,0.22535720410007198,0.0,0.44580573223842407,7.6473315567918645,0.0,0.869098828024716
14/04/2022,21:34:27,35.628355,-1.8353439181810245,31.31742871645838,1.8638839721679688,3.2339019775390625,-1.372209906578064,1.3496984243392944,0.5582022070884705,2.349795341491699,4.663487911224365,1.4248895645141602,47.64174993779667,-122.14018480896993,123.86388397216797,-14.18778287038657,-1.7271225343580414,-141.05319538943453,0.0,0.0,0.0,5.9342837772275825,0.0,1.0269582213792667,1.8808572172536118,1.0853439181810245,0.0,1.5361160278320325,0.0,0.0,0.0,0.28842614806934985,0.0,0.4082171756559159,5.6458576291582325,0.0,0.6187410457233508
14/04/2022,21:34:28,35.788363,-2.0333618443692103,31.506778174079955,1.9414291381835938,3.2339019775390625,-1.1316803693771362,1.1067085266113281,0.4261581003665924,2.349795341491699,4.663487911224365,1.4248895645141602,47.64175169096597,-122.14018746242803,123.94271850585938,-12.630090282003536,-1.3837001924007717,-141.13974950483762,0.0,0.0,0.0,4.806313678040002,0.0,1.1404718389042623,1.9427934997118452,1.2833618443692103,0.0,1.4585708618164075,0.0,0.0,0.0,0.33027539780739024,0.0,0.3753657425069068,4.476038280232612,0.0,0.7651060963973554
14/04/2022,21:34:28,35.974356,-2.226108908187598,31.690220199525356,2.00732421875,3.2339019775390625,-0.8832683563232422,0.86053466796875,0.2725582718849182,2.349795341491699,4.663487911224365,1.4248895645141602,47.64175335393245,-122.14018999128481,124.00814819335938,-10.22844003396395,-1.0492206603400513,-141.21109388656382,0.0,0.0,0.0,3.9768195984294286,0.0,1.2875251658167515,2.02939482124871,1.476108908187598,0.0,1.3926757812500012,0.0,0.0,0.0,0.3636838901426171,0.0,0.3431276263038708,3.6131357082868116,0.0,0.9443975395128807
14/04/2022,21:34:28,36.136358,-2.3544439234538004,31.81203015241772,2.0429840087890625,3.2339019775390625,-0.7103249430656433,0.6908454895019531,0.1778789758682251,2.349795341491699,4.663487911224365,1.4248895645141602,47.641754458043174,-122.14019167479906,124.04351806640625,-8.326284597257185,-0.8288805471370513,-141.24922853451113,0.0,0.0,0.0,3.5480606890144144,0.0,1.3709246631270013,2.101364486211288,1.6044439234538004,0.0,1.3570159912109387,0.0,0.0,0.0,0.38184192658269545,0.0,0.32295650406533605,3.166218762431719,0.0,1.0479681590616654
14/04/2022,21:34:28,36.326355,-2.475964209763333,31.9271968184039,2.069549560546875,3.2339019775390625,-0.541896402835846,0.5264471173286438,0.10267282277345657,2.349795341491699,4.663487911224365,1.4248895645141602,47.64175548763627,-122.140193247028,124.06954956054688,-6.388181550870708,-0.6232204014635382,-141.27761345247555,0.0,0.0,0.0,3.219582509834163,0.0,1.4360654172510023,2.1792317052633443,1.7259642097633332,0.0,1.3304504394531262,0.0,0.0,0.0,0.39645892213317485,0.0,0.30560827634399357,2.823123587700988,0.0,1.1304571409070088
14/04/2022,21:34:28,36.489358,-2.551659303717315,31.998877625912428,2.0822906494140625,3.2339019775390625,-0.43517354130744934,0.4225970208644867,0.06500343233346939,2.349795341491699,4.663487911224365,1.4248895645141602,47.64175615146796,-122.14019426156105,124.08248901367188,-5.146255117530149,-0.4039631604884673,-140.28914682262263,0.0,0.0,-1.0,3.0496060566260828,0.0,0.4716159286560464,2.2321142845501387,1.8016593037173152,0.0,1.3177093505859387,0.0,0.0,-1.0,0.4045862466477895,0.0,0.29590893196414797,2.6450198099782933,0.0,1.1757069966918985
14/04/2022,21:34:28,36.637356,-2.6151395777706057,32.05898511689156,2.060943603515625,3.2339019775390625,-0.37661489844322205,0.36576882004737854,-0.5003202557563782,2.349795341491699,4.663487911224365,1.4248895645141602,47.64175668718674,-122.14019508030542,124.06094360351562,-4.410711402005234,-0.060983686878289825,-136.6784456010565,0.0,0.0,-1.0,3.559727264192839,0.0,2.1091610726815584,2.2960439189031283,1.8651395777706057,0.0,1.3390563964843762,0.0,0.0,-1.0,0.40827139683749714,0.0,0.2931139481208844,3.1514558673553417,0.0,2.816047124560674
14/04/2022,21:34:29,36.791367,-2.670187114737928,32.11112639121711,1.93572998046875,3.2339019775390625,-0.32781052589416504,0.31852060556411743,-1.038104772567749,2.349795341491699,4.663487911224365,1.4248895645141602,47.64175717037845,-122.14019581855129,123.93262481689453,-3.68559367225592,0.30475761955031216,-131.24897406521634,0.0,0.0,-1.0,5.831269529100484,0.0,6.768375119669978,2.4147888615163895,1.920187114737928,0.0,1.4642700195312512,0.0,0.0,-1.0,0.40326376421519405,0.0,0.30751536419106706,5.42800576488529,0.0,7.460859755478911
