date,fly_time,fly_time_s,x,y,z,z_max,vx,vy,vz,vx_max,vy_max,vz_max,latitude,longitude,altitude,pitch,roll,yaw,cx,cy,cz,scx,scy,scz,d,dx,dy,dz,gc_pow_x,gc_pow_y,gc_pow_z,gpc_pow_x,gpc_pow_y,gpc_pow_z,gfc_pow_x,gfc_pow_y,gfc_pow_z
21/04/2022,17:45:24,19.260035,0.0,0.0,1.5831146240234375,1.5831146240234375,0.0,0.0,-0.04997842386364937,0,0,0,47.641468,-122.140165,123.58296203613281,0.0,0.0,0.0,0.0,0.0,0.0,-0.4036921528623978,-0.006511163755845239,2.9720998866512414,1.835116465903376,-0.25799739921976594,-0.004161248374512427,1.8168853759765637,0.0,0.0,0.0,-0.07023153657595124,-0.0011327667189669755,0.49458890718706494,-0.3334606162864465,-0.0053783970368782635,2.4775109794641765
21/04/2022,17:45:24,19.432036,0.0,0.0,1.5748748779296875,1.5831146240234375,0.0,0.0,-0.04152877256274223,0,0,0,47.641468,-122.140165,123.57487487792969,0.0,0.0,0.0,0.0,0.0,0.0,-0.4048678402444835,-0.006530126455556301,2.9719432072443897,1.8432747177793047,-0.25799739921976594,-0.004161248374512427,1.8251251220703137,0.0,0.0,0.0,-0.06992955489887619,-0.0011278960467560875,0.49469563572002084,-0.3349382853456073,-0.005402230408800213,2.477247571524369
21/04/2022,17:45:24,19.591036,0.0,0.0,1.5689773559570312,1.5831146240234375,0.0,0.0,-0.03555327281355858,0,0,0,47.641468,-122.140165,123.5688705444336,0.0,0.0,0.0,0.0,0.0,0.0,-0.4056922243143488,-0.006543422972812193,2.9718201317804667,1.8491143547629243,-0.25799739921976594,-0.004161248374512427,1.83102264404297,0.0,0.0,0.0,-0.06971449531805957,-0.0011244273438396903,0.4947678539839138,-0.33597772899628925,-0.005418995628972503,2.477052277796553
21/04/2022,17:45:24,19.775033,0.0,0.0,1.5630111694335938,1.5831146240234375,0.0,0.0,-0.029611101374030113,0,0,0,47.641468,-122.140165,123.5630111694336,0.0,0.0,0.0,0.0,0.0,0.0,-0.4064969059203092,-0.0065564017083922,2.971689265205373,1.8550223550183795,-0.25799739921976594,-0.004161248374512427,1.8369888305664075,0.0,0.0,0.0,-0.0694978590970214,-0.0011209332112423005,0.49483751113614083,-0.3369990468232878,-0.005435468497149899,2.476851754069232
21/04/2022,17:45:24,19.931034,0.0,0.0,1.5587158203125,1.5831146240234375,0.0,0.0,-0.025410698726773262,0,0,0,47.641468,-122.140165,123.55863952636719,0.0,0.0,0.0,0.0,0.0,0.0,-0.40705296358784493,-0.006565370380449228,2.9715923628288885,1.8592760430768938,-0.25799739921976594,-0.004161248374512427,1.8412841796875012,0.0,0.0,0.0,-0.06934247426789346,-0.001118427004320882,0.49488561216503146,-0.33771048931995146,-0.005446943376128346,2.476706750663857
21/04/2022,17:45:24,20.113035,0.0,0.0,1.554443359375,1.5831146240234375,0.0,0.0,-0.021321048960089684,0,0,0,47.641468,-122.140165,123.55437469482422,0.0,0.0,0.0,0.0,0.0,0.0,-0.40757814780384477,-0.006573841093610516,2.9714958683487285,1.8635072545464473,-0.25799739921976594,-0.004161248374512427,1.8455566406250012,0.0,0.0,0.0,-0.06918840440429504,-0.0011159420065209073,0.49493180779634777,-0.33838974339954975,-0.0054578990870896085,2.4765640605523807
21/04/2022,17:45:25,20.273035,0.0,0.0,1.5513381958007812,1.5831146240234375,0.0,0.0,-0.018430139869451523,0,0,0,47.641468,-122.140165,123.55128479003906,0.0,0.0,0.0,0.0,0.0,0.0,-0.40793309935971445,-0.006579566118705189,2.971427937451949,1.8665825565180107,-0.25799739921976594,-0.004161248374512427,1.84866180419922,0.0,0.0,0.0,-0.06907673513456142,-0.0011141408892671393,0.49496437633959883,-0.33885636422515303,-0.00546542522943805,2.47646356111235
21/04/2022,17:45:25,20.458035,0.0,0.0,1.5482254028320312,1.5831146240234375,0.0,0.0,-0.015615436248481274,0,0,0,47.641468,-122.140165,123.54817962646484,0.0,0.0,0.0,0.0,0.0,0.0,-0.40826106058206746,-0.006584855815839914,2.9713631753929843,1.869665513590277,-0.25799739921976594,-0.004161248374512427,1.85177459716797,0.0,0.0,0.0,-0.06896505176644448,-0.0011123395446200918,0.4949961950767287,-0.339296008815623,-0.005472516271219823,2.476366980316256
21/04/2022,17:45:25,20.645035,0.0,0.0,1.5455398559570312,1.5831146240234375,0.0,0.0,-0.013281024992465973,0,0,0,47.641468,-122.140165,123.54549407958984,0.0,0.0,0.0,0.0,0.0,0.0,-0.4085120173494471,-0.006588903505636359,2.9713124012453624,1.8723253990255195,-0.25799739921976594,-0.004161248374512427,1.85446014404297,0.0,0.0,0.0,-0.06886890777322736,-0.0011107888350520739,0.49502299253967297,-0.33964310957621974,-0.005478114670584285,2.4762894087056893
21/04/2022,17:45:25,20.829034,0.0,0.0,1.543243408203125,1.5831146240234375,0.0,0.0,-0.011379036121070385,0,0,0,47.641468,-122.140165,123.54324340820312,0.0,0.0,0.0,0.0,0.0,0.0,-0.40869416687544297,-0.0065918414012169375,2.9712750050698764,1.8745999613713187,-0.25799739921976594,-0.004161248374512427,1.8567565917968762,0.0,0.0,0.0,-0.06878684882546593,-0.001109465303636567,0.4950454360077675,-0.33990731804997704,-0.005482376097580371,2.476229569062109
21/04/2022,17:45:25,20.985037,0.0,0.0,1.5416030883789062,1.5831146240234375,0.0,0.0,-0.010082035325467587,0,0,0,47.641468,-122.140165,123.54157257080078,0.0,0.0,0.0,0.0,0.0,0.0,-0.4088029472659988,-0.006593595923645258,2.971252523193106,1.8762246814054604,-0.25799739921976594,-0.004161248374512427,1.858396911621095,0.0,0.0,0.0,-0.06872832310090786,-0.001108521340337243,0.495061205182252,-0.34007462416509093,-0.005485074583308015,2.476191318010854
21/04/2022,17:45:25,21.175037,0.0,0.0,1.5398178100585938,1.5831146240234375,0.0,0.0,-0.008754227310419083,0,0,0,47.641468,-122.140165,123.5398178100586,0.0,0.0,0.0,0.0,0.0,0.0,-0.40889212898329014,-0.00659503433844028,2.9712342628596167,1.8779930121721455,-0.25799739921976594,-0.004161248374512427,1.8601821899414075,0.0,0.0,0.0,-0.06866470871693331,-0.0011074953018860405,0.4950781233416719,-0.34022742026635683,-0.005487539036554239,2.4761561395179448
21/04/2022,17:45:26,21.359036,0.0,0.0,1.5382919311523438,1.5831146240234375,0.0,0.0,-0.007691513746976852,0,0,0,47.641468,-122.140165,123.53826904296875,0.0,0.0,0.0,0.0,0.0,0.0,-0.4089431448333517,-0.0065958571747315965,2.971224138791496,1.8795044313873464,-0.25799739921976594,-0.004161248374512427,1.8617080688476575,0.0,0.0,0.0,-0.06861040649134609,-0.0011066194595378597,0.49509238371450504,-0.3403327383420056,-0.005489237715193737,2.476131755076991
21/04/2022,17:45:26,21.544033,0.0,0.0,1.5369415283203125,1.5831146240234375,0.0,0.0,-0.006825736258178949,0,0,0,47.641468,-122.140165,123.53694152832031,0.0,0.0,0.0,0.0,0.0,0.0,-0.40896212078458205,-0.0065961632384611175,2.97122104116053,1.8808420568696498,-0.25799739921976594,-0.004161248374512427,1.8630584716796887,0.0,0.0,0.0,-0.0685624022131286,-0.001105845196985965,0.4951048524836963,-0.34039971857145346,-0.005490318041475152,2.476116188676834
21/04/2022,17:45:26,21.704041,0.0,0.0,1.5359268188476562,1.5831146240234375,0.0,0.0,-0.006224664859473705,0,0,0,47.641468,-122.140165,123.53590393066406,0.0,0.0,0.0,0.0,0.0,0.0,-0.4089590279802106,-0.006596113354519641,2.9712226442813567,1.8818471772924656,-0.25799739921976594,-0.004161248374512427,1.864073181152345,0.0,0.0,0.0,-0.06852636412574259,-0.0011052639375119966,0.4951141288826237,-0.340432663854468,-0.0054908494170076445,2.476108515398733
21/04/2022,17:45:26,21.891035,0.0,0.0,1.5348358154296875,1.5831146240234375,0.0,0.0,-0.005639141891151667,0,0,0,47.641468,-122.140165,123.53482055664062,0.0,0.0,0.0,0.0,0.0,0.0,-0.40893438245210345,-0.006595715846001786,2.971229249564132,1.8829278821548214,-0.25799739921976594,-0.004161248374512427,1.8651641845703137,0.0,0.0,0.0,-0.06848764797417048,-0.0011046394834543821,0.4951240147117568,-0.34044673447793294,-0.005491076362547404,2.4761052348523753
21/04/2022,17:45:26,22.076047,0.0,0.0,1.5338211059570312,1.5831146240234375,0.0,0.0,-0.005146628245711327,0,0,0,47.641468,-122.140165,123.53380584716797,0.0,0.0,0.0,0.0,0.0,0.0,-0.4088931852079639,-0.006595051374322116,2.971239579630128,1.8839330239060093,-0.25799739921976594,-0.004161248374512427,1.86617889404297,0.0,0.0,0.0,-0.06845166864629751,-0.0011040591717144956,0.4951331279930072,-0.34044151656166644,-0.00549099220260762,2.4761064516371207
21/04/2022,17:45:27,22.23504,0.0,0.0,1.5796356201171875,1.5831146240234375,0.0,0.0,0.8030004501342773,0,0,0.8030004501342773,47.641468,-122.140165,123.57963562011719,0.0,0.0,0.0,0.0,0.0,0.0,-0.07010381965289345,-0.0011307067685950756,0.4946348163810446,1.8385609724831915,-0.25799739921976594,-0.004161248374512427,1.8203643798828137,0.0,0.0,0.0,-0.07010381965289345,-0.0011307067685950756,0.4946348163810446,-0.0,-0.0,0.0
21/04/2022,17:45:27,22.419035,0.0,0.0,1.713287353515625,1.713287353515625,0.0,0.0,0.30238866806030273,0,0,0.8030004501342773,47.641468,-122.140165,123.7142105102539,0.0,0.0,0.0,0.0,0.0,0.0,-0.57396795885347,-0.009257547723443227,2.583303964267914,1.7063351153283244,-0.25799739921976594,-0.004161248374512427,1.6867126464843762,0.0,0.0,0.0,-0.07521694309188261,-0.001213176501481999,0.49174669793824105,-0.4987510157615873,-0.008044371221961227,2.091557266329673
21/04/2022,17:45:27,22.569038,0.0,0.0,1.7877731323242188,1.7877731323242188,0.0,0.0,0.970149576663971,0,0,0.970149576663971,47.641468,-122.140165,123.7906494140625,0.0,0.0,0.0,0.0,0.0,0.0,-0.07822455581484009,-0.0012616863841103465,0.4888255888551103,1.6327447586343258,-0.25799739921976594,-0.004161248374512427,1.6122268676757825,0.0,0.0,0.0,-0.07822455581484009,-0.0012616863841103465,0.4888255888551103,-0.0,-0.0,-0.0
21/04/2022,17:45:27,22.728036,0.0,0.0,1.9331893920898438,1.9331893920898438,0.0,0.0,0.552410900592804,0,0,0.970149576663971,47.641468,-122.140165,123.93318939208984,0.0,0.0,0.0,0.0,0.0,0.0,-0.08430813068369891,-0.0013598085594145228,0.4793228954784407,1.4893331841700042,-0.25799739921976594,-0.004161248374512427,1.4668106079101575,0.0,0.0,0.0,-0.08430813068369891,-0.0013598085594145228,0.4793228954784407,-0.0,-0.0,0.0
21/04/2022,17:45:27,22.919036,0.0,0.0,1.9851226806640625,1.9851226806640625,0.0,0.0,0.1600293666124344,0,0,0.970149576663971,47.641468,-122.140165,123.98560333251953,0.0,0.0,0.0,0.0,0.0,0.0,-0.5830567583593642,-0.009404141263860877,2.5815402088631556,1.438213406544192,-0.25799739921976594,-0.004161248374512427,1.4148773193359387,0.0,0.0,0.0,-0.08651313394716419,-0.001395373128180092,0.4744445929171863,-0.4965436244122,-0.008008768135680785,2.1070956159459695
21/04/2022,17:45:27,23.104041,0.0,0.0,2.0896072387695312,2.0896072387695312,0.0,0.0,1.171725869178772,0,0,1.171725869178772,47.641468,-122.140165,124.08960723876953,0.0,0.0,0.0,0.0,0.0,0.0,-0.5975731903569421,-0.00963827726382182,-1.5669094377467427,1.3355557504939333,-0.25799739921976594,-0.004161248374512427,1.31039276123047,0.0,0.0,0.0,-0.09092134715198953,-0.0014664733411611473,0.4617979697066722,-0.5066518432049526,-0.008171803922660672,-2.028707407453415
21/04/2022,17:45:28,23.253042,0.0,0.0,2.2593154907226562,2.2593154907226562,0.0,0.0,0.7899013757705688,0,0,1.171725869178772,47.641468,-122.140165,124.25931549072266,0.0,0.0,0.0,0.0,0.0,0.0,-0.09766555077985557,-0.0015752508190299563,0.4318089298633754,1.1695046488567264,-0.25799739921976594,-0.004161248374512427,1.140684509277345,0.0,0.0,0.0,-0.09766555077985557,-0.0015752508190299563,0.4318089298633754,-0.0,-0.0,-0.0
21/04/2022,17:45:28,23.408036,0.0,0.0,2.3260421752929688,2.3260421752929688,0.0,0.0,0.11351530253887177,0,0,1.171725869178772,47.641468,-122.140165,124.32604217529297,0.0,0.0,0.0,0.0,0.0,0.0,-0.10001867424273667,-0.0016132044232699747,0.41634465364634315,1.104520431337356,-0.25799739921976594,-0.004161248374512427,1.0739578247070325,0.0,0.0,0.0,-0.10001867424273667,-0.0016132044232699747,0.41634465364634315,-0.0,-0.0,0.0
21/04/2022,17:45:28,23.59504,0.0,0.0,2.3334503173828125,2.3334503173828125,0.0,0.0,0.01340120006352663,0,0,1.171725869178772,47.641468,-122.140165,124.33345031738281,0.0,0.0,0.0,0.0,0.0,0.0,-0.605883225073497,-0.00977231008183077,2.452167221214558,1.0973186408163418,-0.25799739921976594,-0.004161248374512427,1.0665496826171887,0.0,0.0,0.0,-0.10026448139158488,-0.0016171690547030105,0.41448887131951795,-0.5056187436819122,-0.00815514102712776,2.03767834989504
21/04/2022,17:45:28,23.784034,0.0,0.0,2.4118728637695312,2.4118728637695312,0.0,0.0,1.0373343229293823,0,0,1.171725869178772,47.641468,-122.140165,124.41187286376953,0.0,0.0,0.0,0.0,0.0,0.0,-0.6005951203625328,-0.009687018070363602,-1.704097837921057,1.0212615783173415,-0.25799739921976594,-0.004161248374512427,0.98812713623047,0.0,0.0,0.0,-0.10262781913605369,-0.00165528740542025,0.39306339260461076,-0.4979673012264791,-0.008031730664943353,-2.0971612305256677
21/04/2022,17:45:28,23.970035,0.0,0.0,2.5880966186523438,2.5880966186523438,0.0,0.0,0.518278181552887,0,0,1.171725869178772,47.641468,-122.140165,124.58809661865234,0.0,0.0,0.0,0.0,0.0,0.0,0.0,0.0,0.0,0.8519196409497538,-0.25799739921976594,-0.004161248374512427,0.8119033813476575,0.0,0.0,0.0,-0.0,-0.0,0.0,-0.0,-0.0,-0.0
21/04/2022,17:45:28,24.155037,0.0,0.0,2.6158981323242188,2.6158981323242188,0.0,0.0,-0.061608754098415375,0,0,1.171725869178772,47.641468,-122.140165,124.61553192138672,0.0,0.0,0.0,0.0,0.0,0.0,0.0,0.0,0.0,0.8254669665618656,-0.25799739921976594,-0.004161248374512427,0.7841018676757825,0.0,0.0,0.0,-0.0,-0.0,0.0,-0.0,-0.0,0.0
21/04/2022,17:45:29,24.345037,0.0,0.0,2.6016998291015625,2.6158981323242188,0.0,0.0,-0.07261000573635101,0,0,1.171725869178772,47.641468,-122.140165,124.60169982910156,0.0,0.0,0.0,0.0,0.0,0.0,0.0,0.0,0.0,0.8389655158876759,-0.25799739921976594,-0.004161248374512427,0.7983001708984387,0.0,0.0,0.0,-0.0,-0.0,0.0,-0.0,-0.0,0.0
21/04/2022,17:45:29,24.496032,0.0,0.0,2.5915451049804688,2.6158981323242188,0.0,0.0,-0.0624445416033268,0,0,1.171725869178772,47.641468,-122.140165,124.59154510498047,0.0,0.0,0.0,0.0,0.0,0.0,0.0,0.0,0.0,0.8486337792435799,-0.25799739921976594,-0.004161248374512427,0.8084548950195325,0.0,0.0,0.0,-0.0,-0.0,0.0,-0.0,-0.0,0.0
21/04/2022,17:45:29,24.677035,0.0,0.0,2.5809478759765625,2.6158981323242188,0.0,0.0,-0.051450569182634354,0,0,1.171725869178772,47.641468,-122.140165,124.58094787597656,0.0,0.0,0.0,0.0,0.0,0.0,0.0,0.0,0.0,0.8587353235191296,-0.25799739921976594,-0.004161248374512427,0.8190521240234387,0.0,0.0,0.0,-0.0,-0.0,0.0,-0.0,-0.0,0.0
21/04/2022,17:45:29,24.83407,0.0,0.0,2.5736465454101562,2.6158981323242188,0.0,0.0,-0.04393618926405907,0,0,1.171725869178772,47.641468,-122.140165,124.57351684570312,0.0,0.0,0.0,0.0,0.0,0.0,0.0,0.0,0.0,0.8657020306691955,-0.25799739921976594,-0.004161248374512427,0.826353454589845,0.0,0.0,0.0,-0.0,-0.0,0.0,-0.0,-0.0,0.0
21/04/2022,17:45:29,24.993034,0.0,0.0,2.5674057006835938,2.6158981323242188,0.0,0.0,-0.037587281316518784,0,0,1.171725869178772,47.641468,-122.140165,124.56729125976562,0.0,0.0,0.0,0.0,0.0,0.0,0.0,0.0,0.0,0.8716611963638036,-0.25799739921976594,-0.004161248374512427,0.8325942993164075,0.0,0.0,0.0,-0.0,-0.0,0.0,-0.0,-0.0,0.0
21/04/2022,17:45:29,25.176035,0.0,0.0,2.5610122680664062,2.6158981323242188,0.0,0.0,-0.031180590391159058,0,0,1.171725869178772,47.641468,-122.140165,124.56092071533203,0.0,0.0,0.0,0.0,2.0,0.0,0.0,2.0,0.0,0.877770122712818,-0.25799739921976594,-0.004161248374512427,0.838987731933595,0.0,2.0,0.0,-0.0,-0.0,0.0,-0.0,-0.0,0.0
21/04/2022,17:45:30,25.363034,-7.757742423564196e-05,0.006995189934968948,2.5671310424804688,2.6158981323242188,-5.212672654630879e-11,0.14135712385177612,0.17191444337368011,0,0.14135712385177612,1.171725869178772,47.64146806668696,-122.140165,124.56764221191406,1.760367837032358e-09,-8.181720727739881,-4.95039640218492e-08,-2.592021494910248e-09,3.0,0.0,-2.592021494910248e-09,3.0,0.0,0.8719339788837771,-0.25803263827235534,-0.004161816746328428,0.8328689575195325,-2.592021494910248e-09,3.0,0.0,-0.0,-0.0,0.0,-0.0,-0.0,0.0
21/04/2022,17:45:30,25.548038,-0.0007768085924908519,0.07004509773105383,2.6366500854492188,2.6366500854492188,-6.634706672947743e-10,0.5912612080574036,0.561782956123352,0,0.5912612080574036,1.171725869178772,47.641468630254856,-122.140165,124.63665008544922,1.4628096802883063e-08,-14.331881953941858,-1.786463420581847e-07,-9.35390059667804e-09,3.0,0.0,-9.35390059667804e-09,3.0,0.0,0.8058941068676277,-0.2583502584732875,-0.00416693965279491,0.7633499145507825,-9.35390059667804e-09,3.0,0.0,-0.0,-0.0,0.0,-0.0,-0.0,-0.0
21/04/2022,17:45:30,25.733037,-0.0024430452613160014,0.22029023617506027,2.7418594360351562,2.7418594360351562,-1.9547059526558996e-09,1.05706787109375,0.5397567749023438,0,1.05706787109375,1.171725869178772,47.6414700105303,-122.140165,124.74348449707031,4.115901069129627e-08,-14.515596136051194,-3.628981291010943e-07,-1.900130160642464e-08,3.0,0.0,-1.900130160642464e-08,3.0,0.0,0.7073209836319906,-0.2591071335912497,-0.004179147315988008,0.658140563964845,-1.900130160642464e-08,3.0,0.0,-0.0,-0.0,0.0,-0.0,-0.0,-0.0
21/04/2022,17:45:30,25.889037,-0.00451347220223397,0.40698133036494255,2.8151931762695312,2.8151931762695312,-3.2177769337948803e-09,1.3924561738967896,0.4098702371120453,0,1.3924561738967896,1.171725869178772,47.64147169939893,-122.140165,124.8164291381836,7.142158250000475e-08,-12.886342486802056,-5.486958754354503e-07,-2.8729648855383852e-08,3.0,0.0,-2.8729648855383852e-08,3.0,0.0,0.6400323211727804,-0.26004760867028326,-0.004194316268875564,0.58480682373047,-2.8729648855383852e-08,3.0,0.0,-0.0,-0.0,0.0,-0.0,-0.0,-0.0
21/04/2022,17:45:30,26.077034,-0.007736375671811402,0.6975914565846324,2.877471923828125,2.877471923828125,-4.514420837153921e-09,1.7372963428497314,0.26129141449928284,0,1.7372963428497314,1.171725869178772,47.64147432357129,-122.14016500000002,124.87825775146484,9.953392232089075e-08,-10.471608923693658,-7.388516656588505e-07,-3.868618274877378e-08,2.9999999999999996,0.0,-3.868618274877378e-08,2.9999999999999996,0.0,0.5843301208347498,-0.2615115844540453,-0.004217928781516944,0.5225280761718762,-3.868618274877378e-08,2.9999999999999996,0.0,-0.0,-0.0,0.0,-0.0,-0.0,-0.0
21/04/2022,17:45:31,26.260039,-0.011542326188646257,1.0407752878963947,2.8988494873046875,2.8988494873046875,-4.230726435849874e-09,1.936403751373291,0.005505590699613094,0,1.936403751373291,1.171725869178772,47.641477416892684,-122.14016500000002,124.89886474609375,1.2623571613796207e-07,-4.179928913917479,-9.252358998473555e-07,-4.844523842996656e-08,2.9999999999999996,0.0,-4.844523842996656e-08,2.9999999999999996,0.0,0.5660966130674084,-0.2632404072770924,-0.0042458130205984546,0.5011505126953137,-4.844523842996656e-08,2.9999999999999996,0.0,-0.0,-0.0,0.0,-0.0,-0.0,0.0
21/04/2022,17:45:31,26.411034,-0.014820035663433373,1.3363274335861206,2.897796630859375,2.8988494873046875,-1.8965029546791357e-09,2.00276780128479,-0.01291254535317421,0,2.00276780128479,1.171725869178772,47.6414800780299,-122.14016500000002,124.89775848388672,1.4916490427363227e-07,-1.6156903356836887,-1.0957251105745359e-06,-5.737203262891376e-08,2.999999999999999,0.0,-5.737203262891376e-08,2.999999999999999,0.0,0.5677218045758706,-0.26472928057011746,-0.004269827105969792,0.5022033691406262,-5.737203262891376e-08,2.999999999999999,0.0,-0.0,-0.0,0.0,-0.0,-0.0,0.0
21/04/2022,17:45:31,26.567038,-0.018302243552170694,1.6503192503005266,2.8957366943359375,2.8988494873046875,1.9387131899861743e-09,2.0250985622406006,-0.012780595570802689,1.9387131899861743e-09,2.0250985622406006,1.171725869178772,47.64148290388913,-122.14016500000002,124.89569854736328,1.7300698991546868e-07,-0.490567050541717,-1.2913901722935983e-06,-6.761703130326042e-08,2.999999999999999,0.0,-6.761703130326042e-08,2.999999999999999,0.0,0.5702819515347971,-0.2663110453326628,-0.004295339440849588,0.5042633056640637,-6.761703130326042e-08,2.999999999999999,0.0,-0.0,-0.0,0.0,-0.0,-0.0,0.0
21/04/2022,17:45:31,26.752044,-0.022477170918136835,2.026773783378303,2.8935394287109375,2.8988494873046875,7.861509665474387e-09,2.0268478393554688,-0.010835339315235615,7.861509665474387e-09,2.0268478393554688,1.171725869178772,47.64148623659422,-122.14016500000002,124.89353942871094,2.0194788619200894e-07,-0.011320070623717662,-1.5874314480184486e-06,-8.311771625286942e-08,2.999999999999999,0.0,-8.311771625286942e-08,2.999999999999999,0.0,0.5731110467545989,-0.2682074719272137,-0.004325926966568083,0.5064605712890637,-8.311771625286942e-08,2.999999999999999,0.0,-0.0,-0.0,0.0,-0.0,-0.0,0.0
21/04/2022,17:45:31,26.910034,-0.02590670471545309,2.3360161036252975,2.8919754028320312,2.8988494873046875,1.3618156380346136e-08,2.0213546752929688,-0.009545874781906605,1.3618156380346136e-08,2.0268478393554688,1.171725869178772,47.64148907358629,-122.140165,124.89195251464844,2.2573266672746703e-07,0.09849676978820034,-1.8187858430543952e-06,-1.2697520539984012e-07,3.999999999999998,0.0,-1.2697520539984012e-07,3.999999999999998,0.0,0.5752227800361345,-0.26976531222329436,-0.004351053422956941,0.50802459716797,-1.2697520539984012e-07,3.999999999999998,0.0,-0.0,-0.0,0.0,-0.0,-0.0,0.0
21/04/2022,17:45:31,27.090037,-0.03009584080427885,2.713751987554133,2.8929443359375,2.8988494873046875,1.9574793341803343e-08,2.075836658477783,0.03889908641576767,1.9574793341803343e-08,2.075836658477783,1.171725869178772,47.641492473834354,-122.14016499999995,124.89305877685547,2.550548510267692e-07,-3.997472942056647,-2.0439693281150897e-06,-1.4269597834153845e-07,3.9999999999999973,0.0,-1.4269597834153845e-07,3.9999999999999973,0.0,0.5752636391433936,-0.27166819536455356,-0.004381745086524891,0.5070556640625012,-1.4269597834153845e-07,3.9999999999999973,0.0,-0.0,-0.0,0.0,-0.0,-0.0,0.0
21/04/2022,17:45:32,27.246034,-0.03370685165282339,3.039358298294246,2.9014358520507812,2.9014358520507812,2.2251679610008068e-08,2.196155548095703,0.06490031629800797,2.2251679610008068e-08,2.196155548095703,1.171725869178772,47.6414954068232,-122.14016499999993,124.9016342163086,2.76151961146056e-07,-5.081527561904806,-2.1548022388762204e-06,-1.5043357519094158e-07,3.9999999999999973,0.0,-1.5043357519094158e-07,3.9999999999999973,0.0,0.568579953036578,-0.27330847249435375,-0.004408201169264103,0.49856414794922,-1.5043357519094158e-07,3.9999999999999973,0.0,-0.0,-0.0,0.0,-0.0,-0.0,0.0
21/04/2022,17:45:32,27.427035,-0.03838479146361351,3.4611698910593987,2.9129714965820312,2.9129714965820312,2.5469248043918924e-08,2.349897861480713,0.05514444783329964,2.5469248043918924e-08,2.349897861480713,1.171725869178772,47.6414991430665,-122.14016499999987,124.91297149658203,3.0222767089975465e-07,-4.830778526986915,-2.2929687592417015e-06,-1.6007941797654735e-07,3.999999999999997,0.0,-1.6007941797654735e-07,3.999999999999997,0.0,0.5595355685936183,-0.27543339268128797,-0.004442474075505132,0.48702850341797,-1.6007941797654735e-07,3.999999999999997,0.0,-0.0,-0.0,0.0,-0.0,-0.0,0.0
21/04/2022,17:45:32,27.581034,-0.04237778775859624,3.821220073848963,2.920166015625,2.920166015625,2.8901686377480473e-08,2.4603049755096436,0.04013312608003616,2.8901686377480473e-08,2.4603049755096436,1.171725869178772,47.64150244902276,-122.1401649999998,124.9202880859375,3.1770525466515014e-07,-4.234556943364768,-2.3386694165456546e-06,-1.6326992573766564e-07,3.9999999999999964,0.0,-1.6326992573766564e-07,3.9999999999999964,0.0,0.5541900854529018,-0.27724718554865846,-0.0044717287991717924,0.47983398437500124,-1.6326992573766564e-07,3.9999999999999964,0.0,-0.0,-0.0,0.0,-0.0,-0.0,0.0
21/04/2022,17:45:32,27.769037,-0.047648032079450786,4.296440056525171,2.9262008666992188,2.9262008666992188,3.463977193973733e-08,2.5758445262908936,0.02412610687315464,3.463977193973733e-08,2.5758445262908936,1.171725869178772,47.64150665869705,-122.14016499999973,124.92620086669922,3.3630520510929795e-07,-3.4275137038991366,-2.385754400568816e-06,-1.66557077735478e-07,3.9999999999999964,0.0,-1.66557077735478e-07,3.9999999999999964,0.0,0.5501864579522542,-0.2796411568767625,-0.004510341239948978,0.4737991333007825,-1.66557077735478e-07,3.9999999999999964,0.0,-0.0,-0.0,0.0,-0.0,-0.0,0.0
21/04/2022,17:45:32,27.95904,-0.05295715434476733,4.775165652856231,2.9296188354492188,2.9296188354492188,4.169639566953265e-08,2.6638128757476807,0.013580963015556335,4.169639566953265e-08,2.6638128757476807,1.171725869178772,47.64151103797053,-122.14016499999964,124.92965698242188,3.521293254604412e-07,-2.7399071726392776,-2.3920639664547825e-06,-1.6699756853180452e-07,3.9999999999999964,0.0,-1.6699756853180452e-07,3.9999999999999964,0.0,0.5484823704125721,-0.2820527878220548,-0.0045492385132597235,0.4703811645507825,-1.6699756853180452e-07,3.9999999999999964,0.0,-0.0,-0.0,0.0,-0.0,-0.0,0.0
21/04/2022,17:45:32,28.143036,-0.05842438118997961,5.268147892318666,2.9314651489257812,2.9314651489257812,5.008314474252984e-08,2.7319231033325195,0.00693912710994482,5.008314474252984e-08,2.7319231033325195,1.171725869178772,47.64151540197245,-122.14016499999951,124.93146514892578,3.6807751970702375e-07,-2.1813072462463032,-2.404393497187199e-06,-1.6785833215783051e-07,3.9999999999999964,0.0,-1.6785833215783051e-07,3.9999999999999964,0.0,0.5481850426086566,-0.28453624136007166,-0.004589294215485928,0.46853485107422,-1.6785833215783051e-07,3.9999999999999964,0.0,-0.0,-0.0,0.0,-0.0,-0.0,0.0
21/04/2022,17:45:33,28.324034,-0.06401336775161326,5.7721091993153095,2.9323501586914062,2.9323501586914062,5.964652416423633e-08,2.78413987159729,0.0029633769299834967,5.964652416423633e-08,2.78413987159729,1.171725869178772,47.64151993653762,-122.14016499999939,124.9323501586914,3.862202296969889e-07,-1.7432023938415613,-2.471744390211159e-06,-1.7256031150753682e-07,3.9999999999999964,0.0,-1.7256031150753682e-07,3.9999999999999964,0.0,0.5487530139262946,-0.28707500252804885,-0.004630241976259164,0.467649841308595,-1.7256031150753682e-07,3.9999999999999964,0.0,-0.0,-0.0,0.0,-0.0,-0.0,0.0
21/04/2022,17:45:33,28.506037,-0.06960173463448882,6.276014762930572,2.9326629638671875,2.9326629638671875,7.008156899246387e-08,2.823392152786255,0.0005606472259387374,7.008156899246387e-08,2.823392152786255,1.171725869178772,47.641524470601205,-122.14016499999924,124.93266296386719,4.0373002855029457e-07,-1.410161257177863,-2.528303148324846e-06,-1.7650885770722843e-07,3.999999999999996,0.0,-1.7650885770722843e-07,3.999999999999996,0.0,0.549819693750952,-0.2896134843606555,-0.004671185231623909,0.46733703613281374,-1.7650885770722843e-07,3.999999999999996,0.0,-0.0,-0.0,0.0,-0.0,-0.0,0.0
21/04/2022,17:45:33,28.689035,-0.07525896793231368,6.786130169406533,2.9326248168945312,2.9326629638671875,8.14398575244013e-08,2.8533782958984375,-0.0008796410402283072,8.14398575244013e-08,2.8533782958984375,1.171725869178772,47.64152913743511,-122.14016499999906,124.9326171875,4.2218832366227987e-07,-1.1543046032490714,-2.624205165291976e-06,-1.8320408152874796e-07,3.999999999999996,0.0,-1.8320408152874796e-07,3.999999999999996,0.0,0.5512103251075015,-0.29218325039568044,-0.004712633070897532,0.46737518310547,-1.8320408152874796e-07,3.999999999999996,0.0,-0.0,-0.0,0.0,-0.0,-0.0,0.0
21/04/2022,17:45:33,28.837034,-0.08001408609561622,7.214901592582464,2.93243408203125,2.9326629638671875,9.15598690198749e-08,2.8728580474853516,-0.0016198738012462854,9.15598690198749e-08,2.8728580474853516,1.171725869178772,47.641532995974515,-122.14016499999889,124.93242645263672,4.3782706234376894e-07,-0.9876381177842518,-2.7183802420005855e-06,-1.8977874217628178e-07,3.9999999999999956,0.0,-1.8977874217628178e-07,3.9999999999999956,0.0,0.5525200160589272,-0.29434323843655763,-0.00474747158768718,0.46756591796875124,-1.8977874217628178e-07,3.9999999999999956,0.0,-0.0,-0.0,0.0,-0.0,-0.0,0.0
21/04/2022,17:45:33,29.018032,-0.08585412392858416,7.741500802338123,2.9320831298828125,2.9326629638671875,1.0466877142789599e-07,2.8913657665252686,-0.0021744866389781237,1.0466877142789599e-07,2.8913657665252686,1.171725869178772,47.641537734733525,-122.14016499999863,124.93207550048828,4.576672611959493e-07,-0.8290603477997103,-2.877657312721138e-06,-2.0089837940430378e-07,3.999999999999995,0.0,-2.0089837940430378e-07,3.999999999999995,0.0,0.5542344227270521,-0.2969960461283449,-0.004790258808521131,0.46791687011718874,-2.0089837940430378e-07,3.999999999999995,0.0,-0.0,-0.0,0.0,-0.0,-0.0,0.0
21/04/2022,17:45:33,29.204037,-0.09163058106787503,8.262367236427963,2.9316635131835938,2.9326629638671875,1.1834195845494833e-07,2.9052038192749023,-0.0024900082498788834,1.1834195845494833e-07,2.9052038192749023,1.171725869178772,47.64154242178618,-122.14016499999838,124.93165588378906,4.767775047256787e-07,-0.7103932147085376,-3.0078023165174556e-06,-2.099842146893688e-07,3.9999999999999947,0.0,-2.099842146893688e-07,3.9999999999999947,0.0,0.555998695928187,-0.29961997790211237,-0.004832580288743671,0.4683364868164075,-2.099842146893688e-07,3.9999999999999947,0.0,-0.0,-0.0,0.0,-0.0,-0.0,0.0
21/04/2022,17:45:34,29.381034,-0.0975281378487125,8.79415337741375,2.9311904907226562,2.9326629638671875,1.3299528234256286e-07,2.915896415710449,-0.002671868074685335,1.3299528234256286e-07,2.915896415710449,1.171725869178772,47.64154720700143,-122.14016499999806,124.93118286132812,4.961002309785529e-07,-0.6186509294908206,-3.132422628159747e-06,-1.6401326527608481e-07,2.9999999999999956,0.0,-1.6401326527608481e-07,2.9999999999999956,0.0,0.5578447511251622,-0.302298920028401,-0.004875789032714906,0.468809509277345,-1.6401326527608481e-07,2.9999999999999956,0.0,-0.0,-0.0,0.0,-0.0,-0.0,0.0
21/04/2022,17:45:34,29.529034,-0.10226555506233126,9.221329270862043,2.9312591552734375,2.9326629638671875,1.47522982274495e-07,2.8861827850341797,0.01963622123003006,1.47522982274495e-07,2.915896415710449,1.171725869178772,47.64155104988826,-122.1401649999978,124.93132019042969,5.120297747732488e-07,2.9221563028328257,-3.202270045774192e-06,-1.117803116734983e-07,1.999999999999997,0.0,-1.117803116734983e-07,1.999999999999997,0.0,0.5589565536464443,-0.3044508767578271,-0.004910498012225872,0.46874084472656374,-1.117803116734983e-07,1.999999999999997,0.0,-0.0,-0.0,0.0,-0.0,-0.0,0.0
21/04/2022,17:45:34,29.682039,-0.1070450076367706,9.652295640669763,2.9450531005859375,2.9450531005859375,1.7224058979081747e-07,2.719524383544922,0.19031767547130585,1.7224058979081747e-07,2.915896415710449,1.171725869178772,47.64155492320744,-122.14016499999745,124.94561767578125,5.314184696017844e-07,8.123891836621436,-3.27492889316443e-06,-5.7158291954412894e-08,0.9999999999999983,-1.0,-5.7158291954412894e-08,0.9999999999999983,-1.0,0.5486512073118597,-0.3066219298740648,-0.00494551499797069,0.45494689941406374,-5.7158291954412894e-08,0.9999999999999983,-1.0,-0.0,-0.0,0.0,-0.0,-0.0,0.0
21/04/2022,17:45:34,29.861036,-0.11216402787249535,10.113978940062225,2.9378814697265625,2.9450531005859375,3.228963032597676e-05,2.4817681312561035,-0.36653411388397217,3.228963032597676e-05,2.915896415710449,1.171725869178772,47.64155907097155,-122.14016499998145,124.9367904663086,-0.08343926357528757,14.326351321411137,-0.3486839500555113,0.0,0.0,-1.0,-0.7103125276047572,-0.011456653671047066,1.1821283337291333,0.5559026294518175,-0.3089488091396582,-0.0049830453087036375,0.46211853027343874,0.0,0.0,-1.0,-0.0,-0.0,0.0,-0.7103125276047572,-0.011456653671047066,2.1821283337291333
21/04/2022,17:45:34,30.04504,-0.11653729062527418,10.510046486742795,2.9116134643554688,2.9450531005859375,0.00016899083857424557,1.8721410036087036,0.284202516078949,0.00016899083857424557,2.915896415710449,1.171725869178772,47.641562618354406,-122.14016499972062,124.91243743896484,-0.46947324970122045,12.976820870002292,-2.083529388464453,0.0,0.0,-1.0,0.0,0.0,-1.0,0.5790031786534185,-0.31096320858634574,-0.0050155356223609004,0.4883865356445325,0.0,0.0,-1.0,-0.0,-0.0,0.0,-0.0,-0.0,-0.0
21/04/2022,17:45:35,30.224036,-0.119928635424003,10.81991061847657,2.9462203979492188,2.9462203979492188,0.0003789053298532963,1.58133864402771,-0.23103462159633636,0.0003789053298532963,2.915896415710449,1.171725869178772,47.64156535585996,-122.14016499912711,124.94622039794922,-1.2163657149808458,12.26647133564647,-5.7322900488069015,0.0,0.0,0.0,0.0,0.0,0.0,0.5510361895969029,-0.3125692545580442,-0.00504143958964498,0.4537796020507825,0.0,0.0,0.0,-0.0,-0.0,0.0,-0.0,-0.0,0.0
21/04/2022,17:45:35,30.399035,-0.12250664131715894,11.061309294775128,2.9253692626953125,2.9462203979492188,0.0007425856310874224,1.1505765914916992,0.24438609182834625,0.0007425856310874224,2.915896415710449,1.171725869178772,47.64156755901441,-122.14016499777773,124.92609405517578,-1.5678922532505983,9.781500263841192,-9.15767336900741,0.0,0.0,-1.0,0.0,0.0,-1.0,0.569054834681957,-0.3138844335638229,-0.005062652154256497,0.47463073730468874,0.0,0.0,-1.0,-0.0,-0.0,0.0,-0.0,-0.0,-0.0
21/04/2022,17:45:35,30.567045,-0.12435143638867885,11.240523903630674,2.9315643310546875,2.9462203979492188,0.0009187519317492843,0.9768663644790649,-0.37085118889808655,0.0009187519317492843,2.915896415710449,1.171725869178772,47.641569166796714,-122.14016499587075,124.93047332763672,-1.662428412822731,8.195144084260315,-11.514423488253419,0.0,0.0,0.0,-0.6352124642690578,-0.010245362326921513,2.20717691806752,0.564480854321856,-0.31492992471964115,-0.005079514914834604,0.46843566894531374,0.0,0.0,0.0,-0.0,-0.0,0.0,-0.6352124642690578,-0.010245362326921513,2.20717691806752
21/04/2022,17:45:35,30.712037,-0.1255882433615625,11.364519539289176,2.8886947631835938,2.9462203979492188,0.0009719228255562484,0.7545189261436462,0.04985911399126053,0.0009719228255562484,2.915896415710449,1.171725869178772,47.64157027652919,-122.14016499402717,124.8888168334961,-1.353955042528338,5.662638236871788,-13.414508634402674,0.0,0.0,0.0,0.0,0.0,0.0,0.6009333961962389,-0.3156928488827263,-0.005091820143270809,0.5113052368164075,0.0,0.0,0.0,-0.0,-0.0,0.0,-0.0,-0.0,0.0
21/04/2022,17:45:35,30.89205,-0.1267014149343595,11.47795171290636,2.9407119750976562,2.9462203979492188,0.000723791541531682,0.5689535140991211,0.361142098903656,0.0009719228255562484,2.915896415710449,1.171725869178772,47.64157129212457,-122.14016499210938,124.9417953491211,-1.2102296588820864,4.576313192135113,-14.744724741506719,0.0,0.0,0.0,0.0,0.0,0.0,0.5577510342400587,-0.31640904218270904,-0.0051033716481097,0.459288024902345,0.0,0.0,0.0,-0.0,-0.0,0.0,-0.0,-0.0,-0.0
21/04/2022,17:45:35,31.067038,-0.12757524941116571,11.567360817454755,2.9992141723632812,2.9992141723632812,0.0006093715201132,0.44337502121925354,0.2949978709220886,0.0009719228255562484,2.915896415710449,1.171725869178772,47.641572081235964,-122.14016499057121,124.99921417236328,-1.0183770925286615,3.6812107159313183,-15.404326036966788,0.5312578187852085,-1.9281507020924435,0.0,0.5312578187852085,-1.9281507020924435,0.0,0.511008734125022,-0.3169771422485498,-0.005112534552395687,0.40078582763672,0.5312578187852085,-1.9281507020924435,0.0,-0.0,-0.0,0.0,-0.0,-0.0,-0.0
21/04/2022,17:45:36,31.243036,-0.12823146779555827,11.63360601104796,3.0551528930664062,3.0551528930664062,0.0003397422842681408,0.2789878845214844,0.35329151153564453,0.0009719228255562484,2.915896415710449,1.171725869178772,47.64157268485455,-122.14016498951334,125.05621337890625,-1.8999663115049545,6.732065015723216,-15.810798075509787,0.0,0.0,0.0,0.0,0.0,0.0,0.468702136769167,-0.31738928751075357,-0.005119182056624538,0.344847106933595,0.0,0.0,0.0,-0.0,-0.0,0.0,-0.0,-0.0,-0.0
21/04/2022,17:45:36,31.419034,-0.12852097244467586,11.667749538086355,3.1041641235351562,3.1041641235351562,0.000665439642034471,0.12226138263940811,0.19526241719722748,0.0009719228255562484,2.915896415710449,1.171725869178772,47.64157298450127,-122.14016498834006,125.10416412353516,-0.9788552883128331,3.4585118287576933,-15.88328466299321,0.27367863087268013,-0.9618211928438961,0.0,0.27367863087268013,-0.9618211928438961,0.0,0.43410471360591624,-0.3176504169789388,-0.005123393822243472,0.295835876464845,0.27367863087268013,-0.9618211928438961,0.0,-0.0,-0.0,0.0,-0.0,-0.0,-0.0
21/04/2022,17:45:36,31.592037,-0.12856328557245433,11.682256887666881,3.13336181640625,3.13336181640625,0.0006400934653356671,0.05205599218606949,0.1458597034215927,0.0009719228255562484,2.915896415710449,1.171725869178772,47.641573115024315,-122.14016498676156,125.13336181640625,-0.41654814381613814,1.4416097770514475,-15.929022402719333,0.8233390217616552,-2.884807247502779,0.0,0.8233390217616552,-2.884807247502779,0.0,0.4149045268693479,-0.31784204350970924,-0.005126484572739898,0.26663818359375124,0.8233390217616552,-2.884807247502779,0.0,-0.0,-0.0,0.0,-0.0,-0.0,-0.0
21/04/2022,17:45:36,31.764033,-0.12852262216620147,11.682992218062282,3.1671676635742188,3.1671676635742188,6.038116225681733e-06,-0.09736935794353485,0.3256567716598511,0.0009719228255562484,2.915896415710449,1.171725869178772,47.64157311907589,-122.14016498611161,125.16814422607422,-2.3127477911427294,8.075474992912918,-16.110799223341367,0.277495737955783,-0.9607268682702569,0.0,0.277495737955783,-0.9607268682702569,0.0,0.3940737665845498,-0.31789455342340256,-0.005127331506830757,0.2328323364257825,0.277495737955783,-0.9607268682702569,0.0,-0.0,-0.0,0.0,-0.0,-0.0,-0.0
21/04/2022,17:45:36,31.937035,-0.1281133354641497,11.649945452809334,3.2054290771484375,3.2054290771484375,0.0005464735440909863,-0.2606087625026703,0.09465563297271729,0.0009719228255562484,2.915896415710449,1.171725869178772,47.64157281728612,-122.14016498552016,125.2057113647461,-0.8014496966731405,2.81706665023135,-15.958140203039555,0.0,0.0,0.0,0.0,0.0,0.0,0.3726424996338835,-0.317770859960985,-0.005125336450984008,0.19457092285156374,0.0,0.0,0.0,-0.0,-0.0,0.0,-0.0,-0.0,0.0
21/04/2022,17:45:36,32.107036,-0.1274607457453385,11.600768155418336,3.2195205688476562,3.2195205688476562,0.0005899854004383087,-0.29066720604896545,0.07637728750705719,0.0009719228255562484,2.915896415710449,1.171725869178772,47.64157237394551,-122.1401649840912,125.2197494506836,0.09964699874183391,-0.36913681823873634,-15.920617172569777,0.0,0.0,-5.0,0.0,0.0,-5.0,0.36536020712004474,-0.3176303040288311,-0.005123069419820325,0.180479431152345,0.0,0.0,-5.0,-0.0,-0.0,0.0,-0.0,-0.0,0.0
21/04/2022,17:45:37,32.254071,-0.12694035796448588,11.560677954927087,3.204498291015625,3.2195205688476562,0.0004877184401266277,-0.27682167291641235,-0.437263160943985,0.0009719228255562484,2.915896415710449,1.171725869178772,47.64157202104867,-122.14016498310605,125.20449829101562,0.4360090522635193,-1.553190537933466,-15.917128906446056,0.0,0.0,-4.0,-0.5980716541103747,-0.009646317001780425,-1.9326456401618746,0.3729021347763264,-0.31750410850194943,-0.005121034008096714,0.19550170898437624,0.0,0.0,-4.0,-0.0,-0.0,0.0,-0.5980716541103747,-0.009646317001780425,2.0673543598381254
21/04/2022,17:45:37,32.429032,-0.12635030667297542,11.514131757430732,3.0547561645507812,3.2195205688476562,0.00034623133251443505,-0.24871063232421875,-1.2775590419769287,0.0009719228255562484,2.915896415710449,1.171725869178772,47.641571602225895,-122.14016498212297,125.05475616455078,0.4764699515340107,-1.6940469474877502,-15.911903376606087,0.0,0.0,0.0,-0.3066689354768217,-0.004946273152851496,2.869058540688702,0.4689630835517002,-0.31734345646548445,-0.005118442846217874,0.34524383544922,0.0,0.0,0.0,-0.0,-0.0,0.0,-0.3066689354768217,-0.004946273152851496,2.869058540688702
21/04/2022,17:45:37,32.605037,-0.12588474689982831,11.475946560502052,2.8726806640625,3.2195205688476562,0.0001437152677681297,-0.1846291720867157,-0.4835920035839081,0.0009719228255562484,2.915896415710449,1.171725869178772,47.641571253654206,-122.140164981557,124.8711929321289,0.33234997101867936,-1.1723866064950286,-15.905094191561334,0.0,0.0,-5.0,-0.49932965322409506,-0.008053704084261188,-2.6045365677026147,0.6153887874057191,-0.31719316506324763,-0.005116018791344601,0.5273193359375012,0.0,0.0,-5.0,-0.0,-0.0,0.0,-0.49932965322409506,-0.008053704084261188,2.3954634322973853
21/04/2022,17:45:37,32.751038,-0.12558968970552087,11.450966958887875,2.8026885986328125,3.2195205688476562,0.00011473760241642594,-0.16093017160892487,-0.7859255075454712,0.0009719228255562484,2.915896415710449,1.171725869178772,47.6415710338729,-122.14016498132277,124.80268859863281,0.33607757871687133,-1.1833988995089766,-15.903731022285264,0.0,0.0,0.0,-0.3565616703137843,-0.005750994682480536,2.477983539372251,0.6762767092461948,-0.317085353504038,-0.005114279895227725,0.5973114013671887,0.0,0.0,0.0,-0.0,-0.0,0.0,-0.3565616703137843,-0.005750994682480536,2.477983539372251
21/04/2022,17:45:37,32.926036,-0.12530511140357703,11.426538941450417,2.706451416015625,3.2195205688476562,4.7315345000242814e-05,-0.11607980728149414,0.00686667300760746,0.0009719228255562484,2.915896415710449,1.171725869178772,47.64157081407204,-122.14016498114081,124.70645141601562,0.2296369296624688,-0.8073940370478826,-15.900968029755118,-0.2739754675675139,0.9617366807869824,0.0,-0.2739754675675139,0.9617366807869824,0.0,0.7625677251027859,-0.31697595998298456,-0.0051125154835975906,0.6935485839843762,-0.2739754675675139,0.9617366807869824,0.0,-0.0,-0.0,0.0,-0.0,-0.0,0.0
21/04/2022,17:45:37,33.102033,-0.12510330381337553,11.408985977061093,2.7332611083984375,3.2195205688476562,4.0223359974334016e-05,-0.09168213605880737,0.13605771958827972,0.0009719228255562484,2.915896415710449,1.171725869178772,47.641570653657276,-122.1401649810441,124.7336654663086,0.19601808333067589,-0.6888190794200136,-15.900035375580295,-0.2739598124910371,0.9617411404010311,0.0,-0.2739598124910371,0.9617411404010311,0.0,0.7382337772747551,-0.31689467638990176,-0.005111204457902474,0.6667388916015637,-0.2739598124910371,0.9617411404010311,0.0,-0.0,-0.0,0.0,-0.0,-0.0,0.0
21/04/2022,17:45:38,33.280036,-0.12493607692886144,11.394508248195052,2.7545700073242188,3.2195205688476562,3.4090957342414185e-05,-0.07209552079439163,0.10711843520402908,0.0009719228255562484,2.915896415710449,1.171725869178772,47.64157052391589,-122.14016498095563,124.75489807128906,0.1621315266933223,-0.5700803223834509,-15.899412340037102,-0.5478987089618393,1.9234882387781709,0.0,-0.5478987089618393,1.9234882387781709,0.0,0.7190175446590549,-0.31682840875775026,-0.005110135625127299,0.6454299926757825,-0.5478987089618393,1.9234882387781709,0.0,-0.0,-0.0,0.0,-0.0,-0.0,0.0
21/04/2022,17:45:38,33.450034,-0.12481246422976255,11.385840258561075,2.7748489379882812,3.2195205688476562,0.00024406431475654244,-0.0012529506348073483,0.1447480022907257,0.0009719228255562484,2.915896415710449,1.171725869178772,47.64157044779589,-122.14016498058126,124.77528381347656,1.2070374413576437,-4.245718087791283,-15.940026965026789,-0.5492620530091495,1.923099372659711,0.0,-0.5492620530091495,1.923099372659711,0.0,0.7008637125025682,-0.3168122193840258,-0.0051098745061946005,0.62515106201172,-0.5492620530091495,1.923099372659711,0.0,-0.0,-0.0,0.0,-0.0,-0.0,0.0
21/04/2022,17:45:38,33.625037,-0.12491379410494119,11.397833173163235,2.8016510009765625,3.2195205688476562,8.10976853244938e-05,0.1518939882516861,0.1580689400434494,0.0009719228255562484,2.915896415710449,1.171725869178772,47.641570559826334,-122.14016498016616,124.80213165283203,1.5238809262853008,-5.367979123358313,-15.961357419371952,-0.5499779591703682,1.922894756461413,0.0,-0.5499779591703682,1.922894756461413,0.0,0.6771085479992893,-0.3169042996610472,-0.005111359671953863,0.5983489990234387,-0.5499779591703682,1.922894756461413,0.0,-0.0,-0.0,0.0,-0.0,-0.0,0.0
21/04/2022,17:45:38,33.766035,-0.1252608874347061,11.428996738046408,2.8230667114257812,3.2195205688476562,-0.00010257582471240312,0.2860077917575836,0.1361081451177597,0.0009719228255562484,2.915896415710449,1.171725869178772,47.64157083617979,-122.14016498018924,124.82306671142578,1.456231123939452,-5.128379115849401,-15.952545965915446,-0.8245233492704964,2.8844689713199836,0.0,-0.8245233492704964,2.8844689713199836,0.0,0.6583350897792853,-0.31705980402077166,-0.005113867806786132,0.57693328857422,-0.8245233492704964,2.8844689713199836,0.0,-0.0,-0.0,0.0,-0.0,-0.0,0.0
21/04/2022,17:45:38,33.946035,-0.1260019886540249,11.495075195096433,2.8561248779296875,3.2195205688476562,-5.349206548999064e-05,0.5040594935417175,0.25703805685043335,0.0009719228255562484,2.915896415710449,1.171725869178772,47.641571444266845,-122.14016498030153,124.85689544677734,2.336281943141523,-8.18856831956065,-16.05025872437469,-0.8294413482274308,2.8830586275430927,0.0,-0.8294413482274308,2.8830586275430927,0.0,0.6297294744096797,-0.3173843999245532,-0.005119103224592081,0.5438751220703137,-0.8294413482274308,2.8830586275430927,0.0,-0.0,-0.0,0.0,-0.0,-0.0,0.0
21/04/2022,17:45:38,34.113037,-0.12725925515405834,11.605016013607383,2.902008056640625,3.2195205688476562,-0.0004384119529277086,0.7696406245231628,0.2515118420124054,0.0009719228255562484,2.915896415710449,1.171725869178772,47.64157241997835,-122.14016498080545,124.90200805664062,2.4270297238252785,-8.535858020657887,-16.060015729503,-0.8299322976279423,2.882917338626622,0.0,-0.8299322976279423,2.882917338626622,0.0,0.5908323176607051,-0.31790023823965086,-0.005127423197414771,0.49799194335937624,-0.8299322976279423,2.882917338626622,0.0,-0.0,-0.0,0.0,-0.0,-0.0,-0.0
21/04/2022,17:45:39,34.260045,-0.1286968159256503,11.727039377205074,2.9342803955078125,3.2195205688476562,-0.0007475314196199179,0.9688294529914856,0.2021566778421402,0.0009719228255562484,2.915896415710449,1.171725869178772,47.64157354398904,-122.14016498195753,124.93489074707031,2.200426244141832,-7.745651585263861,-16.02553926193864,-0.8281974157636494,2.8834162100748504,0.0,-0.8281974157636494,2.8834162100748504,0.0,0.5641978486268258,-0.3184306582492886,-0.005135978358859816,0.46571960449218874,-0.8281974157636494,2.8834162100748504,0.0,-0.0,-0.0,0.0,-0.0,-0.0,0.0
21/04/2022,17:45:39,34.434038,-0.13095550006255507,11.91726529225707,2.9645462036132812,3.2195205688476562,-0.0008850070298649371,1.1847147941589355,0.13966527581214905,0.0009719228255562484,2.915896415710449,1.171725869178772,47.641575261456815,-122.14016498394736,124.96497344970703,1.8234091695151422,-6.41441682244949,-15.976473178017086,-0.8257278564794478,2.8841243917407335,-2.0,-0.8257278564794478,2.8841243917407335,-2.0,0.5399635636485403,-0.3192399235057156,-0.005149031024286543,0.43545379638672,-0.8257278564794478,2.8841243917407335,-2.0,-0.0,-0.0,0.0,-0.0,-0.0,0.0
21/04/2022,17:45:39,34.580037,-0.1330477447481826,12.09531294181943,2.9559249877929688,3.2195205688476562,-0.0007002943311817944,1.2819157838821411,-0.4024236798286438,0.0009719228255562484,2.915896415710449,1.171725869178772,47.64157686615158,-122.14016498550652,124.95474243164062,1.758142048101842,-6.086999394463747,-16.173483360173844,-0.8356399490816104,2.8812681019819872,-1.0,-1.4804504341753149,2.8708679328675717,1.237241486970769,0.5473952455696262,-0.320019212374718,-0.005161600199592442,0.4440750122070325,-0.8356399490816104,2.8812681019819872,-1.0,-0.0,-0.0,0.0,-0.6448104850937044,-0.010400169114415474,2.237241486970769
21/04/2022,17:45:39,34.758038,-0.13970050658099353,12.334581990726292,2.9126129150390625,3.2195205688476562,-0.08171101659536362,1.4932701587677002,0.22318744659423828,0.0009719228255562484,2.915896415710449,1.171725869178772,47.64157902522731,-122.14016504204696,124.91331481933594,-2.2563590054462512,-5.256217701372805,-16.777681796817284,-0.8659766222059371,2.8722960310164405,0.0,-0.8659766222059371,2.8722960310164405,0.0,0.5815538755863892,-0.3172263552997896,-0.005116554117739369,0.48738708496093874,-0.8659766222059371,2.8722960310164405,0.0,-0.0,-0.0,0.0,-0.0,-0.0,0.0
21/04/2022,17:45:39,34.926034,-0.1663179708411917,12.604301089420915,2.9541168212890625,3.2195205688476562,-0.16151967644691467,1.596185564994812,0.03286506235599518,0.0009719228255562484,2.915896415710449,1.171725869178772,47.64158141418071,-122.14016535323363,124.95411682128906,-0.07344053947199682,-3.541850470561147,-17.14841266589476,-0.8845434823102272,2.8666326635797788,0.0,-0.8845434823102272,2.8666326635797788,0.0,0.5346389326953442,-0.29496499028102885,-0.00475749984324203,0.44588317871093874,-0.8845434823102272,2.8666326635797788,0.0,-0.0,-0.0,0.0,-0.0,-0.0,0.0
21/04/2022,17:45:39,35.100039,-0.19759298057761043,12.878528381697834,2.954620361328125,3.2195205688476562,-0.16750448942184448,1.678116798400879,-0.00826649647206068,0.0009719228255562484,2.915896415710449,1.171725869178772,47.64158392965769,-122.14016573579097,124.95458984375,1.1628906162105475,-2.4411062418056115,-17.29445334427976,-0.5945648895385649,1.9095791662374184,0.0,-0.5945648895385649,1.9095791662374184,0.0,0.519875033385466,-0.2681199849999821,-0.004324515887098812,0.44537963867187624,-0.5945648895385649,1.9095791662374184,0.0,-0.0,-0.0,0.0,0.0,0.0,0.0
21/04/2022,17:45:40,35.271035,-0.22808059817180037,13.168161319568753,2.9508209228515625,3.2195205688476562,-0.14788462221622467,1.693610668182373,-0.01582874357700348,0.0009719228255562484,2.915896415710449,1.171725869178772,47.64158653889397,-122.14016609810821,124.95076751708984,0.27235407933351324,1.9251888731442193,-17.312305384717572,-0.5951598413947727,1.9093938208737737,-1.0,-0.5951598413947727,1.9093938208737737,-1.0,0.5103837136165816,-0.24231058060880672,-0.00390823517111194,0.44917907714843874,-0.5951598413947727,1.9093938208737737,-1.0,-0.0,-0.0,0.0,-0.0,-0.0,0.0
21/04/2022,17:45:40,35.445034,-0.2550381465116516,13.452739233151078,2.9067840576171875,3.2195205688476562,-0.13126569986343384,1.6415423154830933,-0.6623896956443787,0.0009719228255562484,2.915896415710449,1.171725869178772,47.64158905620782,-122.14016640903425,124.90678405761719,-0.29390090500839894,3.783203236217088,-18.59734240726118,-0.6378306958163492,1.8955664070336422,0.0,-0.6521488918354028,1.8953354683881705,2.496945906806848,0.5400481762251204,-0.2199488159335704,-0.0035475615473163913,0.49321594238281374,-0.6378306958163492,1.8955664070336422,0.0,-0.0,-0.0,0.0,-0.014318196019053563,-0.00023093864547180313,2.496945906806848
21/04/2022,17:45:40,35.615034,-0.2780719267902896,13.722432913258672,2.8155670166015625,3.2195205688476562,-0.0990910604596138,1.5013831853866577,-0.08461791276931763,0.0009719228255562484,2.915896415710449,1.171725869178772,47.6415914848692,-122.14016667584818,124.81556701660156,-0.5200386468312924,3.1791354955943993,-21.39979579241835,-0.7297469319284864,1.862114232624025,0.0,-0.7297469319284864,1.862114232624025,0.0,0.6181278023457197,-0.20126979298833925,-0.003246286983682012,0.5844329833984387,-0.7297469319284864,1.862114232624025,0.0,-0.0,-0.0,0.0,-0.0,-0.0,0.0
21/04/2022,17:45:40,35.792038,-0.2959134209668264,13.972674858756363,2.8492507934570312,3.2195205688476562,-0.0756254643201828,1.3890899419784546,0.28456321358680725,0.0009719228255562484,2.915896415710449,1.171725869178772,47.64159377546457,-122.14016687944434,124.85010528564453,-0.6511961734690701,2.930252332387987,-23.93888585311026,-0.4057619849396755,0.9139787807043523,0.0,-0.4057619849396755,0.9139787807043523,0.0,0.5817887080299268,-0.18746804968697373,-0.003023678220758441,0.55074920654297,-0.4057619849396755,0.9139787807043523,0.0,-0.0,-0.0,0.0,-0.0,-0.0,-0.0
21/04/2022,17:45:40,35.967035,-0.3101738227996975,14.203900435939431,2.9032211303710938,3.2195205688476562,-0.058248795568943024,1.2467663288116455,0.34817203879356384,0.0009719228255562484,2.915896415710449,1.171725869178772,47.641595853359114,-122.14016703444895,124.90426635742188,-2.469478743148275,6.013165904821139,-26.91253672686742,-0.45262983016558517,0.8916985123034991,0.0,-0.45262983016558517,0.8916985123034991,0.0,0.5273567045665931,-0.1769398315178693,-0.0028538682502894375,0.4967788696289075,-0.45262983016558517,0.8916985123034991,0.0,-0.0,-0.0,0.0,-0.0,-0.0,-0.0
21/04/2022,17:45:40,36.139034,-0.32129171944689006,14.402865433134139,2.9636459350585938,3.2195205688476562,-0.044155582785606384,1.0356541872024536,0.33062148094177246,0.0009719228255562484,2.915896415710449,1.171725869178772,47.641597610854035,-122.14016715074311,124.9636459350586,-3.101158961935578,6.619416891165456,-28.412583379900294,-0.8795440943935997,-0.4758173872583289,0.0,-0.8795440943935997,-0.4758173872583289,0.0,0.46795779017294187,-0.16903310462951138,-0.0027263403972490607,0.4363540649414075,-0.8795440943935997,-0.4758173872583289,0.0,-0.0,-0.0,0.0,-0.0,-0.0,-0.0
21/04/2022,17:45:41,36.308035,-0.32958494685590267,14.560345268808305,3.0142669677734375,3.2195205688476562,-0.033749934285879135,0.8395240306854248,0.2675497531890869,0.0009719228255562484,2.915896415710449,1.171725869178772,47.641599051154124,-122.1401672392479,125.01506805419922,-2.928207667354723,5.937085087659746,-29.08595327077125,-0.873891427571637,-0.4861211503491762,0.0,-0.873891427571637,-0.4861211503491762,0.0,0.41887672878042476,-0.16328137085878414,-0.0026335704977249463,0.38573303222656374,-0.873891427571637,-0.4861211503491762,0.0,-0.0,-0.0,0.0,-0.0,-0.0,-0.0
21/04/2022,17:45:41,36.478035,-0.3361924620112404,14.690956763923168,3.0552291870117188,3.2195205688476562,-0.02555890940129757,0.6640171408653259,0.20291057229042053,0.0009719228255562484,2.915896415710449,1.171725869178772,47.64160020422276,-122.14016730657254,125.05522918701172,-2.4868543710917925,4.911407524773217,-29.40441454255245,-1.3621468629365943,0.38020510753012704,0.0,-1.3621468629365943,0.38020510753012704,0.0,0.37958541697803877,-0.15878166330091759,-0.002560994569371644,0.3447708129882825,-1.3621468629365943,0.38020510753012704,0.0,-0.0,-0.0,0.0,-0.0,-0.0,-0.0
21/04/2022,17:45:41,36.624036,-0.341569337178953,14.776016721501946,3.0818099975585938,3.2195205688476562,-0.05532802641391754,0.5420734286308289,0.19019824266433716,0.0009719228255562484,2.915896415710449,1.171725869178772,47.64160098466431,-122.14016736777221,125.08238220214844,-5.105493626409609,2.414237320488779,-29.40259771072906,-1.362134806062912,0.38024830060363585,0.0,-1.362134806062912,0.38024830060363585,0.0,0.3538463877689719,-0.1547777645298375,-0.0024964155569353608,0.3181900024414075,-1.362134806062912,0.38024830060363585,0.0,-0.0,-0.0,0.0,-0.0,-0.0,-0.0
21/04/2022,17:45:41,36.796035,-0.36232637998182327,14.859162685461342,3.1158065795898438,3.2195205688476562,-0.18500210344791412,0.41907763481140137,0.19135847687721252,0.0009719228255562484,2.915896415710449,1.171725869178772,47.641601731455694,-122.14016763698811,125.11637878417969,-6.143822941106921,0.6840720834734803,-29.343842475869796,-1.3617441558255028,0.3816449319394777,0.0,-1.3617441558255028,0.3816449319394777,0.0,0.31479334057176783,-0.13536683533120275,-0.002183336053731111,0.2841934204101575,-1.3617441558255028,0.3816449319394777,0.0,-0.0,-0.0,0.0,0.0,0.0,-0.0
21/04/2022,17:45:41,36.968034,-0.40679489844478667,14.922262690030038,3.1458892822265625,3.2195205688476562,-0.330578476190567,0.32652902603149414,0.15663518011569977,0.0009719228255562484,2.915896415710449,1.171725869178772,47.641602301085385,-122.14016822546964,125.1463623046875,-5.686405351564255,0.03645730978734974,-29.332237955373156,-1.3616668306415654,0.3819207278095213,0.0,-1.3616668306415654,0.3819207278095213,0.0,0.27023155756445694,-0.0919273594694675,-0.0014826993462815352,0.25411071777343874,-1.3616668306415654,0.3819207278095213,0.0,-0.0,-0.0,0.0,0.0,0.0,-0.0
21/04/2022,17:45:41,37.139045,-0.4738144289003685,14.97032096516341,3.1690521240234375,3.2195205688476562,-0.4613219201564789,0.25566357374191284,0.11841574311256409,0.0009719228255562484,2.915896415710449,1.171725869178772,47.641602738224854,-122.14016911578682,125.1694107055664,-4.818485968467228,-0.17973061798217246,-29.339650363993513,-1.3617162286884354,0.381744564501637,0.0,-1.3617162286884354,0.381744564501637,0.0,0.2323738218297296,-0.025700191195608513,-0.0004145192128337527,0.23094787597656374,-1.3617162286884354,0.381744564501637,0.0,-0.0,-0.0,0.0,0.0,0.0,-0.0
21/04/2022,17:45:42,37.30804,-0.5611217293189839,15.007561899721622,3.1862945556640625,3.2195205688476562,-0.5719617009162903,0.20006918907165527,0.08713357895612717,0.0009719228255562484,2.915896415710449,1.171725869178772,47.641603080484664,-122.14017027697277,125.18655395507812,-3.9225740307028074,-0.2298929120130565,-29.34955950344843,-1.3617822299421702,0.3815090539079385,0.0,0.879714933961737,0.41766223397090363,0.07378061562731397,0.22223865619146363,0.060983898496601685,0.0009836112660721597,0.21370544433593874,-1.3617822299421702,0.3815090539079385,0.0,0.0,0.0,0.0,2.241497163903907,0.03615318006296514,0.07378061562731397
21/04/2022,17:45:42,37.479037,-0.6648265772964805,15.036902982741594,3.195556640625,3.2195205688476562,-0.6114163994789124,0.1567714661359787,0.04169734567403793,0.0009719228255562484,2.915896415710449,1.171725869178772,47.641603353620255,-122.14017165480308,125.19568634033203,0.2483962540313517,1.6897375534673271,-29.422640384017434,-1.3622677376210066,0.3797717881003598,-1.0,1.0132189165627907,0.4180860889742889,-0.791879277440819,0.26222512195550457,0.16418865492787837,0.002648204111739716,0.20444335937500124,-1.3622677376210066,0.3797717881003598,-1.0,0.0,0.0,0.0,2.3754866541837973,0.0383143008739291,0.20812072255918104
21/04/2022,17:45:42,37.647036,-0.7609397681662813,15.059085207991302,3.2108612060546875,3.2195205688476562,-0.48912689089775085,0.11999822407960892,0.1700822114944458,0.0009719228255562484,2.915896415710449,1.171725869178772,47.641603561800444,-122.1401729261774,125.21136474609375,5.343795124241971,4.237251481783888,-29.32004008777237,-1.3615854915535612,0.38221060842269583,-5.0,0.9046711737324755,0.4187631352821516,-5.277349557335211,0.3214794397038116,0.25991916409251614,0.0041922445821374055,0.18913879394531374,-1.3615854915535612,0.38221060842269583,-5.0,0.0,0.0,0.0,2.2662566652860368,0.03655252685945576,-0.27734955733521094
21/04/2022,17:45:42,37.822034,-0.8339352044276893,15.077266599982977,3.1966018676757812,3.2195205688476562,-0.3598708212375641,0.09989948570728302,-0.5009062886238098,0.0009719228255562484,2.915896415710449,1.171725869178772,47.64160373210955,-122.14017389001211,125.19512176513672,5.358387500318268,4.430497977408559,-29.322583192243886,-1.3616024548389791,0.3821501733304147,-3.0,0.25822741717668296,0.4082764615887309,-1.1388398800516935,0.3899025062079838,0.33260244385464066,0.00536455554603954,0.20339813232422,-1.3616024548389791,0.3821501733304147,-3.0,0.0,0.0,0.0,1.619829872015662,0.026126288258316224,1.8611601199483065
21/04/2022,17:45:42,37.989035,-0.8873965764651075,15.09205034468323,3.047210693359375,3.2195205688476562,-0.2784160375595093,0.08378259092569351,-1.2998884916305542,0.0009719228255562484,2.915896415710449,1.171725869178772,47.64160387000615,-122.14017459624455,125.0433349609375,2.9719025296930357,2.6586742704304336,-29.4641954802632,-0.49187957283613437,0.8706632447890184,-3.0,0.46742938489381736,0.8861359699136906,0.013867709509088666,0.5228284149862577,0.3858115262838786,0.006222766552964387,0.35278930664062624,-0.49187957283613437,0.8706632447890184,-3.0,0.0,0.0,0.0,0.9593089577299517,0.015472725124672205,3.0138677095090887
21/04/2022,17:45:42,38.162034,-0.9250387698411942,15.103500944562256,2.8695449829101562,3.2195205688476562,-0.1632968932390213,0.056053221225738525,-0.575942873954773,0.0009719228255562484,2.915896415710449,1.171725869178772,47.641603976050376,-122.14017509105683,124.86780548095703,1.4979303154965506,1.4596211292274186,-29.52230098848692,-0.4927622875783774,0.870163966123928,-5.0,0.5220353689696722,0.8865316702618018,-2.7174789246904214,0.6786586454187982,0.4232592906909469,0.006826762753075144,0.530455017089845,-0.4927622875783774,0.870163966123928,-5.0,0.0,0.0,0.0,1.0147976565480497,0.01636770413787381,2.2825210753095786
21/04/2022,17:45:43,38.331036,-0.9495273616630584,15.11183066572994,2.7449417114257812,3.2195205688476562,-0.12906067073345184,0.0465129129588604,-1.1139335632324219,0.0009719228255562484,2.915896415710449,1.171725869178772,47.64160405190977,-122.14017540926356,124.74494171142578,1.0011751696786786,1.0568948644198102,-29.53806545642969,0.0,0.0,-5.0,0.7006965125623977,0.01130155665423057,-2.131260195450215,0.7934139436905484,0.447607198168411,0.007219470938199635,0.65505828857422,0.0,0.0,-5.0,0.0,0.0,0.0,0.7006965125623977,0.01130155665423057,2.868739804549785
