date,fly_time,fly_time_s,x,y,z,z_max,vx,vy,vz,vx_max,vy_max,vz_max,latitude,longitude,altitude,pitch,roll,yaw,cx,cy,cz,scx,scy,scz,d,dx,dy,dz,gc_pow_x,gc_pow_y,gc_pow_z,gpc_pow_x,gpc_pow_y,gpc_pow_z,gfc_pow_x,gfc_pow_y,gfc_pow_z
21/04/2022,16:52:51,30.676071,0.0,0.0,1.5474929809570312,1.5474929809570312,0.0,0.0,-0.008631848730146885,0,0,0,47.641468,-122.140165,123.54747009277344,0.0,0.0,0.0,0.0,0.0,0.0,-0.4105615058773401,-0.00662195977221528,2.9708273980625433,1.8703909296175676,-0.25799739921976594,-0.004161248374512427,1.85250701904297,0.0,0.0,0.0,-0.06893881132416613,-0.0011119163116801187,0.49500356301542336,-0.34162269455317396,-0.005510043460535161,2.47582383504712
21/04/2022,16:52:51,30.863074,0.0,0.0,1.545989990234375,1.5474929809570312,0.0,0.0,-0.007591793313622475,0,0,0,47.641468,-122.140165,123.54596710205078,0.0,0.0,0.0,0.0,0.0,0.0,-0.4106097170889783,-0.006622737372402991,2.970817281929638,1.8718795608434147,-0.25799739921976594,-0.004161248374512427,1.8540100097656262,0.0,0.0,0.0,-0.06888500919466087,-0.0011110485353977755,0.49501854265170414,-0.3417247078943174,-0.005511688837005216,2.475798739277934
21/04/2022,16:52:51,31.048069,0.0,0.0,1.5446548461914062,1.5474929809570312,0.0,0.0,-0.006744441110640764,0,0,0,47.641468,-122.140165,123.5446548461914,0.0,0.0,0.0,0.0,0.0,0.0,-0.41062555484059793,-0.006622992820009761,2.9708147348921345,1.873201968222657,-0.25799739921976594,-0.004161248374512427,1.855345153808595,0.0,0.0,0.0,-0.06883726676536361,-0.0011102784962155616,0.49503169288057713,-0.3417882880752343,-0.005512714323794199,2.475783042011557
21/04/2022,16:52:52,31.23507,0.0,0.0,1.5434417724609375,1.5474929809570312,0.0,0.0,-0.006043906789273024,0,0,0,47.641468,-122.140165,123.54342651367188,0.0,0.0,0.0,0.0,0.0,0.0,-0.41061546919377007,-0.0066228301482867315,2.970818330073862,1.874403485441485,-0.25799739921976594,-0.004161248374512427,1.8565582275390637,0.0,0.0,0.0,-0.06879393131936122,-0.0011095795374090715,0.4950435143221101,-0.34182153787440883,-0.00551325061087766,2.475774815751752
21/04/2022,16:52:52,31.431071,0.0,0.0,1.5423583984375,1.5474929809570312,0.0,0.0,-0.005475278943777084,0,0,0,47.641468,-122.140165,123.54234313964844,0.0,0.0,0.0,0.0,0.0,0.0,-0.41058633163150765,-0.006622360187605077,2.970826426521377,1.8754765511325093,-0.25799739921976594,-0.004161248374512427,1.8576416015625012,0.0,0.0,0.0,-0.06875526305237482,-0.0011089558556834844,0.49505397092653874,-0.3418310685791328,-0.005513404331921593,2.4757724555948384
21/04/2022,16:52:52,31.62007,0.0,0.0,1.541351318359375,1.5474929809570312,0.0,0.0,-0.005007131490856409,0,0,0,47.641468,-122.140165,123.54133605957031,0.0,0.0,0.0,0.0,0.0,0.0,-0.4105378946020212,-0.006621578945194008,2.9708391623927404,1.8764740594414397,-0.25799739921976594,-0.004161248374512427,1.8586486816406262,0.0,0.0,0.0,-0.06871934657301298,-0.0011083765576292612,0.4950636064448764,-0.34181854802900824,-0.005513202387564747,2.475775555947864
21/04/2022,16:52:52,31.811071,0.0,0.0,1.5404434204101562,1.5474929809570312,0.0,0.0,-0.004633501637727022,0,0,0,47.641468,-122.140165,123.5404281616211,0.0,0.0,0.0,0.0,0.0,0.0,-0.41047712778288253,-0.0066205988352078995,2.9708548085156883,1.8773733370558134,-0.25799739921976594,-0.004161248374512427,1.859556579589845,0.0,0.0,0.0,-0.06868699103261051,-0.0011078546940743827,0.49507222356966296,-0.34179013675027203,-0.005512744141133517,2.4757825849460255
21/04/2022,16:52:52,32.005069,0.0,0.0,1.5395965576171875,1.5474929809570312,0.0,0.0,-0.004330220632255077,0,0,0,47.641468,-122.140165,123.53958129882812,0.0,0.0,0.0,0.0,0.0,0.0,-0.4104044735664476,-0.006619426993007336,2.9708732843683716,1.8782121665088907,-0.25799739921976594,-0.004161248374512427,1.8604034423828137,0.0,0.0,0.0,-0.06865683094607855,-0.0011073682410658026,0.4950802024417993,-0.34174764262036905,-0.005512058751941534,2.4757930819265725
21/04/2022,16:52:53,32.194612,0.0,0.0,1.5387725830078125,1.5474929809570312,0.0,0.0,-0.004076928831636906,0,0,0,47.641468,-122.140165,123.53875732421875,0.0,0.0,0.0,0.0,0.0,0.0,-0.41031903312780715,-0.006618048921416362,2.9708948252028025,1.8790283318129113,-0.25799739921976594,-0.004161248374512427,1.8612274169921887,0.0,0.0,0.0,-0.06862750481817428,-0.0011068952390028309,0.4950879114038901,-0.3416915283096329,-0.0055111536824135315,2.4758069137989125
21/04/2022,16:52:53,32.390616,0.0,0.0,1.5380096435546875,1.5474929809570312,0.0,0.0,-0.0038753836415708065,0,0,0,47.641468,-122.140165,123.53800964355469,0.0,0.0,0.0,0.0,0.0,0.0,-0.4102282918983868,-0.006616585353199903,2.9709175530945737,1.8797840465030933,-0.25799739921976594,-0.004161248374512427,1.8619903564453137,0.0,0.0,0.0,-0.0686003675661967,-0.0011064575413902889,0.4950950018998335,-0.3416279243321901,-0.005510127811809614,2.47582255119474
21/04/2022,16:52:53,32.54861,0.0,0.0,1.5374069213867188,1.5474929809570312,0.0,0.0,-0.0037379178684204817,0,0,0,47.641468,-122.140165,123.53740692138672,0.0,0.0,0.0,0.0,0.0,0.0,-0.41014894276160235,-0.006615305528413057,2.970937325478968,1.8803810652339337,-0.25799739921976594,-0.004161248374512427,1.8625930786132825,0.0,0.0,0.0,-0.06857894041374253,-0.001106111942157157,0.4951005713218966,-0.34157000234785984,-0.0055091935862559005,2.475836754157071
21/04/2022,16:52:53,32.736611,0.0,0.0,1.536712646484375,1.5474929809570312,0.0,0.0,-0.0036029191687703133,0,0,0,47.641468,-122.140165,123.53671264648438,0.0,0.0,0.0,0.0,0.0,0.0,-0.4100493236767513,-0.006613698768979976,2.970962031347205,1.8810687748627013,-0.25799739921976594,-0.004161248374512427,1.8632873535156262,0.0,0.0,0.0,-0.06855427085196472,-0.0011057140459994504,0.49510695183071646,-0.34149505282478654,-0.005507984722980526,2.4758550795164886
21/04/2022,16:52:53,32.92961,0.0,0.0,1.536041259765625,1.5474929809570312,0.0,0.0,-0.0034933837596327066,0,0,0,47.641468,-122.140165,123.5360336303711,0.0,0.0,0.0,0.0,0.0,0.0,-0.4099456048920608,-0.006612025885355935,2.9709876303081946,1.881733817331325,-0.25799739921976594,-0.004161248374512427,1.8639587402343762,0.0,0.0,0.0,-0.06853042715681926,-0.001105329470271298,0.4951130866328599,-0.3414151777352415,-0.005506696415084637,2.4758745436753347
21/04/2022,16:52:53,33.120613,0.0,0.0,1.5353775024414062,1.5474929809570312,0.0,0.0,-0.0034031050745397806,0,0,0,47.641468,-122.140165,123.53536987304688,0.0,0.0,0.0,0.0,0.0,0.0,-0.4098367467193419,-0.006610270108376599,2.9710143725151257,1.88239130692687,-0.25799739921976594,-0.004161248374512427,1.864622497558595,0.0,0.0,0.0,-0.06850686658732777,-0.0011049494610859511,0.49511911772089706,-0.34132988013201415,-0.0055053206472906475,2.475895254794229
21/04/2022,16:52:54,33.305611,0.0,0.0,1.5347518920898438,1.5474929809570312,0.0,0.0,-0.003331852378323674,0,0,0,47.641468,-122.140165,123.53474426269531,0.0,0.0,0.0,0.0,0.0,0.0,-0.4097293028523107,-0.006608537142779322,2.9710406488363197,1.8830110137900469,-0.25799739921976594,-0.004161248374512427,1.8652481079101575,0.0,0.0,0.0,-0.06848467116486837,-0.0011045914704011222,0.4951247714024764,-0.34124463168744235,-0.0055039456723782,2.4759158774338434
21/04/2022,16:52:54,33.500613,0.0,0.0,1.5341110229492188,1.5474929809570312,0.0,0.0,-0.0032715508714318275,0,0,0,47.641468,-122.140165,123.53409576416016,0.0,0.0,0.0,0.0,0.0,0.0,-0.40961480760627145,-0.006606690445262559,2.9710685245420385,1.8836458395016333,-0.25799739921976594,-0.004161248374512427,1.8658889770507825,0.0,0.0,0.0,-0.06846194556053435,-0.001104224928395735,0.49513053214943065,-0.3411528620457371,-0.005502465516866823,2.4759379923926077
21/04/2022,16:52:54,33.699611,0.0,0.0,1.5334854125976562,1.5474929809570312,0.0,0.0,-0.0032235952094197273,0,0,0,47.641468,-122.140165,123.53347778320312,0.0,0.0,0.0,0.0,0.0,0.0,-0.40949923913135494,-0.006604826437602615,2.971096534368245,1.8842655542619102,-0.25799739921976594,-0.004161248374512427,1.866514587402345,0.0,0.0,0.0,-0.06843977195527634,-0.0011038672896012509,0.4951361257878385,-0.3410594671760786,-0.005500959148001364,2.4759604085804066
21/04/2022,16:52:54,33.883613,0.0,0.0,1.5328826904296875,1.5474929809570312,0.0,0.0,-0.0031853436958044767,0,0,0,47.641468,-122.140165,123.53288269042969,0.0,0.0,0.0,0.0,0.0,0.0,-0.4093851442846995,-0.006602986198140432,2.971124065226243,1.8848626002150088,-0.25799739921976594,-0.004161248374512427,1.8671173095703137,0.0,0.0,0.0,-0.06841841978537369,-0.0011035228997641113,0.4951414869337656,-0.34096672449932586,-0.005499463298376321,2.4759825782924776
21/04/2022,16:52:54,34.081611,0.0,0.0,1.5322723388671875,1.5474929809570312,0.0,0.0,-0.0031538077164441347,0,0,0,47.641468,-122.140165,123.53225708007812,0.0,0.0,0.0,0.0,0.0,0.0,-0.4092671184778685,-0.0066010825560947695,2.9711524190757426,1.8854672073925995,-0.25799739921976594,-0.004161248374512427,1.8677276611328137,0.0,0.0,0.0,-0.06839680754997444,-0.0011031743153221878,0.4951468882267627,-0.34087031092789405,-0.005497908240772582,2.4760055308489797
21/04/2022,16:52:55,34.266616,0.0,0.0,1.5316848754882812,1.5474929809570312,0.0,0.0,-0.0031289549078792334,0,0,0,47.641468,-122.140165,123.53167724609375,0.0,0.0,0.0,0.0,0.0,0.0,-0.40915163092049744,-0.0065992198535565275,2.971180041560087,1.8860491452959123,-0.25799739921976594,-0.004161248374512427,1.86831512451172,0.0,0.0,0.0,-0.0683760154896397,-0.0011028389595103374,0.49515206075517043,-0.34077561543085777,-0.00549638089404619,2.4760279808049166
21/04/2022,16:52:55,34.461611,0.0,0.0,1.5310897827148438,1.5474929809570312,0.0,0.0,-0.003108277916908264,0,0,0,47.641468,-122.140165,123.53108215332031,0.0,0.0,0.0,0.0,0.0,0.0,-0.4090331110199346,-0.006597308242257127,2.971208265816102,1.8866386443262133,-0.25799739921976594,-0.004161248374512427,1.8689102172851575,0.0,0.0,0.0,-0.06835496312738931,-0.0011024994052804922,0.4951572743650388,-0.3406781478925453,-0.005494808836976635,2.476050991451063
21/04/2022,16:52:55,34.651611,0.0,0.0,1.5305023193359375,1.5474929809570312,0.0,0.0,-0.0030917192343622446,0,0,0,47.641468,-122.140165,123.5304946899414,0.0,0.0,0.0,0.0,0.0,0.0,-0.4089148065750652,-0.006595400106049555,2.971236315110425,1.8872205891205487,-0.25799739921976594,-0.004161248374512427,1.8694976806640637,0.0,0.0,0.0,-0.06833419027497714,-0.0011021643592738445,0.49516239549495134,-0.34058061630008807,-0.005493235746775711,2.476073919615474
21/04/2022,16:52:55,34.843612,0.0,0.0,1.5299148559570312,1.5474929809570312,0.0,0.0,-0.0030779277440160513,0,0,0,47.641468,-122.140165,123.5299072265625,0.0,0.0,0.0,0.0,0.0,0.0,-0.4087955814907793,-0.006593477120819138,2.971264459076111,1.8878025373333975,-0.25799739921976594,-0.004161248374512427,1.87008514404297,0.0,0.0,0.0,-0.06831342697587305,-0.0011018294673528104,0.49516749127158255,-0.34048215451490627,-0.005491647653466328,2.4760969678045286
21/04/2022,16:52:55,35.03361,0.0,0.0,1.529327392578125,1.5474929809570312,0.0,0.0,-0.0030667493119835854,0,0,0,47.641468,-122.140165,123.5293197631836,0.0,0.0,0.0,0.0,0.0,0.0,-0.40867549128050795,-0.006591540181943792,2.9712926825135293,1.8883844889615988,-0.25799739921976594,-0.004161248374512427,1.8706726074218762,0.0,0.0,0.0,-0.06829267323757109,-0.0011014947296382627,0.49517256181452907,-0.34038281804293685,-0.00549004545230553,2.4761201206990004
21/04/2022,16:52:56,35.231609,0.0,0.0,1.5287322998046875,1.5474929809570312,0.0,0.0,-0.003057638881728053,0,0,0,47.641468,-122.140165,123.52872467041016,0.0,0.0,0.0,0.0,0.0,0.0,-0.40855311916446235,-0.006589566438136607,2.971321314350663,1.8889740018820949,-0.25799739921976594,-0.004161248374512427,1.8712677001953137,0.0,0.0,0.0,-0.06827165972572255,-0.0011011558020278026,0.49517767260377177,-0.34028145943873983,-0.0054884106361088045,2.476143641746891
21/04/2022,16:52:56,35.423612,0.0,0.0,1.5281448364257812,1.5474929809570312,0.0,0.0,-0.0030506616458296776,0,0,0,47.641468,-122.140165,123.52814483642578,0.0,0.0,0.0,0.0,0.0,0.0,-0.40843166311823864,-0.006587607469649126,2.971349604890293,1.8895559603757883,-0.25799739921976594,-0.004161248374512427,1.87185516357422,0.0,0.0,0.0,-0.06825092525588075,-0.00110082137509487,0.4951826927143332,-0.34018073786235786,-0.0054867860945542555,2.4761669121759597
21/04/2022,16:52:56,35.617616,0.0,0.0,1.5275497436523438,1.5474929809570312,0.0,0.0,-0.003044907236471772,0,0,0,47.641468,-122.140165,123.52754211425781,0.0,0.0,0.0,0.0,0.0,0.0,-0.40830822540474526,-0.0065856165387863305,2.971378228477688,1.8901454802444722,-0.25799739921976594,-0.004161248374512427,1.8724502563476575,0.0,0.0,0.0,-0.06822993127806642,-0.0011004827625494778,0.49518775266169696,-0.34007829412667884,-0.005485133776236852,2.476190475815991
21/04/2022,16:52:56,35.814609,0.0,0.0,1.5269622802734375,1.5474929809570312,0.0,0.0,-0.0030402704142034054,0,0,0,47.641468,-122.140165,123.52693939208984,0.0,0.0,0.0,0.0,0.0,0.0,-0.40818606045498007,-0.006583646136370762,2.971406430064523,1.8907274455908982,-0.25799739921976594,-0.004161248374512427,1.8730377197265637,0.0,0.0,0.0,-0.06820921610694203,-0.0011001486468861814,0.49519272282452975,-0.33997684434803804,-0.005483497489484581,2.4762137072399932
21/04/2022,16:52:56,35.99761,0.0,0.0,1.5263900756835938,1.5474929809570312,0.0,0.0,-0.0030365679413080215,0,0,0,47.641468,-122.140165,123.52638244628906,0.0,0.0,0.0,0.0,0.0,0.0,-0.4080668374723232,-0.006581723185037587,2.9714338314594757,1.891294298222551,-0.25799739921976594,-0.004161248374512427,1.8736099243164075,0.0,0.0,0.0,-0.06818904821975658,-0.00109982335838319,0.49519754021007956,-0.3398777892525666,-0.005481899826654397,2.4762362912493963
21/04/2022,16:52:56,36.187618,0.0,0.0,1.52581787109375,1.5474929809570312,0.0,0.0,-0.0030335120391100645,0,0,0,47.641468,-122.140165,123.52581024169922,0.0,0.0,0.0,0.0,0.0,0.0,-0.40794744171091774,-0.006579797446950404,2.9714611533446385,1.8918611540765262,-0.25799739921976594,-0.004161248374512427,1.8741821289062512,0.0,0.0,0.0,-0.06816888944563872,-0.0010994982168651601,0.4952023343366087,-0.33977855226527903,-0.0054802992300852435,2.47625881900803
21/04/2022,16:52:57,36.377613,0.0,0.0,1.5252456665039062,1.5474929809570312,0.0,0.0,-0.0030307569541037083,0,0,0,47.641468,-122.140165,123.52523803710938,0.0,0.0,0.0,0.0,0.0,0.0,-0.40782799465841274,-0.006577870881587419,2.971488368305431,1.8924280131499283,-0.25799739921976594,-0.004161248374512427,1.874754333496095,0.0,0.0,0.0,-0.06814873979145585,-0.0010991732224428557,0.4952071053146546,-0.3396792548669569,-0.005478697659144563,2.4762812629907764
21/04/2022,16:52:57,36.566609,0.0,0.0,1.5246734619140625,1.5474929809570312,0.0,0.0,-0.003028815845027566,0,0,0,47.641468,-122.140165,123.52466583251953,0.0,0.0,0.0,0.0,0.0,0.0,-0.4077083167874163,-0.00657594059334554,2.9715155170030303,1.8929948754398649,-0.25799739921976594,-0.004161248374512427,1.8753265380859387,0.0,0.0,0.0,-0.06812859926406739,-0.0010988483752269128,0.4952118532547572,-0.3395797175233489,-0.005477092218118627,2.476303663748273
21/04/2022,16:52:57,36.755609,0.0,0.0,1.5240936279296875,1.5474929809570312,0.0,0.0,-0.003027182538062334,0,0,0,47.641468,-122.140165,123.52409362792969,0.0,0.0,0.0,0.0,0.0,0.0,-0.40758698204339444,-0.006573983581345189,2.9715429209427913,1.8935692991718587,-0.25799739921976594,-0.004161248374512427,1.8759063720703137,0.0,0.0,0.0,-0.06810819951347541,-0.0010985193469915584,0.49521664111324243,-0.33947878252991903,-0.0054754642343536305,2.4763262798295487
21/04/2022,16:52:57,36.944614,0.0,0.0,1.523529052734375,1.5474929809570312,0.0,0.0,-0.0030257925391197205,0,0,0,47.641468,-122.140165,123.52351379394531,0.0,0.0,0.0,0.0,0.0,0.0,-0.4074688241839194,-0.0065720778094181705,2.9715694912277053,1.8941286096577905,-0.25799739921976594,-0.004161248374512427,1.8764709472656262,0.0,0.0,0.0,-0.06808834561707136,-0.001098199122856009,0.4952212804633061,-0.339380478566848,-0.005473878686562162,2.476348210764399
21/04/2022,16:52:57,37.13761,0.0,0.0,1.5229568481445312,1.5474929809570312,0.0,0.0,-0.003024835605174303,0,0,0,47.641468,-122.140165,123.52294921875,0.0,0.0,0.0,0.0,0.0,0.0,-0.40734896599925613,-0.006570144612891343,2.97159632712756,1.8946954815800123,-0.25799739921976594,-0.004161248374512427,1.87704315185547,0.0,0.0,0.0,-0.0680682325111427,-0.0010978747179216759,0.49522595995284613,-0.33928073348811344,-0.005472269894969667,2.476370367174714
21/04/2022,16:52:58,37.331611,0.0,0.0,1.5223846435546875,1.5474929809570312,0.0,0.0,-0.0030239408370107412,0,0,0,47.641468,-122.140165,123.52236938476562,0.0,0.0,0.0,0.0,0.0,0.0,-0.40722914105907565,-0.0065682119525658535,2.9716230388088793,1.8952623567072344,-0.25799739921976594,-0.004161248374512427,1.8776153564453137,0.0,0.0,0.0,-0.06804812855936627,-0.0010975504606349595,0.49523061684663044,-0.3391810124997094,-0.0054706614919308935,2.476392421962249
21/04/2022,16:52:58,37.527614,0.0,0.0,1.5218048095703125,1.5474929809570312,0.0,0.0,-0.0030231268610805273,0,0,0,47.641468,-122.140165,123.52179718017578,0.0,0.0,0.0,0.0,0.0,0.0,-0.40710774219708745,-0.006566253906404751,2.971649982785248,1.8958367934359255,-0.25799739921976594,-0.004161248374512427,1.8781951904296887,0.0,0.0,0.0,-0.06802776589993598,-0.001097222030644148,0.49523531289592837,-0.3390799762971515,-0.005469031875760603,2.4764146698893197
21/04/2022,16:52:58,37.713612,0.0,0.0,1.5212249755859375,1.5474929809570312,0.0,0.0,-0.003022680291905999,0,0,0,47.641468,-122.140165,123.5212173461914,0.0,0.0,0.0,0.0,0.0,0.0,-0.40698627160809914,-0.006564294703356554,2.971676823595751,1.8964112334497134,-0.25799739921976594,-0.004161248374512427,1.8787750244140637,0.0,0.0,0.0,-0.06800741265448636,-0.001096893752491735,0.4952399859714595,-0.3389788589536128,-0.005467400950864818,2.476436837624292
21/04/2022,16:52:58,37.900612,0.0,0.0,1.520660400390625,1.5474929809570312,0.0,0.0,-0.0030217848252505064,0,0,0,47.641468,-122.140165,123.5206527709961,0.0,0.0,0.0,0.0,0.0,0.0,-0.40686821294198405,-0.0065623905313224404,2.9717027973370955,1.89697055977475,-0.25799739921976594,-0.004161248374512427,1.8793395996093762,0.0,0.0,0.0,-0.06798760407313774,-0.0010965742592441764,0.4952445141060263,-0.3388806088688463,-0.005465816272078264,2.4764582832310693
21/04/2022,16:52:58,38.091613,0.0,0.0,1.5200958251953125,1.5474929809570312,0.0,0.0,-0.003021343844011426,0,0,0,47.641468,-122.140165,123.52008056640625,0.0,0.0,0.0,0.0,1.0,0.0,-0.40675004938886755,0.9934395153324376,2.971728682410453,1.8975298892086774,-0.25799739921976594,-0.004161248374512427,1.8799041748046887,0.0,1.0,0.0,-0.06796780443005568,-0.0010962549101622076,0.49524902067532633,-0.3387822449588119,-0.005464229757400288,2.476479661735127
21/04/2022,16:52:59,38.288612,-3.89456981793046e-05,0.0035117538645863533,1.5226898193359375,1.5474929809570312,2.9157904389565115e-13,0.0674852803349495,0.04890719801187515,2.9157904389565115e-13,0.0674852803349495,0.04890719801187515,47.641468033387234,-122.140165,123.52283477783203,3.511355208324226e-10,-4.191061494353087,-5.666854750576563e-09,-2.967158208895291e-10,3.0,0.0,-0.4291649977737115,2.9930779839116615,2.964865428933806,1.8949624322166985,-0.25801509011074203,-0.004161533711463661,1.8773101806640637,-2.967158208895291e-10,3.0,0.0,-0.06806343087307255,-0.0010977972721463527,0.49522751422833977,-0.3611015666039231,-0.005824218816192384,2.469637914705466
21/04/2022,16:52:59,38.48861,-0.000470957369543612,0.04246639274060726,1.5686416625976562,1.5686416625976562,-7.608866314789964e-11,0.4321008026599884,0.5156669616699219,2.9157904389565115e-13,0.4321008026599884,0.5156669616699219,47.64146840539624,-122.140165,123.57173156738281,2.632584699720076e-09,-13.348227147330297,-3.138863641999374e-08,-1.6435051597208892e-09,3.0,0.0,-0.06975898123787996,2.998874855167833,0.4947640751103631,1.8494766272124852,-0.2582113280159667,-0.004164698838967196,1.831358337402345,-1.6435051597208892e-09,3.0,0.0,-0.0697589795943748,-0.0011251448321673329,0.4947640751103631,-0.0,-0.0,0.0
21/04/2022,16:52:59,38.695618,-0.001987088704481721,0.1791764684021473,1.6857528686523438,1.6857528686523438,-3.4185709818501664e-10,0.9554157257080078,0.5890556573867798,2.9157904389565115e-13,0.9554157257080078,0.5890556573867798,47.64146963785142,-122.140165,123.6875228881836,1.1030667491163143e-08,-14.863002638712562,-8.144955214272683e-08,-4.2646885774961565e-09,3.0,0.0,-0.07438518810389533,2.998800238970335,0.49252444488413355,1.733692557635305,-0.25890001874145785,-0.0041758067538945065,1.7142471313476575,-4.2646885774961565e-09,3.0,0.0,-0.07438518383920675,-0.0011997610296646322,0.49252444488413355,-0.0,-0.0,0.0
21/04/2022,16:52:59,38.877616,-0.0044749758671969175,0.40351010393351316,1.7848587036132812,1.7848587036132812,-6.555307408007138e-10,1.3858569860458374,0.4287032186985016,2.9157904389565115e-13,1.3858569860458374,0.5890556573867798,47.641471667987055,-122.140165,123.78614807128906,2.8752118324057954e-08,-12.972230815511967,-1.6869293949328195e-07,-8.832741657076034e-09,3.0,0.0,-0.07870707655444432,2.998730531165779,0.4888781130500075,1.6359445777838815,-0.2600301220313063,-0.004194034226311372,1.61514129638672,-8.832741657076034e-09,3.0,0.0,-0.07870706772170266,-0.0012694688342210045,0.4888781130500075,-0.0,-0.0,0.0
21/04/2022,16:52:59,39.071609,-0.00774320843629539,0.6982077453285456,1.8510513305664062,1.8510513305664062,-8.053984701383854e-10,1.7371746301651,0.27355822920799255,2.9157904389565115e-13,1.7371746301651,0.5890556573867798,47.641474329113706,-122.140165,123.85187530517578,4.7832185196949034e-08,-10.49976594020871,-2.6171302682008994e-07,-1.3703262040112385e-08,3.0,0.0,-0.7081428245462076,2.9885783417605976,2.4609520844929644,1.5708754583055136,-0.2615146910224318,-0.004217978887458784,1.548948669433595,-1.3703262040112385e-08,3.0,0.0,-0.08192297723502853,-0.001321338342500525,0.48522890277453506,-0.626219833607917,-0.010100319896901994,1.9757231817184293
21/04/2022,16:53:00,39.270612,-0.011744195246137679,1.0589780509471893,1.8925247192382812,1.8925247192382812,-5.414321768704156e-10,2.024752378463745,0.16296175122261047,2.9157904389565115e-13,2.024752378463745,0.5890556573867798,47.641477583033044,-122.140165,123.89302062988281,7.07598239881587e-08,-8.198286195823336,-3.777619556469801e-07,-1.9779569744437766e-08,3.0,0.0,-0.6921307946429074,2.9888366004054285,2.6678794787299935,1.5303083219865365,-0.26333210731666384,-0.004247292053495055,1.50747528076172,-1.9779569744437766e-08,3.0,0.0,-0.08425585607287886,-0.0013589654205304568,0.48233244925407015,-0.6078749187904587,-0.009804434174041244,2.185547029475923
21/04/2022,16:53:00,39.469614,-0.01636520982719958,1.475656463764608,1.9171295166015625,1.9171295166015625,3.853632968287002e-10,2.252906560897827,0.09311480820178986,3.853632968287002e-10,2.252906560897827,0.5890556573867798,47.64148133840078,-122.140165,123.91740417480469,9.002362986043999e-08,-6.289680275803469,-4.6802522782245834e-07,-2.4505743623695408e-08,3.0,-1.0,-0.6804697241521631,2.9890246822637665,1.7603462268938894,1.5064451210617014,-0.26543116623605995,-0.004281147842517541,1.4828704833984387,-2.4505743623695408e-08,3.0,-1.0,-0.0859801330632093,-0.0013867763397293264,0.48034073498631297,-0.5944895665832102,-0.009588541396503985,2.2800054919075765
21/04/2022,16:53:00,39.689611,-0.021836526109836996,1.9690068177878857,1.8654251098632812,1.9171295166015625,1.510399028070708e-09,2.3704288005828857,-0.7535545229911804,1.510399028070708e-09,2.3704288005828857,0.5890556573867798,47.64148578068201,-122.140165,123.8631820678711,1.1826697648853314e-07,-5.121450339428621,-6.340501953720107e-07,-3.31987905964647e-08,2.9999999999999996,-1.0,-0.4329482945152392,2.993016963527153,2.5617609076830963,1.5577926690949755,-0.26791646718768153,-0.004321233341737063,1.53457489013672,-3.31987905964647e-08,2.9999999999999996,-1.0,-0.08450514410963134,-0.0013629861953167177,0.48402949471255086,-0.34844311720681725,-0.005620050277529727,3.0777314129705453
21/04/2022,16:53:00,39.88861,-0.027152913389727473,2.448450554162264,1.6702957153320312,1.9171295166015625,1.9486718883854337e-05,2.492199659347534,-1.063954472541809,1.9486718883854337e-05,2.492199659347534,0.5890556573867798,47.641490165106255,-122.14016499998908,123.66390991210938,0.028396597607708986,-4.071331937077705,-0.3928887893979983,-0.020571447690820248,2.9999294684275335,-1.0,-0.6216498246241502,2.9902346558963497,5.2568385909716895,1.750707153778203,-0.27033241489933624,-0.004360200240312029,1.72970428466797,-0.020571447690820248,2.9999294684275335,-1.0,-0.0769674054309263,-0.001241409765014984,0.49247091216650424,-0.5241109715024037,-0.008453402766168733,5.764367678805185
21/04/2022,16:53:00,40.085617,-0.032704603974707425,2.9447355391457677,1.4624176025390625,1.9171295166015625,-0.0010771191446110606,2.6047794818878174,-1.0646331310272217,1.9486718883854337e-05,2.6047794818878174,0.5890556573867798,47.641494566454924,-122.14016500066965,123.459228515625,0.006624152295035682,-3.194374413292904,-1.620301288317299,-0.08482746942373663,2.998800476929261,-1.0,-0.7638750518714884,2.9878480965672005,6.482889005506089,1.9566952721364246,-0.272784682899418,-0.004399752949991065,1.9375823974609387,-0.08482746942373663,2.998800476929261,-1.0,-0.06970432653756424,-0.0011242633312511516,0.4951079902673744,-0.6093432559101876,-0.009828117030809803,6.987781015238714
21/04/2022,16:53:01,40.280614,-0.03889077960047871,3.4442353527992964,1.2618026733398438,1.9171295166015625,-0.00774866808205843,2.6884353160858154,-1.0576564073562622,1.9486718883854337e-05,2.6884353160858154,0.5890556573867798,47.64149906320109,-122.1401650095421,123.25862884521484,-0.22665832826487178,-2.528089826616557,-3.1908618175143992,-0.166986784789492,2.9953489635943367,-2.0,-0.9058100745925526,2.983432458920089,6.798532245384009,2.1557695863526107,-0.27465446946406147,-0.0044299107978069685,2.1381973266601575,-0.166986784789492,2.9953489635943367,-2.0,-0.0637503397958368,-0.0010282312870295157,0.49629924607133025,-0.6750729500072238,-0.010888273387218244,8.302232999312679
21/04/2022,16:53:01,40.454611,-0.04711357003543526,3.9640295384451747,1.0120086669921875,1.9171295166015625,-0.018519124016165733,2.7283313274383545,-1.726396918296814,1.9486718883854337e-05,2.7283313274383545,0.5890556573867798,47.64150374155459,-122.14016504269641,123.00685119628906,-0.601202618752,-2.187569281159122,-5.314310531970504,-0.27785784791636214,2.987104788311131,0.0,-2.0638294651579177,2.9582987944846457,31.48541804608078,2.403756594499347,-0.27481541434782514,-0.0044325066830293025,2.3879913330078137,-0.27785784791636214,2.987104788311131,0.0,-0.057916241082076096,-0.0009341329206786181,0.5032595499513811,-1.7280553761594795,-0.0278718609058069,30.9821584961294
21/04/2022,16:53:01,40.644611,-0.05960647913161665,4.476432682015002,0.7303619384765625,1.9171295166015625,-0.06421693414449692,2.7983362674713135,-0.9706861972808838,1.9486718883854337e-05,2.7983362674713135,0.5890556573867798,47.64150835464006,-122.14016513516874,122.72742462158203,-0.9777214737265079,-1.614273148850667,-7.521082791371203,-0.39267299854857896,2.9741902958975017,0.0,-1.0232640531899015,2.9640194724355444,11.974796315599486,2.6833196577334744,-0.27058817178231354,-0.004364325351328802,2.6696380615234387,-0.39267299854857896,2.9741902958975017,0.0,-0.053637836037745044,-0.000865126387705796,0.5291938952132619,-0.5769532186035776,-0.009305697074251638,11.445602420386225
21/04/2022,16:53:01,40.830611,-0.08239570911973715,4.984112557023764,0.650848388671875,1.9171295166015625,-0.13040660321712494,2.850537061691284,0.04245864599943161,1.9486718883854337e-05,2.850537061691284,0.5890556573867798,47.64151292578983,-122.14016536623893,122.65096282958984,-1.424103612620562,-1.2981355360870446,-8.600082757165355,-0.44861031476536156,2.9662684951780953,0.0,-0.585634788485715,2.9640584230213154,3.1877971419035607,2.7610474616492477,-0.25599112423386317,-0.004128889100545763,2.7491516113281262,-0.44861031476536156,2.9662684951780953,0.0,-0.05044443731823859,-0.0008136199567457015,0.5417352126993449,-0.0865800364021149,-0.0013964522000342221,2.646061929204216
21/04/2022,16:53:01,41.009615,-0.11702248244546354,5.506716689094901,0.6725997924804688,1.9171295166015625,-0.18540409207344055,2.871821880340576,0.13589809834957123,1.9486718883854337e-05,2.871821880340576,0.5890556573867798,47.641517631553306,-122.14016575224439,122.67300415039062,-1.6394003559850983,-1.076734791730325,-9.13335394269838,0.0,0.0,0.0,0.00475135739408767,7.663479667655015e-05,3.0850765374301328,2.7370666398141026,-0.2298002632518913,-0.003706455858901947,2.7274002075195325,0.0,0.0,0.0,-0.04534120119501319,-0.0007313096966938547,0.5381351605020238,0.05009255858910086,0.0008079444933704049,2.546941376928109
21/04/2022,16:53:02,41.19161,-0.16093214112333953,6.028861655853689,0.7155838012695312,1.9171295166015625,-0.21236161887645721,2.643981456756592,0.4988110363483429,1.9486718883854337e-05,2.871821880340576,0.5890556573867798,47.64152225614209,-122.14016625229249,122.71558380126953,-1.6949124962812028,11.501818492873372,-9.759174843077636,0.0,0.0,0.0,0.17442395917952663,0.0028132896641837966,3.0080630619307915,2.6914421798124666,-0.19432152722621887,-0.0031342181810680714,2.68441619873047,0.0,0.0,0.0,-0.03848661984604646,-0.0006207519330007542,0.5316657769410996,0.2129105790255731,0.0034340415971845506,2.476397284989692
21/04/2022,16:53:02,41.382613,-0.2020326496567577,6.461251547560096,0.8303146362304688,1.9171295166015625,-0.18611153960227966,2.159409284591675,0.6914621591567993,1.9486718883854337e-05,2.871821880340576,0.6914621591567993,47.64152620863947,-122.14016674304943,122.83238983154297,-1.5160351127339757,14.787460037340237,-9.977622050914466,0.0,0.0,0.0,0.23428516508068653,0.0037787929851710164,2.7414701599141917,2.5746756772442887,-0.16020392475114414,-0.0025839342701798884,2.5696853637695325,0.0,0.0,0.0,-0.03229239288475571,-0.000520845046528347,0.5179728866565081,0.26657755796544225,0.004299638031699363,2.2234972732576836
21/04/2022,16:53:02,41.559609,-0.23600102693308145,6.805597368627787,0.9437789916992188,1.9171295166015625,-0.15296810865402222,1.7387117147445679,0.5648028254508972,1.9486718883854337e-05,2.871821880340576,0.6914621591567993,47.64152929867056,-122.14016714307927,122.94548034667969,-1.2501705447154672,13.73087014054724,-10.010206962202009,0.0,0.0,0.0,0.1809480330266465,0.002918516661715883,2.8506032768647387,2.459755391073127,-0.1317969022949695,-0.0021257564886285607,2.4562210083007825,0.0,0.0,0.0,-0.02731135961523803,-0.000440505800245779,0.5089856748079706,0.20825939264188453,0.0033590224619616618,2.341617602056768
21/04/2022,16:53:02,41.738617,-0.26390474603977054,7.085449275560677,1.0301132202148438,1.9171295166015625,-0.12179770320653915,1.3775252103805542,0.39150097966194153,1.9486718883854337e-05,2.871821880340576,0.6914621591567993,47.64153180945763,-122.14016747197448,123.03128814697266,-0.9949165610338836,11.46894699242465,-9.992931052916617,0.0,0.0,0.0,0.11758927235639491,0.0018966011670339808,2.966024467090048,2.3723658627294557,-0.10841300684210248,-0.0017485968845507571,2.3698867797851575,0.0,0.0,0.0,-0.023085077323857395,-0.0003723399568365623,0.5046352015658823,0.1406743496802523,0.002268941123870543,2.461389265524166
21/04/2022,16:53:02,41.919122,-0.28559868806041777,7.302693486213684,1.0872116088867188,1.9171295166015625,-0.09569454193115234,1.0833617448806763,0.2566574215888977,1.9486718883854337e-05,2.871821880340576,0.6914621591567993,47.64153375816445,-122.14016772764988,123.0879898071289,-0.7843086331551524,9.19307907703826,-9.969617160937592,0.0,0.0,0.0,0.07211418879790345,0.0011631320773845884,2.9970844562138934,2.314548185716379,-0.09022773452301752,-0.0014552860406960022,2.3127883911132825,0.0,0.0,0.0,-0.019612756586070205,-0.0003163347836467655,0.502729631745571,0.09172694538397365,0.0014794668610313539,2.4943548244683225
21/04/2022,16:53:02,42.099121,-0.30256106541492045,7.472870530560613,1.1241912841796875,1.9171295166015625,-0.07444662600755692,0.8452864289283752,0.16444845497608185,1.9486718883854337e-05,2.871821880340576,0.6914621591567993,47.64153528447244,-122.14016792748042,123.12468719482422,-0.6139438002929916,7.219231173383908,-9.950900630297955,-0.1728041872786425,0.9849561984468994,0.0,-0.13105483517576386,0.9856295750937182,3.0010896768210698,2.277078153889192,-0.07601384588811544,-0.001226029772388948,2.2758087158203137,-0.1728041872786425,0.9849561984468994,0.0,-0.016762103217753167,-0.0002703565035121455,0.5018472641759416,0.05851145532063182,0.000943733150330876,2.499242412645128
21/04/2022,16:53:03,42.274645,-0.31623794068582356,7.608568747527897,1.1381072998046875,1.9171295166015625,-0.06711924076080322,0.715388298034668,0.016967596486210823,1.9486718883854337e-05,2.871821880340576,0.6914621591567993,47.641536503141296,-122.14016808921417,123.1381607055664,-0.4817580126764922,1.6960662915597908,-9.900666349870557,-0.17194055708846834,0.9851073265528519,0.0,-0.13384318943136983,0.9857218002247391,3.007023869529858,2.2628132083155394,-0.06452863936291908,-0.001040784505855541,2.2618927001953137,-0.17194055708846834,0.9851073265528519,0.0,-0.014310265007997376,-0.0002308107259358867,0.5016111338936723,0.05240763266509587,0.0008452843978230212,2.505412735636186
21/04/2022,16:53:03,42.459645,-0.33087224164046347,7.73712769523263,1.1413650512695312,1.9171295166015625,-0.07914771139621735,0.706467866897583,0.02124027907848358,1.9486718883854337e-05,2.871821880340576,0.6914621591567993,47.64153766095194,-122.14016826552648,123.14142608642578,-0.3709291938913732,-0.8765431685389377,-9.881534591230743,-0.3432232163484359,1.970329369359203,0.0,-0.2604433065209536,1.9716645291951294,3.004993230117348,2.259232952424281,-0.05197113660298602,-0.0008382441387588813,2.25863494873047,-0.3432232163484359,1.970329369359203,0.0,-0.011542017691106651,-0.000186161575663242,0.5016092823819642,0.09432192751858892,0.00152132141158963,2.503383947735384
21/04/2022,16:53:03,42.634648,-0.34821121918503195,7.867136533372104,1.1502838134765625,1.9171295166015625,-0.1057937741279602,0.7989190816879272,0.10318858921527863,1.9486718883854337e-05,2.871821880340576,0.6914621591567993,47.64153885636662,-122.14016848245528,123.1509017944336,-0.2861114984324536,-5.433969668151781,-9.855475932454524,-0.34232705657415025,1.9704852667140849,0.0,-0.16865241126641195,1.9732864706706597,2.994928758490251,2.2500161304192194,-0.03673303992764826,-0.0005924683859319657,2.2497161865234387,-0.34232705657415025,1.9704852667140849,0.0,-0.008188353052265762,-0.0001320702105208959,0.5014959404104586,0.18186299836000408,0.002933274167095683,2.4934328180797922
21/04/2022,16:53:03,42.812644,-0.37263875908683985,8.026771660894156,1.1732177734375,1.9171295166015625,-0.14728614687919617,0.9915569424629211,0.13549399375915527,1.9486718883854337e-05,2.871821880340576,0.6914621591567993,47.64154027861051,-122.1401687814855,123.17362213134766,-0.21553730275807725,-6.678948865021469,-9.849317479582417,-0.3421152564375519,1.9705220504507601,0.0,-0.0314379038281159,1.975532975492845,2.9813378882640165,2.2268319948969637,-0.014885943574935057,-0.00024009586411111172,2.2267822265625012,-0.3421152564375519,1.9705220504507601,0.0,-0.003350205755996061,-5.403557670944644e-05,0.5011559123024529,0.31402755836543206,0.005064960618794249,2.4801819759615635
21/04/2022,16:53:03,42.991697,-0.40425136766862124,8.218102687969804,1.1952362060546875,1.9171295166015625,-0.18590182065963745,1.1808137893676758,0.10854749381542206,1.9486718883854337e-05,2.871821880340576,0.6914621591567993,47.641542008232975,-122.14016917561725,123.19556427001953,-0.16303053700620673,-6.138506674540218,-9.850832755276954,-0.3421673698277299,1.9705130019934336,0.0,0.09117879306608889,1.9775024562336556,2.963541428947705,2.204805955467475,0.013633261551118936,0.0002198913153392823,2.2047637939453137,-0.3421673698277299,1.9705130019934336,0.0,0.0030970265944690665,4.995204184596957e-05,0.5008494906936437,0.4302491362993497,0.006939502198375953,2.4626919382540615
21/04/2022,16:53:03,43.167895,-0.442579154856503,8.440794544294477,1.21148681640625,1.9171295166015625,-0.2187061607837677,1.3446751832962036,0.07467547804117203,1.9486718883854337e-05,2.871821880340576,0.6914621591567993,47.64154401997359,-122.14016965428073,123.21171569824219,-0.1246302148544732,-5.1396203782927214,-9.853272393014443,-0.17112563669590947,0.985249215409695,0.0,0.36992784179335547,0.9939758844175868,2.944046394119065,2.1890475721492035,0.04836021053891815,0.0007800033957874319,2.1885131835937512,-0.17112563669590947,0.985249215409695,0.0,0.011060873923734877,0.00017840119231794528,0.5005534122867705,0.5299926045655301,0.008548267815573775,2.4434929818322946
21/04/2022,16:53:04,43.343895,-0.48592610750347376,8.686919969506562,1.215667724609375,1.9171295166015625,-0.23534736037254333,1.4218144416809082,-0.004357123281806707,1.9486718883854337e-05,2.871821880340576,0.6914621591567993,47.64154624074127,-122.14017019566106,123.21565246582031,-0.09672911202279715,-0.16990194878412754,-9.862852370846822,-0.1712903700955649,0.9852205890624315,0.0,0.41946846653529934,0.9947489573951857,2.94245121117611,2.186093672628218,0.08772715712196266,0.0014149541471280003,2.1843322753906262,-0.1712903700955649,0.9852205890624315,0.0,0.02009068303219095,0.0003240432747126588,0.5002410749597958,0.5706681535986733,0.009204325058041458,2.4422101362163144
21/04/2022,16:53:04,43.529894,-0.5310314617818221,8.939812085591257,1.2166213989257812,1.9171295166015625,-0.23185758292675018,1.3861010074615479,0.013738874346017838,1.9486718883854337e-05,2.871821880340576,0.6914621591567993,47.64154851949458,-122.14017075863997,123.21665954589844,-0.07563220218250782,1.9223259230033132,-9.866225721063108,-0.1713483757131439,0.9852105024513631,0.0,0.4750037925892455,0.9956355374239796,2.928291726052599,2.187171957369714,0.12874293622436056,0.002076498971360863,2.18337860107422,-0.1713483757131439,0.9852105024513631,0.0,0.02946996827310817,0.0004753220689211473,0.4997874057315889,0.6168822000292813,0.009949712903695253,2.4285043203210104
21/04/2022,16:53:04,43.708892,-0.5739913139259443,9.178703821264207,1.2194442749023438,1.9171295166015625,-0.22222019731998444,1.3187503814697266,0.016278421506285667,1.9486718883854337e-05,2.871821880340576,0.6914621591567993,47.641550671209714,-122.14017129487625,123.21949768066406,-0.059192374030381696,2.2730352060568424,-9.866746565893127,-0.17135733171994566,0.9852089447755844,0.0,0.5092988563423135,0.9961872703894921,2.920934618671918,2.187007248446213,0.1678395250488814,0.002707089113691552,2.1805557250976575,-0.17135733171994566,0.9852089447755844,0.0,0.03842215384514089,0.000619712158792576,0.49917710094332357,0.6422340342171183,0.010358613455115084,2.4217575177285946
21/04/2022,16:53:04,43.886892,-0.6157002638792619,9.409195650368929,1.2220535278320312,1.9171295166015625,-0.21192000806331635,1.2501046657562256,0.012203596532344818,1.9486718883854337e-05,2.871821880340576,0.6914621591567993,47.64155274719569,-122.14017181567205,123.22209167480469,-0.04588318988863893,2.0556709905876063,-9.86660218748369,0.0,0.0,0.0,0.7085409007830776,0.0114280790448878,2.9158625661000546,2.1876526537606393,0.2058209841427852,0.003319693292626269,2.17794647216797,0.0,0.0,0.0,0.047103682822797706,0.0007597368197227041,0.4984394582374627,0.6614372179602799,0.010668342225165097,2.417423107862592
21/04/2022,16:53:04,44.064893,-0.6543519838014618,9.621738284826279,1.2299728393554688,1.9171295166015625,-0.19273461401462555,1.1322672367095947,0.09501884132623672,1.9486718883854337e-05,2.871821880340576,0.6914621591567993,47.641554629540124,-122.14017229035231,123.22997283935547,-0.03559064113199846,5.66607876689875,-9.86918601537727,0.0,0.0,0.0,0.7691076874179015,0.012404962700286763,2.893597795580102,2.183376072368119,0.24103543616998435,0.0038876683253210587,2.1700271606445325,0.0,0.0,0.0,0.05526594819806391,0.0008913862612588042,0.49755592187696307,0.7138417392198375,0.01151357643902796,2.396041873703139
21/04/2022,16:53:05,44.238892,-0.6867902287049219,9.799653567373753,1.2492218017578125,1.9171295166015625,-0.1614105999469757,0.9467108249664307,0.11719846725463867,1.9486718883854337e-05,2.871821880340576,0.6914621591567993,47.64155625899373,-122.14017270237677,123.24957275390625,-0.027725645015826274,6.529253287258529,-9.869734466368053,0.0,0.0,0.0,0.7669152572779029,0.012369600923833412,2.8952294434421724,2.16773806364711,0.2705963895876585,0.004364457896574692,2.1507781982421887,0.0,0.0,0.0,0.06247337014707049,0.0010076350023720017,0.49655637566999467,0.7044418871308324,0.01136196592146141,2.3986730677721777
21/04/2022,16:53:05,44.414889,-0.7143045734846964,9.950399751774967,1.2680282592773438,1.9171295166015625,-0.12962821125984192,0.7597373127937317,0.09131618589162827,1.9486718883854337e-05,2.871821880340576,0.6914621591567993,47.64155761292113,-122.14017304512488,123.26830291748047,-0.021383199126681865,5.921320095536708,-9.86950571570959,0.0,0.0,0.0,0.725050789667785,0.011694367575284706,2.907901905962974,2.152382090323885,0.29567282077116397,0.00476891646404809,2.1319717407226575,0.0,0.0,0.0,0.06873362804954308,0.0011086069040242045,0.4956091407278225,0.6563171616182419,0.010585760671260502,2.4122927652351516
21/04/2022,16:53:05,44.589892,-0.7365207321709022,10.072057286277413,1.2816696166992188,1.9171295166015625,-0.10180000215768814,0.5964346528053284,0.060068123042583466,1.9486718883854337e-05,2.871821880340576,0.6914621591567993,47.64155868914021,-122.14017331771501,123.28166961669922,-0.01643792540863746,4.904013757678976,-9.869179222088443,0.0,0.0,0.0,0.6809377551592377,0.010982867018693651,2.9200569530532587,2.141764685278499,0.3159214935541609,0.005095507960549028,2.1183303833007825,0.0,0.0,0.0,0.07379464061899924,0.0011902361390156604,0.4948109974707648,0.6071431145402385,0.00979263087967799,2.425245955582494
21/04/2022,16:53:05,44.774897,-0.7538773330161348,10.16708005964756,1.2902984619140625,1.9171295166015625,-0.0791446641087532,0.4636271297931671,0.0364321693778038,1.9486718883854337e-05,2.871821880340576,0.6914621591567993,47.641559545766874,-122.14017353474061,123.29029846191406,-0.012645362547959938,3.9068227545209586,-9.868916083785432,-0.9852024555844551,-0.17139463676078046,0.0,-0.33959251843016103,-0.16098157325829437,2.929194883329632,2.135631413680135,0.3317413535541934,0.005350666992807618,2.1097015380859387,-0.9852024555844551,-0.17139463676078046,0.0,0.07770697094438324,0.001253338241037982,0.49417570153666,0.5679029662099108,0.009159725261448095,2.435019181792972
21/04/2022,16:53:05,44.960895,-0.7697576466016471,10.239028183743358,1.2978668212890625,1.9171295166015625,-0.11736301332712173,0.3475278317928314,0.06826156377792358,1.9486718883854337e-05,2.871821880340576,0.6914621591567993,47.64156020403603,-122.14017374018005,123.2980728149414,-3.97558142058485,3.069913331716383,-9.844412163762762,-0.9852756665272203,-0.1709732755413596,0.0,-0.2077388250280786,-0.15843235874298797,2.8946959376654937,2.130499436000817,0.34645738521317127,0.00558802234214717,2.1021331787109387,-0.9852756665272203,-0.1709732755413596,0.0,0.0813451001296086,0.0013120177440257685,0.4935620979844332,0.6961917413695331,0.011228899054345872,2.4011338396810604
21/04/2022,16:53:05,45.133891,-0.8024736667284742,10.291359920054674,1.312652587890625,1.9171295166015625,-0.2494543194770813,0.23838533461093903,0.08616489171981812,1.9486718883854337e-05,2.871821880340576,0.6914621591567993,47.64156066872878,-122.14017416331562,123.31265258789062,-5.169746292691163,2.380748189610582,-9.790579010761368,-0.9854358722476069,-0.17004746892441,0.0,0.1374417672656142,-0.1519365392548442,2.7689942316216767,2.121363541212774,0.3783210558805891,0.006101952514200093,2.0873474121093762,-0.9854358722476069,-0.17004746892441,0.0,0.08920119162037085,0.0014387288971020582,0.4921583760450878,1.0336764478928502,0.016672200772463727,2.276835855576589
21/04/2022,16:53:06,45.308749,-0.8579684676369652,10.324608844704926,1.3263015747070312,1.9171295166015625,-0.38652685284614563,0.15147751569747925,0.06768875569105148,1.9486718883854337e-05,2.871821880340576,0.6914621591567993,47.641560977501236,-122.14017491257847,123.32649993896484,-4.838447254238049,1.8497873992017708,-9.745352596235374,-0.9855697921771434,-0.16926956237877624,0.0,0.43941651174215535,-0.14628591231556412,2.6239037061935493,2.118488330174212,0.4332652903055368,0.006988149843635938,2.07369842529297,-0.9855697921771434,-0.16926956237877624,0.0,0.10229214690484328,0.0016498733371744778,0.48959163981684845,1.3226941570144555,0.021333776726037645,2.134312066376701
21/04/2022,16:53:06,45.49269,-0.939160040114075,10.344422496855259,1.3364028930664062,1.9171295166015625,-0.5124506950378418,0.07948064059019089,0.044378772377967834,1.9486718883854337e-05,2.871821880340576,0.6914621591567993,47.64156116191265,-122.14017599553362,123.33654022216797,-4.067503732258712,1.4188908896199137,-9.712174297374718,-0.9856676459491911,-0.16869881958383698,0.0,0.7090124277114084,-0.14136527000866642,2.508501817538625,2.126691633418603,0.5141162547187199,0.008292197656754041,2.063597106933595,-0.9856676459491911,-0.16869881958383698,0.0,0.12092146730141394,0.0019503462467971152,0.4853633546869397,1.5737586063591855,0.025383203328373467,2.0231384628516853
21/04/2022,16:53:06,45.672693,-1.041017928509973,10.352458915673196,1.342742919921875,1.9171295166015625,-0.6162984371185303,0.022996950894594193,0.026525618508458138,1.9486718883854337e-05,2.871821880340576,0.6914621591567993,47.64156124345847,-122.14017737914048,123.34290313720703,-3.267396358964587,1.0862671735996634,-9.690712485200917,-0.9857307678817453,-0.1683295970745035,0.0,0.9816154542707691,-0.1365982063946275,2.4580339045590187,2.14747229078529,0.6158180661692063,0.009932549454340744,2.0572570800781262,-0.9857307678817453,-0.1683295970745035,0.0,0.14347404711956416,0.002314097534186217,0.4793022736086555,1.8238721750329503,0.029417293145689798,1.9787316309503633
21/04/2022,16:53:06,45.852692,-1.1575217883801088,10.35138407535851,1.3463668823242188,1.9171295166015625,-0.6977863907814026,-0.020209943875670433,0.014873605221509933,1.9486718883854337e-05,2.871821880340576,0.6914621591567993,47.64156124363417,-122.14017890880099,123.3464126586914,-2.5806031173580193,0.8349039800993424,-9.677558823343874,-0.9857693861232723,-0.16810329378732278,0.0,1.2919493527167016,-0.13136589477377703,2.4777107091715944,2.1803267877420716,0.7323089575711081,0.01181143479953306,2.0536331176757825,-0.9857693861232723,-0.16810329378732278,0.0,0.16813254496772212,0.0027118152414146563,0.4714984828944953,2.1095861938722518,0.03402558377213109,2.006212226277099
21/04/2022,16:53:06,46.029696,-1.286849870462902,10.343391679227352,1.3483200073242188,1.9171295166015625,-0.7618056535720825,-0.0536908321082592,0.007578616961836815,1.9486718883854337e-05,2.871821880340576,0.6914621591567993,47.641561183733266,-122.14018063418654,123.34834289550781,-2.018632924513442,0.6419161979130423,-9.669499745520788,-0.16796463632392725,0.9857930213511206,0.0,2.4877705702160293,1.028627460166279,2.5625505667099175,2.2253463764053856,0.8617322803504028,0.01389890774758662,2.0516799926757825,-0.16796463632392725,0.9857930213511206,0.0,0.19406068730848908,0.003130011085620674,0.4620349482020562,2.4616745192314675,0.03970442772953781,2.1005156185078615
21/04/2022,16:53:07,46.202692,-1.4240129288518801,10.333110659383237,1.3495941162109375,1.9171295166015625,-0.7649854421615601,-0.013655345886945724,0.04708537459373474,1.9486718883854337e-05,2.871821880340576,0.6914621591567993,47.641561106362374,-122.14018243118925,123.34959411621094,2.3916012209630106,-3.4778712752854504,-9.668842375848874,-0.33590665209625636,1.9715898967781014,0.0,2.5406062877739233,2.017985266776007,2.506327798730258,2.280893633587931,0.9990254454160902,0.016113313635742088,2.0504058837890637,-0.33590665209625636,1.9715898967781014,0.0,0.219969419372641,0.003547893860848762,0.45146657055113987,2.6565435204975385,0.042847476137056785,2.054861228179118
21/04/2022,16:53:07,46.387693,-1.553307845722884,10.345661117695272,1.376373291015625,1.9171295166015625,-0.6868196725845337,0.21518079936504364,0.265760600566864,1.9486718883854337e-05,2.871821880340576,0.6914621591567993,47.6415612379078,-122.14018417803234,123.37716674804688,3.9312864629551325,-8.786985617017406,-9.954338996849685,-0.34572658998768035,1.9698916531056956,0.0,2.3645669088433094,2.0136060643771607,1.9141716345998794,2.3168880936531795,1.1280843614204574,0.018194909055168296,2.0236267089843762,-0.34572658998768035,1.9698916531056956,0.0,0.24499754308157964,0.003951573275509268,0.4394915741861326,2.46529595574941,0.039762837995955876,1.4746800604137469
21/04/2022,16:53:07,46.567691,-1.6713390443474054,10.410585060715675,1.429107666015625,1.9171295166015625,-0.6149840950965881,0.53143709897995,0.28961119055747986,1.9486718883854337e-05,2.871821880340576,0.6914621591567993,47.641561842314296,-122.14018573681821,123.42997741699219,3.809353286991124,-9.68742502055738,-9.999895235812087,0.46386893962675624,3.128070588533697,0.0,3.1518826338369035,3.171425648117729,1.7956436657727761,2.3312956499558712,1.2450379746962432,0.020081257656389795,1.9708923339843762,0.46386893962675624,3.128070588533697,0.0,0.2689689695016157,0.004338209185509666,0.4257772781587201,2.419044724708532,0.03901685039852263,1.369866387614056
21/04/2022,16:53:07,46.749877,-1.773398518562317,10.53619571775198,1.501190185546875,1.9171295166015625,-0.4954531788825989,0.9487588405609131,0.5723565220832825,1.9486718883854337e-05,2.871821880340576,0.6914621591567993,47.64156296832446,-122.14018705228877,123.50119018554688,7.086164548697411,-12.45252017227478,-10.248421334016905,0.45029630349947103,3.130053232623163,0.0,3.153756386531531,3.173657427510776,1.200054469895806,2.3270360175115656,1.3450454540579775,0.021694281517063985,1.8988098144531262,0.45029630349947103,3.130053232623163,0.0,0.2910257223823554,0.004693963264231504,0.4108429914028078,2.412434360649704,0.03891023162338129,0.7892114784929981
21/04/2022,16:53:07,46.928877,-1.8506072481395677,10.743575689382851,1.6058883666992188,1.9171295166015625,-0.3313952386379242,1.3705626726150513,0.5445862412452698,1.9486718883854337e-05,2.871821880340576,0.6914621591567993,47.641564878619334,-122.14018806279681,123.6075210571289,7.635096452075415,-12.218091089528848,-10.195395821332642,0.4531928799366466,3.1296351566236487,0.0,3.128896315178154,3.1727916636436735,1.2120309356579912,2.2874897827221545,1.4188901350082603,0.02288532475819771,1.7941116333007825,0.4531928799366466,3.1296351566236487,0.0,0.311615167584712,0.005026051090075993,0.39402092063558536,2.364088267656795,0.038130455929948515,0.8180100150224059
21/04/2022,16:53:07,47.105875,-1.898886616108939,11.010860063135624,1.6885147094726562,1.9171295166015625,-0.18647430837154388,1.7145549058914185,0.39652225375175476,1.9486718883854337e-05,2.871821880340576,0.6914621591567993,47.6415672974057,-122.14018866024034,123.68970489501953,6.782771743673476,-10.519838830827869,-9.965642502506753,0.46573888908584793,3.1277927180670204,0.0,3.013187433463881,3.1688805978150483,1.5272905952529252,2.251590553966963,1.4628470294950202,0.023594306927337882,1.711485290527345,0.46573888908584793,3.1277927180670204,0.0,0.32588212648544157,0.005256163330410091,0.38127189971335523,2.2215664178925913,0.03583171641761755,1.14601869553957
21/04/2022,16:53:08,47.283878,-1.924488416989334,11.345370249822736,1.7472686767578125,1.9171295166015625,-0.055218297988176346,2.0110561847686768,0.25788623094558716,1.9486718883854337e-05,2.871821880340576,0.6914621591567993,47.64157031746578,-122.14018894641549,123.748046875,5.642408382142052,-8.51513338555597,-9.736698379084771,0.47823326177582115,3.1259067400246057,0.0,2.8183184845456277,3.163650050069282,1.8645567028140226,2.220703742061546,1.4830482495235344,0.02392013305682994,1.6527313232421887,0.47823326177582115,3.1259067400246057,0.0,0.33463197421330443,0.0053972899066659155,0.3729189159680972,2.005453248556502,0.032346020138010405,1.4916377868459254
21/04/2022,16:53:08,47.461876,-1.9286685434635729,11.72843227442354,1.7845535278320312,1.9171295166015625,0.056521542370319366,2.251079797744751,0.15968036651611328,0.056521542370319366,2.871821880340576,0.6914621591567993,47.64157377067899,-122.14018894103457,123.7850341796875,4.578777546322117,-6.713233874483872,-9.567851354876343,-0.49864643521509067,2.9582683672458256,0.0,1.6052538487427028,2.992202242793524,2.1354828980531795,2.1917455256173275,1.4810504759583134,0.023887910902551823,1.61544647216797,-0.49864643521509067,2.9582683672458256,0.0,0.3383464629799987,0.005457201015806061,0.36904927202962795,1.7655538209777948,0.028476674531892607,1.7664336260235516
21/04/2022,16:53:08,47.633887,-1.9178888900205493,12.141946491785347,1.8014678955078125,1.9171295166015625,0.09292333573102951,2.4241631031036377,0.05574272945523262,0.09292333573102951,2.871821880340576,0.6914621591567993,47.641577429258554,-122.14018873871288,123.80146789550781,-0.2808916437118249,-5.253597220955787,-9.499318469671103,-0.4951076220986082,2.9588626941005325,0.0,1.4122293392452472,2.9896261934770445,2.3145001385216366,2.167487953169179,1.4636057765275163,0.023606544782701633,1.5985321044921887,-0.4951076220986082,2.9588626941005325,0.0,0.33794446188221405,0.005450717127132428,0.3690987563165713,1.5693924994616413,0.025312782249379707,1.945401382205065
21/04/2022,16:53:08,47.824877,-1.9111759859370068,12.60477390885353,1.8114166259765625,1.9171295166015625,0.02279772236943245,2.5550758838653564,0.05020157992839813,0.09292333573102951,2.871821880340576,0.6914621591567993,47.64158166136306,-122.14018858007978,123.81156158447266,-2.2752094383054744,-4.0607434205031785,-9.51974074166375,-0.4961622354743325,2.9586860320231874,0.0,1.5009001250042857,2.9908967152567087,2.238866306554416,2.1505803010085143,1.4494316014545996,0.02337792905571945,1.5885833740234387,-0.4961622354743325,2.9586860320231874,0.0,0.3372162773996344,0.0054389722161231596,0.3695905147849191,1.6598460830789838,0.026771711017398538,1.8692757917694967
21/04/2022,16:53:08,48.005887,-1.9205193397356197,13.079980582930148,1.819488525390625,1.9171295166015625,-0.07078076153993607,2.6452903747558594,0.03688899055123329,0.09292333573102951,2.871821880340576,0.6914621591567993,47.6415858687673,-122.14018863524805,123.81948852539062,-2.5323002518605775,-3.1649995008179475,-9.55252406615919,-0.4978550461198684,2.958401655126123,0.0,1.6092896437822697,2.992387859801963,2.136622290904907,2.1457595956507958,1.451109894876997,0.023404998304465963,1.5805114746093762,-0.4978550461198684,2.958401655126123,0.0,0.3383437393777551,0.005457157086737581,0.36851527533282696,1.768800950524383,0.028529047589102095,1.76810701557208
21/04/2022,16:53:08,48.184053,-1.9452010404784232,13.544840392656624,1.8247909545898438,1.9171295166015625,-0.15440529584884644,2.7081410884857178,0.023959601297974586,0.09292333573102951,2.871821880340576,0.6914621591567993,47.64159012641874,-122.14018890133677,123.82485961914062,-2.2751289464641524,-2.5114981155796303,-9.577577849581363,-0.4991486217643091,2.958183674721837,0.0,1.704461707799015,2.9937257768115675,2.049453835497755,2.1535361858275954,1.4682893875824052,0.023682086896489096,1.5752090454101575,-0.4991486217643091,2.958183674721837,0.0,0.341148723656099,0.005502398768646453,0.3659909006207795,1.862461605907225,0.030039703321084125,1.6834629348769756
21/04/2022,16:53:09,48.363045,-1.985857012332417,14.043826892971992,1.828216552734375,1.9171295166015625,-0.22879812121391296,2.757533073425293,0.013787929899990559,0.09292333573102951,2.871821880340576,0.6914621591567993,47.641594621067384,-122.14018937187116,123.82825469970703,-1.8785461861150403,-1.9850681921205737,-9.595664506933298,0.0,0.0,0.0,2.30252892199633,0.037137563258002895,1.978412848274889,2.173420379260441,1.5008887095036534,0.02420788241134808,1.5717834472656262,0.0,0.0,0.0,0.34564282107552075,0.005574884210895227,0.36196931950561495,1.9568861009208092,0.03156267904710767,1.616443528769274
21/04/2022,16:53:09,48.54506,-2.034757822751999,14.516483639366925,1.84124755859375,1.9171295166015625,-0.2603289484977722,2.591254711151123,0.3060147762298584,0.09292333573102951,2.871821880340576,0.6914621591567993,47.64159887393766,-122.1401899543576,123.84215545654297,-1.5480306247071982,10.228139861800496,-9.961358125170857,0.0,0.0,0.0,2.610448873211783,0.042104014084056215,1.436208162579435,2.19284536565111,1.5421552886912704,0.02487347239824622,1.5587524414062512,0.0,0.0,0.0,0.3521377557990748,0.0056796412225657055,0.35592757135952185,2.2583111174127084,0.03642437286149051,1.0802805912199132
21/04/2022,16:53:09,48.727044,-2.082657507737167,14.928991605527699,1.9226531982421875,1.9226531982421875,-0.2313336282968521,2.1451947689056396,0.5519155263900757,0.09292333573102951,2.871821880340576,0.6914621591567993,47.641602577918086,-122.14019052995562,123.92430877685547,-1.2390725431417802,14.086317844385073,-10.065586834176399,0.0,0.0,0.0,2.8221142770244243,0.04551797221007081,0.8054990482122567,2.1657175503973884,1.5833908921193638,0.025538562776116436,1.4773468017578137,0.0,0.0,0.0,0.36589076212563115,0.005901463905251576,0.3413860404966136,2.456223514898793,0.039616508304819234,0.4641130077156431
21/04/2022,16:53:09,48.892044,-2.123386984458193,15.266114967875183,2.014129638671875,2.014129638671875,-0.19176380336284637,1.7369447946548462,0.47150275111198425,0.09292333573102951,2.871821880340576,0.6914621591567993,47.64160555708462,-122.14019101312034,124.01412963867188,-0.9683629788755357,13.401742514174373,-10.055839467514456,0.0,0.0,0.0,2.817327684135367,0.04544076909895793,0.879972274632105,2.131061441641451,1.6186737165797225,0.02610764058999493,1.3858703613281262,0.0,0.0,0.0,0.3799520967854712,0.006128259625571977,0.32530604794899437,2.437375587349896,0.03931250947338595,0.5546662266831107
21/04/2022,16:53:09,49.07405,-2.1571396087529138,15.541654214262962,2.0851364135742188,2.0851364135742188,-0.15401899814605713,1.3835842609405518,0.326371967792511,0.09292333573102951,2.871821880340576,0.6914621591567993,47.641608039406385,-122.14019142176375,124.08513641357422,-0.7516134072589933,11.354959620065161,-10.02567199005662,0.0,0.0,0.0,2.7529104901271837,0.04440178209881904,1.130141423062145,2.108410025201582,1.647974536999193,0.02658023446772617,1.3148635864257825,0.0,0.0,0.0,0.3909093721877469,0.0063049898739952655,0.31189347137496676,2.3620011179394367,0.03809679222482377,0.8182479516871782
21/04/2022,16:53:10,49.246042,-2.1835954365087673,15.756669951602817,2.1314544677734375,2.1314544677734375,-0.12206632643938065,1.0942736864089966,0.20809566974639893,0.09292333573102951,2.871821880340576,0.6914621591567993,47.641609976486045,-122.14019174220593,124.13145446777344,-0.5870116702565749,9.197935729203175,-10.000143960651743,0.0,0.0,0.0,2.675016995040715,0.043145435403879516,1.3347361283143333,2.0981013744207604,1.6709563903615936,0.02695090952196111,1.2685455322265637,0.0,0.0,0.0,0.3982819719796124,0.006423902773864698,0.3023650521554243,2.2767350230611028,0.03672153263001482,1.0323710761589089
21/04/2022,16:53:10,49.420044,-2.2041357991984114,15.923476844094694,2.1599273681640625,2.1599273681640625,-0.09616557508707047,0.8623014092445374,0.12761907279491425,0.09292333573102951,2.871821880340576,0.6914621591567993,47.64161150253342,-122.14019199487242,124.16031646728516,-0.4607253716631525,7.317060890416897,-9.982431303467225,0.0,0.0,0.0,2.61090716871503,0.04211140594701306,1.4692179709014153,2.0953694626482364,1.688801676927132,0.027238736724630286,1.2400726318359387,0.0,0.0,0.0,0.40305413583280936,0.006500873158593491,0.2959592057629854,2.2078530328822206,0.03561053278841957,1.1732587651384299
21/04/2022,16:53:10,49.591044,-2.2205201011383906,16.05662257038057,2.1773605346679688,2.1773605346679688,-0.07501103729009628,0.6732978820800781,0.07503731548786163,0.09292333573102951,2.871821880340576,0.6914621591567993,47.64161269695145,-122.14019219247871,124.1775894165039,-0.3598119895065948,5.734770398513137,-9.97059485285534,0.0,0.0,0.0,2.5640273444600448,0.04135527974935085,1.5554232477312389,2.096647127881505,1.7030347644765613,0.027468302652845722,1.2226394653320325,0.0,0.0,0.0,0.4062062290546902,0.006551713371849356,0.2916228001127237,2.1578211154053544,0.03480356637750149,1.2638004476185152
