date,fly_time,fly_time_s,x,y,z,z_max,vx,vy,vz,vx_max,vy_max,vz_max,latitude,longitude,altitude,pitch,roll,yaw,cx,cy,cz,scx,scy,scz,d,dx,dy,dz,gc_pow_x,gc_pow_y,gc_pow_z,gpc_pow_x,gpc_pow_y,gpc_pow_z,gfc_pow_x,gfc_pow_y,gfc_pow_z
22/04/2022,13:20:12,21.092358,0.0,0.0,2.5396728515625,2.5396728515625,0.0,0.0,0.04655161127448082,0,0,0.04655161127448082,47.641468,-122.140165,124.5396728515625,0.0,0.0,0.0,0.0,0.0,0.0,0.0,0.0,0.0,0.8981886084396751,-0.25799739921976594,-0.004161248374512427,0.8603271484375012,0.0,0.0,0.0,-0.0,-0.0,0.0,-0.0,-0.0,0.0
22/04/2022,13:20:12,21.280354,0.0,0.0,2.5474700927734375,2.5474700927734375,0.0,0.0,0.03736326843500137,0,0,0.04655161127448082,47.641468,-122.140165,124.5475845336914,0.0,0.0,0.0,0.0,0.0,0.0,0.0,0.0,0.0,0.890722861898094,-0.25799739921976594,-0.004161248374512427,0.8525299072265637,0.0,0.0,0.0,-0.0,-0.0,0.0,-0.0,-0.0,0.0
22/04/2022,13:20:13,21.465366,0.0,0.0,2.5537261962890625,2.5537261962890625,0.0,0.0,0.029878096655011177,0,0,0.04655161127448082,47.641468,-122.140165,124.55372619628906,0.0,0.0,0.0,0.0,0.0,0.0,0.0,0.0,0.0,0.8847368675711317,-0.25799739921976594,-0.004161248374512427,0.8462738037109387,0.0,0.0,0.0,-0.0,-0.0,0.0,-0.0,-0.0,0.0
22/04/2022,13:20:13,21.662352,0.0,0.0,2.5588607788085938,2.5588607788085938,0.0,0.0,0.023603886365890503,0,0,0.04655161127448082,47.641468,-122.140165,124.55892944335938,0.0,0.0,0.0,0.0,0.0,0.0,0.0,0.0,0.0,0.8798267803486577,-0.25799739921976594,-0.004161248374512427,0.8411392211914075,0.0,0.0,0.0,-0.0,-0.0,0.0,-0.0,-0.0,0.0
22/04/2022,13:20:13,21.844351,0.0,0.0,2.5627899169921875,2.5627899169921875,0.0,0.0,0.018668916076421738,0,0,0.04655161127448082,47.641468,-122.140165,124.56278991699219,0.0,0.0,0.0,0.0,0.0,0.0,0.0,0.0,0.0,0.876071171242467,-0.25799739921976594,-0.004161248374512427,0.8372100830078137,0.0,0.0,0.0,-0.0,-0.0,0.0,-0.0,-0.0,0.0
22/04/2022,13:20:13,21.99735,0.0,0.0,2.5654373168945312,2.5654373168945312,0.0,0.0,0.0152424992993474,0,0,0.04655161127448082,47.641468,-122.140165,124.56543731689453,0.0,0.0,0.0,0.0,0.0,0.0,0.0,0.0,0.0,0.873541553690721,-0.25799739921976594,-0.004161248374512427,0.83456268310547,0.0,0.0,0.0,-0.0,-0.0,0.0,-0.0,-0.0,0.0
22/04/2022,13:20:13,22.157356,0.0,0.0,2.5675888061523438,2.5675888061523438,0.0,0.0,0.012357525527477264,0,0,0.04655161127448082,47.641468,-122.140165,124.567626953125,0.0,0.0,0.0,0.0,5.0,0.0,0.0,5.0,0.0,0.8714862991665905,-0.25799739921976594,-0.004161248374512427,0.8324111938476575,0.0,5.0,0.0,-0.0,-0.0,0.0,-0.0,-0.0,0.0
22/04/2022,13:20:13,22.311365,-8.644093759357929e-05,0.007794414646923542,2.5856399536132812,2.5856399536132812,-2.1272683614625976e-09,0.23541435599327087,0.44374191761016846,0,0.23541435599327087,0.44374191761016846,47.64146807013294,-122.140165,124.58563995361328,-1.6154110210564388e-07,-16.01901781620075,-6.808385393939427e-09,-5.94143709344671e-10,5.0,0.0,-5.94143709344671e-10,5.0,0.0,0.8542730983717827,-0.25803666443276974,-0.004161881684399682,0.81436004638672,-5.94143709344671e-10,5.0,0.0,-0.0,-0.0,0.0,-0.0,-0.0,-0.0
22/04/2022,13:20:14,22.46835,-0.0010744230821728706,0.09688093326985836,2.7041397094726562,2.7041397094726562,-1.348074629703433e-08,1.0653384923934937,1.1841602325439453,0,1.0653384923934937,1.1841602325439453,47.64146890016904,-122.14016500000002,124.70767211914062,-3.8297042567838054e-07,-24.010924039465053,-5.309646370254875e-08,-4.633540563875674e-09,5.0,0.0,-0.4288028361065272,4.9930838252988226,-2.4489488380368405,0.7423298799765357,-0.258485444872525,-0.004169120078589161,0.695860290527345,-4.633540563875674e-09,5.0,0.0,-0.0,-0.0,0.0,-0.42880283147298665,-0.006916174701177869,-2.4489488380368405
22/04/2022,13:20:14,22.655354,-0.003995820530690253,0.36030398588627577,2.8965530395507812,2.8965530395507812,-2.5285249449780167e-08,1.6045571565628052,0.5255869626998901,0,1.6045571565628052,1.1841602325439453,47.641471285124815,-122.14016500000008,124.89815521240234,-6.497882455978854e-07,-23.615127097289474,-1.6396241850010956e-07,-1.4308420261798872e-08,5.0,0.0,-1.4308420261798872e-08,5.0,0.0,0.5665500131730282,-0.2598124611196296,-0.00419052356644567,0.50344696044922,-1.4308420261798872e-08,5.0,0.0,-0.0,-0.0,0.0,-0.0,-0.0,-0.0
22/04/2022,13:20:14,22.846349,-0.00814316759351641,0.7342709936201572,3.0144119262695312,3.0144119262695312,-6.107460848170376e-08,2.491279363632202,0.8931417465209961,0,2.491279363632202,1.1841602325439453,47.641474673851214,-122.14016500000018,125.01708984375,-9.137339962125254e-07,-20.542027731624927,-2.7152813458728395e-07,-2.3695299801731998e-08,5.0,0.0,-0.5724281405292437,4.99076728843816,-2.3441684292966998,0.46602677844425505,-0.26169634990246365,-0.004220908869394746,0.38558807373047,-2.3695299801731998e-08,5.0,0.0,-0.0,-0.0,0.0,-0.5724281168339439,-0.00923271156183922,-2.3441684292966998
22/04/2022,13:20:14,23.032352,-0.013761127949692309,1.2410944141447544,3.1198501586914062,3.1198501586914062,7.817304867785424e-05,2.8271758556365967,0.06658285856246948,7.817304867785424e-05,2.8271758556365967,1.1841602325439453,47.64147916717359,-122.14016499996326,125.1198501586914,0.3176225496911851,-15.321949845232739,-1.175780588866277,-0.10259901132347882,4.998947233455805,0.0,-0.10259901132347882,4.998947233455805,0.0,0.3851381249271022,-0.264252295926751,-0.004262133805270407,0.280149841308595,-0.10259901132347882,4.998947233455805,0.0,-0.0,-0.0,0.0,-0.0,-0.0,0.0
22/04/2022,13:20:14,23.187351,-0.018715943908318877,1.692361131310463,3.1037445068359375,3.1198501586914062,0.0007767166825942695,3.099146842956543,-0.16420824825763702,0.0007767166825942695,3.099146842956543,1.1841602325439453,47.641483311055495,-122.1401649992699,125.1032485961914,0.7829177356155319,-9.894032288101599,-4.406307145290061,-0.3841439183955736,4.98522150460335,0.0,-0.3841439183955736,4.98522150460335,0.0,0.39855769001987534,-0.2665753710683149,-0.004299602759166632,0.29625549316406374,-0.3841439183955736,4.98522150460335,0.0,-0.0,-0.0,0.0,-0.0,-0.0,0.0
22/04/2022,13:20:14,23.341351,-0.02380902203731239,2.1715684197843075,3.075286865234375,3.1198501586914062,0.002313760342076421,3.296274423599243,-0.20697574317455292,0.002313760342076421,3.296274423599243,1.1841602325439453,47.641487628195684,-122.14016499626142,125.07466888427734,0.9997617838045978,-6.699744450437533,-8.364538795416134,-0.7273536267874249,4.946812782145608,0.0,-0.7273536267874249,4.946812782145608,0.0,0.4218197548424358,-0.26921075716910225,-0.004342108986598703,0.32471313476562624,-0.7273536267874249,4.946812782145608,0.0,-0.0,-0.0,0.0,-0.0,-0.0,0.0
22/04/2022,13:20:15,23.526347,-0.030158278066664934,2.799718886613846,3.036529541015625,3.1198501586914062,0.004337551537901163,3.4633753299713135,-0.20360030233860016,0.004337551537901163,3.4633753299713135,1.1841602325439453,47.64149328465127,-122.14016498796668,125.03591918945312,0.8784855920613792,-4.5845610283419935,-10.940899577899325,-0.9489817429820775,4.909117400458732,0.0,-0.9489817429820775,4.909117400458732,0.0,0.4545929840065184,-0.27299197661425184,-0.004403096397004536,0.36347045898437624,-0.9489817429820775,4.909117400458732,0.0,-0.0,-0.0,0.0,-0.0,-0.0,0.0
22/04/2022,13:20:15,23.682349,-0.03543641290161759,3.3469891659915447,3.0061187744140625,3.1198501586914062,0.005809546448290348,3.5632050037384033,-0.18456906080245972,0.005809546448290348,3.5632050037384033,1.1841602325439453,47.64149811551832,-122.1401649776075,125.00611877441406,0.7314844559881741,-3.548310011986956,-12.01190671545468,-1.0405747826863396,4.890521865980897,0.0,-1.0405747826863396,4.890521865980897,0.0,0.481286409358388,-0.27653985880303195,-0.004460320303274923,0.39388122558593874,-1.0405747826863396,4.890521865980897,0.0,-0.0,-0.0,0.0,-0.0,-0.0,0.0
22/04/2022,13:20:15,23.829354,-0.041821129620075226,3.8752826815471053,2.9818878173828125,3.1198501586914062,-0.03319679945707321,3.6369781494140625,-0.12705281376838684,0.005809546448290348,3.6369781494140625,1.1841602325439453,47.64150296706987,-122.14016498589862,124.98150634765625,-2.8141410127202104,-3.640657230773064,-12.559515226392651,-1.0872680571936901,4.880353283503793,0.0,-1.0872680571936901,4.880353283503793,0.0,0.502491797365039,-0.2786754496739535,-0.004494765317322624,0.41811218261718874,-1.0872680571936901,4.880353283503793,0.0,-0.0,-0.0,0.0,-0.0,-0.0,0.0
22/04/2022,13:20:15,23.977354,-0.06025347800459713,4.413213536143303,2.9678192138671875,3.1198501586914062,-0.14661498367786407,3.695188283920288,-0.07093121111392975,0.005809546448290348,3.695188283920288,1.1841602325439453,47.64150771053509,-122.14016515056574,124.96781921386719,-4.336663964163925,-3.497142531822863,-12.876468435843197,-1.1142487979053508,4.874264007659667,0.0,-1.1142487979053508,4.874264007659667,0.0,0.5090364001343586,-0.26892194272853404,-0.004337450689170019,0.43218078613281374,-1.1142487979053508,4.874264007659667,0.0,-0.0,-0.0,0.0,-0.0,-0.0,0.0
22/04/2022,13:20:15,24.155349,-0.10773702780716121,5.081695584580302,2.9570693969726562,3.1198501586914062,-0.30237600207328796,3.7483737468719482,-0.05340823531150818,0.005809546448290348,3.7483737468719482,1.1841602325439453,47.64151383043933,-122.14016569602833,124.9569091796875,-4.401209022609627,-3.059780607794295,-13.105873838086053,-1.133755780665073,4.869763631821213,0.0,-1.133755780665073,4.869763631821213,0.0,0.5001322610285657,-0.23222990672386246,-0.003745643656836606,0.442930603027345,-1.133755780665073,4.869763631821213,0.0,-0.0,-0.0,0.0,0.0,0.0,0.0
22/04/2022,13:20:15,24.307348,-0.1668005040846765,5.633658315986395,2.9493331909179688,3.1198501586914062,-0.41919606924057007,3.781482458114624,-0.05247834697365761,0.005809546448290348,3.781482458114624,1.1841602325439453,47.64151880309173,-122.14016640548117,124.94917297363281,-3.936937984016672,-2.664452808103712,-13.216588029544901,-1.1431636347265435,4.867563754511984,0.0,-1.1431636347265435,4.867563754511984,0.0,0.4860690168189296,-0.18208210088157606,-0.0029368080787364192,0.4506668090820325,-1.1431636347265435,4.867563754511984,0.0,-0.0,-0.0,0.0,0.0,0.0,0.0
22/04/2022,13:20:16,24.45735,-0.24541368742939085,6.212568569928408,2.9412689208984375,3.1198501586914062,-0.5241919755935669,3.808652639389038,-0.05285634472966194,0.005809546448290348,3.808652639389038,1.1841602325439453,47.64152401997164,-122.14016737073264,124.94110870361328,-3.338449847515673,-2.286092781911784,-13.287367073323283,-1.1491757956040436,4.866147859528912,0.0,-1.1491757956040436,4.866147859528912,0.0,0.47240534903720593,-0.11282419684186806,-0.0018197451103532103,0.45873107910156374,-1.1491757956040436,4.866147859528912,0.0,-0.0,-0.0,0.0,0.0,0.0,0.0
22/04/2022,13:20:16,24.605357,-0.3349506874801591,6.772123486734927,2.9335479736328125,3.1198501586914062,-0.6086571216583252,3.8292839527130127,-0.05179664492607117,0.005809546448290348,3.8292839527130127,1.1841602325439453,47.641529063633975,-122.1401684834401,124.93339538574219,-2.781918013676511,-1.9734436771411523,-13.328728151238668,-1.152688304709192,4.8653170166173805,0.0,0.8279021763566525,4.897262024376504,1.0639435504099417,0.4675716006035071,-0.0323332154756395,-0.0005215034754142422,0.46645202636718874,-1.152688304709192,4.8653170166173805,0.0,-0.0,-0.0,0.0,1.9805904810658446,0.031945007759123206,1.0639435504099417
22/04/2022,13:20:16,24.75435,-0.43544043926522136,7.334904056973755,2.9569091796875,3.1198501586914062,-0.6506515145301819,3.857869863510132,0.578779399394989,0.005809546448290348,3.857869863510132,1.1841602325439453,47.64153403365151,-122.14016971377666,124.9569091796875,1.1336726867054363,-0.8328599046939842,-13.362836621450905,-1.155584448360714,4.8646299533167845,0.0,0.9272024819824174,4.89822329090296,-1.2043366059378415,0.4470100142250349,0.05905565591759121,0.0009525105793155575,0.44309082031250124,-1.155584448360714,4.8646299533167845,0.0,0.0,0.0,0.0,2.0827869303431314,0.033593337586175345,-1.2043366059378415
22/04/2022,13:20:16,24.931354,-0.5543284512823448,8.016422556713223,3.0463638305664062,3.1198501586914062,-0.6036031246185303,3.8638012409210205,0.10431251674890518,0.005809546448290348,3.8638012409210205,1.1841602325439453,47.641540281085646,-122.14017121998113,125.04669189453125,3.513971644482782,-0.2390174464092368,-13.35648155585805,-1.155044871974566,4.8647580971437066,0.0,1.1248925667973024,4.901531281640023,0.26466046361996015,0.39106163356609175,0.16692337274723368,0.002692312463665303,0.353636169433595,-1.155044871974566,4.8647580971437066,0.0,0.0,0.0,0.0,2.2799374387718685,0.03677318449631592,0.26466046361996015
22/04/2022,13:20:16,25.105349,-0.658257118659094,8.698839658871293,3.0378494262695312,3.1198501586914062,-0.4409788250923157,3.8744559288024902,-0.028931010514497757,0.005809546448290348,3.8744559288024902,1.1841602325439453,47.64154632685326,-122.14017247858794,125.03784942626953,7.4839677649544845,0.8315149375721669,-13.26528521878173,-1.1473002917288775,4.866590391701241,0.0,0.8262419908780623,4.89842171884006,0.8153777728689943,0.44573268612016365,0.25982114571535425,0.004190663640569525,0.36215057373047,-1.1473002917288775,4.866590391701241,0.0,0.0,0.0,0.0,1.9735422826069398,0.031831327138819705,0.8153777728689943
22/04/2022,13:20:16,25.256353,-0.717148884315975,9.267384248785675,3.0281448364257812,3.1198501586914062,-0.2826753258705139,3.880908489227295,-0.12315274029970169,0.005809546448290348,3.880908489227295,1.1841602325439453,47.64155144777545,-122.14017317862945,125.02814483642578,4.8290347325308,0.29251613715859637,-13.33216010475517,-0.6917878378340007,2.9191487778845664,-1.0,-0.6917878378340007,2.9191487778845664,-1.0,0.48384909787131253,0.3095299058220796,0.004992417835838481,0.37185516357422,-0.6917878378340007,2.9191487778845664,-1.0,0.0,0.0,0.0,0.0,0.0,0.0
22/04/2022,13:20:17,25.444364,-0.7681189789436758,9.973114788532257,2.9642257690429688,3.1198501586914062,-0.20393429696559906,3.8187241554260254,-0.7596796154975891,0.005809546448290348,3.880908489227295,1.1841602325439453,47.641557905083474,-122.14017376113621,124.96196746826172,0.640111699639058,7.937515316007828,-14.442415442794726,0.0,0.0,0.0,0.770859505857501,0.012433217836411794,2.378243841841617,0.5583964103866816,0.3491069540105305,0.005630757322748536,0.4357742309570325,0.0,0.0,0.0,0.0,0.0,0.0,0.770859505857501,0.012433217836411794,2.378243841841617
22/04/2022,13:20:17,25.622366,-0.8057330626761541,10.625655964948237,2.8458480834960938,3.1198501586914062,-0.1299072951078415,3.320338249206543,-0.26009976863861084,0.005809546448290348,3.880908489227295,1.1841602325439453,47.64156367662768,-122.14017415735238,124.8458480834961,-3.383940888638199,14.769038658694045,-17.756317093522593,0.0,0.0,0.0,0.989964970233782,0.015967176939252058,2.0110760845839777,0.6698055143336874,0.37618913474651383,0.006067566689459625,0.5541519165039075,0.0,0.0,0.0,0.0,0.0,0.0,0.989964970233782,0.015967176939252058,2.0110760845839777
22/04/2022,13:20:17,25.795353,-0.8297654419438913,11.140388085506856,2.8781356811523438,3.1198501586914062,-0.08239524811506271,2.5782711505889893,0.6755324602127075,0.005809546448290348,3.880908489227295,1.1841602325439453,47.64156837959347,-122.14017440459389,124.88014221191406,-4.32053643819231,14.693182929637803,-19.411550290021403,-1.661756349728161,4.715778391118283,0.0,-1.661756349728161,4.715778391118283,0.0,0.652671372973002,0.3919152919456159,0.006321214386220575,0.5218643188476575,-1.661756349728161,4.715778391118283,0.0,0.0,0.0,0.0,0.0,0.0,-0.0
22/04/2022,13:20:17,25.97535,-0.8484655095962808,11.562692170031369,2.9886245727539062,3.1198501586914062,-0.09827875345945358,2.3266255855560303,0.33748728036880493,0.005809546448290348,3.880908489227295,1.1841602325439453,47.641572111159846,-122.14017458787738,124.9886245727539,-3.151677783693627,-1.4617469497660907,-19.16206788971649,-1.6412067978840392,4.722969431044332,0.0,-1.6412067978840392,4.722969431044332,0.0,0.5764783918691582,0.4038009114034222,0.006512917925862283,0.411375427246095,-1.6412067978840392,4.722969431044332,0.0,0.0,0.0,0.0,0.0,0.0,-0.0
22/04/2022,13:20:17,26.149348,-0.881306089926511,11.975283155217767,3.0583419799804688,3.1198501586914062,-0.23965372145175934,2.4707939624786377,0.4796697199344635,0.005809546448290348,3.880908489227295,1.1841602325439453,47.64157589294091,-122.14017497367759,125.05977630615234,-2.1678620694989865,-8.766762391683686,-19.187416051450725,-0.3286592241653094,0.9444485768802116,0.0,1.3151554204583786,0.970961716309623,-1.2240839880479417,0.5492368243544744,0.4299799880504569,0.00693516109758896,0.3416580200195325,-0.3286592241653094,0.9444485768802116,0.0,0.0,0.0,0.0,1.643814644623688,0.026513139429411508,-1.2240839880479417
22/04/2022,13:20:17,26.320353,-0.9352350675035268,12.414982710033655,3.1072921752929688,3.1198501586914062,-0.28621935844421387,2.533215284347534,-0.1160002276301384,0.005809546448290348,3.880908489227295,1.1841602325439453,47.6415798559417,-122.14017562860695,125.10696411132812,0.5729883380641736,6.89042845765686,-19.566648304189002,0.0,0.0,0.0,1.877660348124219,0.03028484432458342,1.0184252834923326,0.5595354176913662,0.47680485603679335,0.007690400903817007,0.2927078247070325,0.0,0.0,0.0,0.0,0.0,0.0,1.877660348124219,0.03028484432458342,1.0184252834923326
22/04/2022,13:20:18,26.496351,-0.9757366949925199,12.831449097953737,3.1170120239257812,3.1198501586914062,-0.06793532520532608,2.085113525390625,0.5635001063346863,0.005809546448290348,3.880908489227295,1.1841602325439453,47.64158353853095,-122.14017609482451,125.11701202392578,1.5862115812484945,13.107371296164366,-19.605610328620585,-1.6777190659460572,4.710123006436359,0.0,-0.5265410801326817,4.72869039330432,-1.6775828522985665,0.5838171431785517,0.5105804971334499,0.008235169308603574,0.28298797607422,-1.6777190659460572,4.710123006436359,0.0,0.0,0.0,0.0,1.1511779858133755,0.018567386867960622,-1.6775828522985665
22/04/2022,13:20:18,26.673348,-0.9778890013694763,13.169334783218801,3.2057647705078125,3.2057647705078125,0.046949855983257294,1.9101977348327637,0.12534750998020172,0.046949855983257294,3.880908489227295,1.1841602325439453,47.64158657861444,-122.14017607359365,125.20576477050781,3.6388187763664477,-1.966120072768508,-20.36928760822822,-1.7403479189680424,4.687343503621599,0.0,-1.7403479189680424,4.687343503621599,0.0,0.5432598057511059,0.5072838919908196,0.008181998257917655,0.19423522949218874,-1.7403479189680424,4.687343503621599,0.0,0.0,0.0,0.0,0.0,0.0,-0.0
22/04/2022,13:20:18,26.82535,-0.9727095322450623,13.460249469615519,3.2196426391601562,3.2196426391601562,0.04318232089281082,2.1075246334075928,0.25830891728401184,0.046949855983257294,3.880908489227295,1.1841602325439453,47.6415892521026,-122.14017595993579,125.22041320800781,0.7812884713797446,-9.845345068912323,-20.770788010988845,-0.3546302997142121,0.9350066045352878,0.0,-0.3546302997142121,0.9350066045352878,0.0,0.5291640996069178,0.49741481790217357,0.008022819643583645,0.180357360839845,-0.3546302997142121,0.9350066045352878,0.0,0.0,0.0,0.0,0.0,0.0,-0.0
22/04/2022,13:20:18,26.995351,-0.9761758720269427,13.842812600545585,3.2462081909179688,3.2462081909179688,-0.025985416024923325,2.211060047149658,0.02068137377500534,0.046949855983257294,3.880908489227295,1.1841602325439453,47.64159263754649,-122.14017595136124,125.24620819091797,-2.9890046453967614,3.4257932033692384,-21.146565808871877,0.0,0.0,0.0,0.0,0.0,0.0,0.5181264755618619,0.494711487864172,0.007979217546195017,0.1537918090820325,0.0,0.0,0.0,0.0,0.0,0.0,0.0,0.0,0.0
22/04/2022,13:20:18,27.148347,-0.9860032984288409,14.15861758030951,3.2703933715820312,3.2703933715820312,-0.05286015197634697,1.9700592756271362,0.28812432289123535,0.046949855983257294,3.880908489227295,1.1841602325439453,47.64159547974145,-122.14017603556277,125.27039337158203,-4.101567218471686,9.504417984287043,-21.485024471251478,0.0,0.0,0.0,0.0,0.0,0.0,0.5160495455697898,0.4994440544034525,0.008055549264570416,0.12960662841797,0.0,0.0,0.0,0.0,0.0,0.0,0.0,0.0,-0.0
22/04/2022,13:20:18,27.32035,-0.9985731885535643,14.461533633060753,3.3257522583007812,3.3257522583007812,-0.05400948226451874,1.6328301429748535,0.33626091480255127,0.046949855983257294,3.880908489227295,1.1841602325439453,47.641598250336955,-122.14017616033847,125.32676696777344,-4.014040546837618,10.697333289509718,-21.543150587573304,0.0,0.0,0.0,0.0,0.0,0.0,0.5125979093468174,0.5071262032640141,0.008179454891353188,0.07424774169922,0.0,0.0,0.0,0.0,0.0,0.0,0.0,0.0,-0.0
22/04/2022,13:20:19,27.48935,-1.0102155494969338,14.717804422602057,3.3784332275390625,3.3784332275390625,-0.046091653406620026,1.3150668144226074,0.2587378919124603,0.046949855983257294,3.880908489227295,1.1841602325439453,47.64160054852739,-122.14017627717325,125.37921142578125,-3.4508543081825045,9.681703423009695,-21.46076783508187,0.0,0.0,-5.0,0.0,0.0,-5.0,0.5151517901596772,0.5146332114603085,0.008300535668714915,0.021566772460938743,0.0,0.0,-5.0,0.0,0.0,0.0,0.0,0.0,-0.0
22/04/2022,13:20:19,27.664354,-1.0200024435762316,14.928503094241023,3.3750076293945312,3.3784332275390625,-0.039496276527643204,1.119706630706787,-0.4446781575679779,0.046949855983257294,3.880908489227295,1.1841602325439453,47.64160240959134,-122.14017637450576,125.37500762939453,-4.1210408995964,11.710729394620719,-21.587235573005785,0.0,0.0,-5.0,1.1040324546908447,0.017806975075654225,-3.2097836411379843,0.5216868412000786,0.5210200783521693,0.008403549650838116,0.024992370605469993,0.0,0.0,-5.0,0.0,0.0,0.0,1.1040324546908447,0.017806975075654225,1.790216358862016
22/04/2022,13:20:19,27.809347,-1.0262424148386344,15.075786947272718,3.2659912109375,3.3784332275390625,-0.01594921573996544,0.9698028564453125,-1.126503348350525,0.046949855983257294,3.880908489227295,1.1841602325439453,47.641603761460416,-122.1401764364894,125.26263427734375,-0.267784227229343,11.701580541264391,-21.59445669615366,0.0,0.0,-5.0,0.5469182859477059,0.00882126267657294,-2.5156843656556607,0.5417865939888425,0.5248834985458524,0.00846586287977047,0.13400878906250124,0.0,0.0,-5.0,0.0,0.0,0.0,0.5469182859477059,0.00882126267657294,2.4843156343443393
22/04/2022,13:20:19,27.985356,-1.025459582451731,15.23335440363735,2.9965133666992188,3.3784332275390625,0.03850705549120903,0.8156247138977051,-1.9344089031219482,0.046949855983257294,3.880908489227295,1.1841602325439453,47.64160515280297,-122.14017640214635,124.99651336669922,-1.2386886852999919,7.854019414997847,-21.90931562159599,0.0,0.0,-1.0,0.8307337091031473,0.013398930791975185,7.485456149972549,0.6594673519484818,0.5215601201349644,0.008412260002174321,0.4034866333007825,0.0,0.0,-1.0,0.0,0.0,0.0,0.8307337091031473,0.013398930791975185,8.48545614997255
22/04/2022,13:20:19,28.165349,-1.0173583958530799,15.360132454894483,2.683197021484375,3.3784332275390625,0.06220708042383194,0.6171413660049438,-1.2522107362747192,0.06220708042383194,3.880908489227295,1.1841602325439453,47.641606309245745,-122.14017627309713,124.67941284179688,-1.1004519274477473,2.614280288202435,-22.530685715087127,0.0,0.0,0.0,0.39159692663061507,0.006316079461782332,3.435876964481579,0.8805802961063126,0.5114167650080055,0.008248657500129042,0.7168029785156262,0.0,0.0,0.0,0.0,0.0,0.0,0.39159692663061507,0.006316079461782332,3.435876964481579
22/04/2022,13:20:19,28.332355,-1.0081970351748168,15.455194463953376,2.559814453125,3.3784332275390625,0.055119093507528305,0.4920036792755127,-0.14908809959888458,0.06220708042383194,3.880908489227295,1.1841602325439453,47.641607146917345,-122.14017613959345,124.559814453125,-1.1797157805509335,2.223079052912832,-22.898288350149524,0.0,0.0,-5.0,0.7010346489479263,0.011307010466898948,-2.8699203960320574,0.9781116661179033,0.500724927554457,0.008076208508940752,0.8401855468750012,0.0,0.0,-5.0,0.0,0.0,0.0,0.7010346489479263,0.011307010466898948,2.1300796039679426
22/04/2022,13:20:20,28.516353,-0.9997800702694803,15.537340470589697,2.5208663940429688,3.3784332275390625,0.04912138730287552,0.43089818954467773,-0.6192797422409058,0.06220708042383194,3.880908489227295,1.1841602325439453,47.64160789674417,-122.14017601345049,124.51903533935547,-1.5283145580722886,2.7363879168513714,-23.106325753441073,0.0,0.0,-5.0,0.6366292299814917,0.010268213386798482,-2.186347357616262,1.0069783664228007,0.49098556071243726,0.007919121946972751,0.8791336059570325,0.0,0.0,-5.0,0.1960468643149499,0.0031620461986274083,0.35103147740573687,0.4405823656665419,0.007106167188171073,2.462621164978001
22/04/2022,13:20:20,28.682353,-0.9926834453362972,15.60591971501708,2.3522186279296875,3.3784332275390625,0.04404491186141968,0.3840149939060211,-1.4105943441390991,0.06220708042383194,3.880908489227295,1.1841602325439453,47.64160851176188,-122.14017590905866,124.34800720214844,-1.5045107331720997,2.6609855013536614,-23.194295224153358,0.0,0.0,-5.0,0.760540327569159,0.012266779476918937,1.2345862835316916,1.1536844234486916,0.4827849522865195,0.007786854069131266,1.0477813720703137,0.0,0.0,-5.0,0.1838694565183893,0.0029656363954555513,0.39904928792877004,0.5766708710507698,0.009301143081463386,5.835536995602921
22/04/2022,13:20:20,28.826353,-0.9875899464823306,15.654747324995697,2.1692276000976562,3.3784332275390625,0.03425665572285652,0.295581191778183,-0.8639077544212341,0.06220708042383194,3.880908489227295,1.1841602325439453,47.64160894817184,-122.14017583443368,124.1666030883789,-1.1055886389771616,1.9465557016129658,-23.218065922164456,0.0,0.0,-5.0,0.5672312162005125,0.009148890583875243,-1.611456756315342,1.3199616157715115,0.4769054408656296,0.007692023239762591,1.230772399902345,0.0,0.0,-5.0,0.1692888225702145,0.002730464880162752,0.43689166148576286,0.39794239363029804,0.00641842570371249,2.951651582198895
22/04/2022,13:20:20,28.96735,-0.9836585645098239,15.692103779874742,2.071380615234375,3.3784332275390625,0.02799513377249241,0.2408456653356552,-0.7229453921318054,0.06220708042383194,3.880908489227295,1.1841602325439453,47.64160928238068,-122.1401757768347,124.0692138671875,-0.9585258511734159,1.670209020040995,-23.235483132939102,0.0,0.0,-1.0,0.5628146876034095,0.009077656251661976,2.182591024735111,1.4101147112672237,0.47237271459649655,0.007618914751553518,1.3286193847656262,0.0,0.0,-1.0,0.16061847274312568,0.002590620528113952,0.45176363884661364,0.4021962148602838,0.006487035723548024,2.7308273858884973
22/04/2022,13:20:20,29.140364,-0.9798627902055159,15.728026630356908,2.0035781860351562,3.3784332275390625,0.01975608430802822,0.16911455988883972,0.1777055561542511,0.06220708042383194,3.880908489227295,1.1841602325439453,47.64160959868964,-122.14017572212397,124.00357818603516,-0.6360791412291602,1.1056473157115574,-23.242228857685433,0.0,0.0,0.0,0.9687406697579934,0.015624849512226546,2.464514247478297,1.4727775196402986,0.467998677364857,0.0075483657639487944,1.396421813964845,0.0,0.0,0.0,0.15422620130925882,0.0024875193759556187,0.46018256505729765,0.8145144684487347,0.013137330136270926,2.0043316824209993
22/04/2022,13:20:21,29.411351,-0.9762523841345683,15.762091047130525,2.275360107421875,3.3784332275390625,0.01091712899506092,0.09347512573003769,1.9002323150634766,0.06220708042383194,3.880908489227295,1.9002323150634766,47.64160990732538,-122.1401756685951,124.28103637695312,-0.3994911600655965,0.6936734075700741,-23.247639201626622,0.0,0.0,0.0,0.6062099752126504,0.009777580245364959,-2.2270374833641178,1.2165600419360996,0.46383992709783817,0.007481289146738845,1.1246398925781262,0.0,0.0,0.0,0.1723020866116135,0.0027790659130903623,0.4177686931573666,0.43390788860103696,0.006998514332274597,-2.6448061765214845
22/04/2022,13:20:21,29.560351,-0.974893203470856,15.774938570335507,2.56280517578125,3.3784332275390625,0.00910298153758049,0.07810137420892715,1.5224820375442505,0.06220708042383194,3.880908489227295,1.9002323150634766,47.64161002234564,-122.14017564867723,124.56739044189453,-0.41483932844879223,0.7202595775804613,-23.250000702641874,0.0,0.0,0.0,0.49184795626839084,0.007933031552717025,-2.459239149214004,0.9563722903406024,0.46227393570381503,0.0074560312210287805,0.8371948242187512,0.0,0.0,0.0,0.0,0.0,0.0,0.49184795626839084,0.007933031552717025,-2.459239149214004
22/04/2022,13:20:21,29.735349,-0.9735630374634638,15.787529468536377,2.7537384033203125,3.3784332275390625,0.007719516754150391,0.06627724319696426,0.649384081363678,0.06220708042383194,3.880908489227295,1.9002323150634766,47.64161013517727,-122.1401756291678,124.7557144165039,-0.3893231187889179,0.6771523256295297,-23.250993134542544,0.0,0.0,0.0,0.0,0.0,0.0,0.7937201189295754,0.46074108945651493,0.007431307894460559,0.6462615966796887,0.0,0.0,0.0,0.0,0.0,0.0,0.0,0.0,-0.0
22/04/2022,13:20:21,29.910354,-0.9724576579174027,15.79799361154437,2.7959976196289062,3.3784332275390625,0.006576271262019873,0.05641242489218712,-0.1827467381954193,0.06220708042383194,3.880908489227295,1.9002323150634766,47.64161022894959,-122.14017561295387,124.79547119140625,-0.27289450099407886,0.47433063360548894,-23.250435498486496,0.0,0.0,0.0,0.8724195684781243,0.0140712833625468,1.9028331273433017,0.758936072608378,0.45946726479031086,0.007410762335322119,0.604002380371095,0.0,0.0,0.0,0.0,0.0,0.0,0.8724195684781243,0.0140712833625468,1.9028331273433017
22/04/2022,13:20:21,30.091351,-0.9715430008945987,15.806648499332368,2.7962265014648438,3.3784332275390625,0.004476957488805056,0.03842286020517349,0.4427748918533325,0.06220708042383194,3.880908489227295,1.9002323150634766,47.64161030624205,-122.14017559958224,124.79754638671875,-0.17533006913610477,0.3043800290578029,-23.250091012965203,0.0,0.0,0.0,0.0,0.0,0.0,0.7581159851566276,0.4584132869909572,0.007393762693403971,0.6037734985351575,0.0,0.0,0.0,0.0,0.0,0.0,0.0,0.0,-0.0
22/04/2022,13:20:21,30.265353,-0.9708937029354274,15.812799695879221,2.8408050537109375,3.3784332275390625,0.0037552553694695234,0.03228166699409485,-0.16068677604198456,0.06220708042383194,3.880908489227295,1.9002323150634766,47.64161036134859,-122.14017559006075,124.84034729003906,-0.1332711570957002,0.2313931239557435,-23.250076282292703,-1.9737253982077865,4.5939534229756305,0.0,-1.9737253982077865,4.5939534229756305,0.0,0.7226414760419353,0.4576649708554672,0.007381693078311713,0.5591949462890637,-1.9737253982077865,4.5939534229756305,0.0,0.0,0.0,0.0,0.0,0.0,0.0
22/04/2022,13:20:22,30.440349,-0.9732202820014209,15.829433487728238,2.8073806762695312,3.3784332275390625,-0.0661982074379921,0.3110109865665436,0.16363279521465302,0.06220708042383194,3.880908489227295,1.9002323150634766,47.641610518578126,-122.14017562131407,124.80784606933594,2.412902732498893,-14.927953048885552,-23.541336707598365,-1.9970529438300544,4.5838607679051195,0.0,-1.9970529438300544,4.5838607679051195,0.0,0.7500650836112005,0.45972272763961275,0.007414882703862702,0.59261932373047,-1.9970529438300544,4.5838607679051195,0.0,0.0,0.0,0.0,0.0,0.0,0.0
22/04/2022,13:20:22,30.620351,-1.00240756070707,15.947140228003263,2.9036712646484375,3.3784332275390625,-0.2551497220993042,1.0511195659637451,0.7841552495956421,0.06220708042383194,3.880908489227295,1.9002323150634766,47.64161160042509,-122.14017600004458,124.90602111816406,3.1799315952760145,-19.825014422174835,-23.738075548837365,-2.012780928287848,4.576976396565827,0.0,-0.4001999828628111,4.602985766653326,-1.7945666384510075,0.6953971611531576,0.4870044133216579,0.007854909892284212,0.49632873535156374,-2.012780928287848,4.576976396565827,0.0,0.0,0.0,0.0,1.612580945425037,0.026009370087498544,-1.7945666384510075
22/04/2022,13:20:22,30.793349,-1.0572388008004054,16.16440284717828,2.9959182739257812,3.3784332275390625,-0.3223198354244232,1.4121900796890259,0.08824312686920166,0.06220708042383194,3.880908489227295,1.9002323150634766,47.641613570360235,-122.14017670063042,124.99620819091797,6.36902618917277,-18.69320971340361,-22.266482958947655,-1.8945743146731946,4.627157676822845,0.0,0.26589766017684857,4.662003998997842,0.4323717376316399,0.6731595434885993,0.5383180685960223,0.008682549493478575,0.40408172607422,-1.8945743146731946,4.627157676822845,0.0,0.0,0.0,0.0,2.160471974850043,0.03484632217499661,0.4323717376316399
22/04/2022,13:20:22,30.967349,-1.1166916426736861,16.457590934820473,3.013031005859375,3.3784332275390625,-0.31277093291282654,2.036219358444214,0.31023702025413513,0.06220708042383194,3.880908489227295,1.9002323150634766,47.64161617603991,-122.14017743590784,125.01303100585938,5.705140480070774,-15.211619029082044,-17.341096644715506,-1.4902981024165065,4.772736276595823,0.0,0.6857939500060937,4.807834535505864,-0.4408007453573268,0.7081797140785104,0.5930278378358336,0.009564965126383385,0.38696899414062624,-1.4902981024165065,4.772736276595823,0.0,0.0,0.0,0.0,2.1760920524226,0.035098258910041466,-0.4408007453573268
22/04/2022,13:20:22,31.143349,-1.1715109444921836,16.84005806222558,3.0599441528320312,3.3784332275390625,-0.27455437183380127,2.4408833980560303,0.20549871027469635,0.06220708042383194,3.880908489227295,1.9002323150634766,47.6416196881506,-122.14017812020528,125.0605697631836,4.205048777582788,-12.34681636283243,-12.139373218505117,-1.0514521923395086,4.888194788183512,0.0,1.0965239238464775,4.922839564251016,-0.13704370946483654,0.7262781231358431,0.6416656620988213,0.010349446162884135,0.34005584716797,-1.0514521923395086,4.888194788183512,0.0,0.0,0.0,0.0,2.147976116185986,0.03464477606750453,-0.13704370946483654
22/04/2022,13:20:22,31.316349,-1.2186815061140805,17.30067335255444,3.090545654296875,3.3784332275390625,-0.17156900465488434,2.78011417388916,0.16577953100204468,0.06220708042383194,3.880908489227295,1.9002323150634766,47.64162384606311,-122.1401786760698,125.09104919433594,7.018401644474714,-9.19890089321066,-9.263774199734968,1.329996029587309,4.269790458708951,-2.0,1.329996029587309,4.269790458708951,-2.0,0.7484544854788158,0.6813966090101822,0.010990267887262206,0.30945434570312624,1.329996029587309,4.269790458708951,-2.0,0.0,0.0,0.0,0.0,0.0,-0.0
22/04/2022,13:20:23,31.485351,-1.2431217121193185,17.79096326418221,3.0760040283203125,3.3784332275390625,-0.05527650564908981,2.945328950881958,-0.49969571828842163,0.06220708042383194,3.880908489227295,1.9002323150634766,47.64162826400558,-122.14017892436934,125.07453155517578,8.831069294186435,-8.058158272717527,-9.482264868145766,3.451119650282044,3.6179791540910156,-2.0,4.6084157854708,3.6366452207876017,0.14664417721535372,0.7695445877079281,0.6979246135259723,0.011256848605253111,0.32399597167968874,3.451119650282044,3.6179791540910156,-2.0,0.0,0.0,0.0,1.1572961351887558,0.01866606669658591,2.1466441772153537
22/04/2022,13:20:23,31.63635,-1.2398976184194908,18.23545467760414,2.9925079345703125,3.3784332275390625,0.28605595231056213,3.1278328895568848,-0.3347057104110718,0.28605595231056213,3.880908489227295,1.9002323150634766,47.64163218330553,-122.14017881357955,124.99250793457031,16.68198501698614,-0.7143702183738739,-11.21762727442,3.7290452710439403,1.7590398990656317,-2.0,3.757800110384086,1.7595036867969176,0.10664336964332088,0.7992970444087657,0.6875340065521628,0.011089258170194682,0.40749206542968874,3.7290452710439403,1.7590398990656317,-2.0,0.0,0.0,0.0,0.028754839340145423,0.0004637877312859285,2.106643369643321
22/04/2022,13:20:23,31.814352,-1.131427075364627,18.790569933131337,2.9935684204101562,3.3784332275390625,1.0390074253082275,3.036771535873413,0.42910581827163696,1.0390074253082275,3.880908489227295,1.9002323150634766,47.64163724862635,-122.14017724633493,124.99483489990234,13.32833480616295,11.192156942894732,-13.385979695900078,0.0,0.0,0.0,-2.3885832166013947,-0.03852553575163951,-0.6722327643189936,0.7002366864395936,0.5701405310396574,0.009195815016767028,0.406431579589845,0.0,0.0,0.0,0.0,0.0,0.0,-2.3885832166013947,-0.03852553575163951,-0.6722327643189936
22/04/2022,13:20:23,31.987357,-0.9247110303258523,19.296555592678487,3.0634841918945312,3.3784332275390625,1.2687238454818726,2.707113265991211,0.3665837049484253,1.2687238454818726,3.880908489227295,1.9002323150634766,47.64164177140184,-122.14017441030502,125.06456756591797,-7.841263750468968,12.53680847187479,-17.959151122315617,4.113445212353452,0.2820788630267508,-1.0,1.6373450942494294,0.2421417643476546,-1.4328989832783285,0.4894155149754757,0.35531931178842924,0.005730956641748719,0.33651580810547,4.113445212353452,0.2820788630267508,-1.0,0.0,0.0,0.0,-2.4761001181040223,-0.039937098679096165,-0.4328989832783286
22/04/2022,13:20:23,32.163355,-0.7188994319876656,19.741396814584732,3.1114959716796875,3.3784332275390625,1.138267993927002,2.3591346740722656,-0.13154275715351105,1.2687238454818726,3.880908489227295,1.9002323150634766,47.641645743528684,-122.14017161007412,125.11112213134766,-9.79530387912165,14.04488858383989,-21.978857720717166,4.4578169583970055,-0.3575863048664909,-2.0,2.022155959705678,-0.39687115968409575,-1.3919883026351105,0.32173632350631526,0.14238824812908546,0.002296584647240252,0.28850402832031374,4.4578169583970055,-0.3575863048664909,-2.0,0.0,0.0,0.0,-2.4356609986913274,-0.039284854817604874,0.6080116973648895
22/04/2022,13:20:23,32.308348,-0.5641294108936563,20.058035305701196,3.0574493408203125,3.3784332275390625,1.1169579029083252,2.070497512817383,-0.5324806571006775,1.2687238454818726,3.880908489227295,1.9002323150634766,47.6416485690615,-122.1401695038866,125.05585479736328,-5.393505519390882,14.78005718717639,-25.905324853794625,0.0,0.0,-3.0,-2.2906627731031395,-0.036946173759727946,-1.6088203517394646,0.34299481096154383,-0.01744726488381243,-0.00028140749813232446,0.34255065917968874,0.0,0.0,-3.0,-0.0,-0.0,0.0,-2.2906627731031395,-0.036946173759727946,1.3911796482605354
22/04/2022,13:20:24,32.479349,-0.3786955967079848,20.37759860046208,2.9615859985351562,3.3784332275390625,0.9913464188575745,1.595446228981018,-0.3973407447338104,1.2687238454818726,3.880908489227295,1.9002323150634766,47.64165141280681,-122.14016699304258,124.96038055419922,-15.750403958848457,6.412815732693653,-30.08263164712674,0.0,0.0,-3.0,-2.2666073268184386,-0.03655818269062174,-1.7531567319373953,0.4852588645350949,-0.20798575799301822,-0.0033546089998921502,0.438414001464845,0.0,0.0,-3.0,-0.0,-0.0,0.0,-2.2666073268184386,-0.03655818269062174,1.2468432680626047
22/04/2022,13:20:24,32.651371,-0.248869045288302,20.61730751208961,2.9213333129882812,3.3784332275390625,0.504767656326294,1.1710795164108276,-0.15816356241703033,1.2687238454818726,3.880908489227295,1.9002323150634766,47.64165354496112,-122.14016524881882,124.92086029052734,-19.110857714409278,-0.45665654009497825,-34.59917193717393,0.0,0.0,-3.0,-2.1417056638922993,-0.034543639740207355,-1.7739159069874642,0.5881093908469448,-0.34164381161542856,-0.005510384058315054,0.47866668701172,0.0,0.0,-3.0,-0.0,-0.0,0.0,-2.1417056638922993,-0.034543639740207355,1.2260840930125358
22/04/2022,13:20:24,32.827352,-0.20184657000936568,20.797868451103568,2.88336181640625,3.3784332275390625,0.05332573130726814,0.9093486070632935,-0.31461185216903687,1.2687238454818726,3.880908489227295,1.9002323150634766,47.6416551576548,-122.14016461426941,124.8824234008789,-17.142048046105465,-4.132944066373795,-40.42624395604601,0.6484686506893373,-0.7612413605901549,0.0,-0.3127397026164984,-0.7767447211273442,2.087923537368162,0.648288899576211,-0.3915655731735811,-0.006315573760868887,0.5166381835937512,0.6484686506893373,-0.7612413605901549,0.0,-0.0,-0.0,0.0,-0.9612083533058358,-0.015503360537189282,2.087923537368162
22/04/2022,13:20:24,33.001347,-0.22988241259008646,20.935246429406106,2.8494491577148438,3.3784332275390625,-0.3203125298023224,0.665925920009613,0.1400952786207199,1.2687238454818726,3.880908489227295,1.9002323150634766,47.64165637184871,-122.14016496948388,124.84944915771484,-6.354955284232201,0.5215218813192984,-47.25237130461028,2.147471558257859,-0.6231901046017676,0.0,2.147471558257859,-0.6231901046017676,0.0,0.6609960038007303,-0.36575221966889104,-0.005899229349502377,0.5505508422851575,2.147471558257859,-0.6231901046017676,0.0,-0.0,-0.0,0.0,0.0,0.0,0.0
22/04/2022,13:20:24,33.175387,-0.2867877574171871,21.034551184624434,2.904510498046875,3.3784332275390625,-0.24290506541728973,0.5056105256080627,0.49457117915153503,1.2687238454818726,3.880908489227295,1.9002323150634766,47.64165728459809,-122.14016572217706,124.9059829711914,1.9446709180246762,9.078788173344961,-51.42383094050753,0.0,0.0,-2.0,0.0,0.0,-2.0,0.5847411078158263,-0.31046294770742455,-0.005007466898508284,0.49548950195312624,0.0,0.0,-2.0,-0.0,-0.0,0.0,0.0,0.0,-0.0
22/04/2022,13:20:24,33.317347,-0.3103384270798415,21.102567547932267,2.9584121704101562,3.3784332275390625,-0.09733926504850388,0.435299813747406,0.029903901740908623,1.2687238454818726,3.880908489227295,1.9002323150634766,47.64165788522034,-122.14016601582779,124.95841217041016,0.1453992565323581,7.399665656592905,-55.28983496670309,0.0,0.0,-2.0,0.0,0.0,-2.0,0.5272325113654274,-0.28801515585874893,-0.004645405739662323,0.441587829589845,0.0,0.0,-2.0,-0.0,-0.0,0.0,-0.0,-0.0,0.0
22/04/2022,13:20:25,33.469354,-0.3204693312291056,21.160454618744552,2.9162368774414062,3.3784332275390625,-0.04063958302140236,0.3872186243534088,-0.6553183197975159,1.2687238454818726,3.880908489227295,1.9002323150634766,47.641658417487044,-122.14016614378886,124.91429138183594,-1.6309128316319874,4.622704325133889,-60.38754227409318,0.0,0.0,0.0,-0.2902412167106828,-0.00468130994694816,2.479451963070647,0.558379571428598,-0.2788203061423875,-0.00449710171197637,0.483763122558595,0.0,0.0,0.0,-0.0,-0.0,0.0,-0.2902412167106828,-0.00468130994694816,2.479451963070647
22/04/2022,13:20:25,33.634352,-0.32277919503394514,21.21859784424305,2.8081283569335938,3.3784332275390625,0.020315134897828102,0.2831239104270935,-0.290433794260025,1.2687238454818726,3.880908489227295,1.9002323150634766,47.64165893035569,-122.14016616431171,124.8081283569336,-1.7383345957482894,1.613932932067581,-66.33062599418372,0.0,0.0,0.0,-0.6074740497307647,-0.009797968544049723,2.177295038274295,0.6536893674557877,-0.27744859314241455,-0.0044749773087495726,0.5918716430664075,0.0,0.0,0.0,-0.0,-0.0,0.0,-0.6074740497307647,-0.009797968544049723,2.177295038274295
22/04/2022,13:20:25,33.778357,-0.31891538144554943,21.25417102407664,2.81719970703125,3.3784332275390625,0.035257481038570404,0.211661696434021,0.4643561542034149,1.2687238454818726,3.880908489227295,1.9002323150634766,47.641659255731824,-122.14016610621567,124.81856536865234,-1.4475973079300322,0.6662944642302466,-69.2796181440454,-0.1015985228563332,5.384206324069817,-1.0,-0.1015985228563332,5.384206324069817,-1.0,0.64740714648756,-0.28188501358024953,-0.004546532477100129,0.5828002929687512,-0.1015985228563332,5.384206324069817,-1.0,-0.0,-0.0,0.0,-0.0,-0.0,-0.0
22/04/2022,13:20:25,33.953363,-0.3133654927369207,21.294199670664966,2.906036376953125,3.3784332275390625,0.026623794808983803,0.3732614517211914,0.3976898789405823,1.2687238454818726,3.880908489227295,1.9002323150634766,47.64165960958619,-122.14016602783325,124.90603637695312,16.709557753415837,-5.785109089637551,-73.51100169888836,-0.49859235096686794,5.362033724955237,-1.0,-0.49859235096686794,5.362033724955237,-1.0,0.5718488533784715,-0.28807891430442245,-0.004646434101687191,0.49396362304687624,-0.49859235096686794,5.362033724955237,-1.0,-0.0,-0.0,0.0,-0.0,-0.0,-0.0
22/04/2022,13:20:25,34.10735,-0.31220351648516953,21.403428827412426,3.0052642822265625,3.3784332275390625,0.005680547561496496,1.1795157194137573,0.9298240542411804,1.2687238454818726,3.880908489227295,1.9002323150634766,47.64166062375505,-122.140165996005,125.00804901123047,24.67063051434483,-5.827804637574613,-78.69310328783666,-0.00027016665225887415,5.099019506435524,-1.0,-0.5522980005901904,5.090115831694587,-3.375660162472632,0.4904288092969643,-0.29100189074917515,-0.004693578883053107,0.39473571777343874,-0.00027016665225887415,5.099019506435524,-1.0,-0.0,-0.0,0.0,-0.5520278339379315,-0.008903674740937131,-2.375660162472632
22/04/2022,13:20:25,34.285364,-0.3150006409268826,21.662024786695838,3.123626708984375,3.3784332275390625,-0.0032130242325365543,1.6826305389404297,0.1866801381111145,1.2687238454818726,3.880908489227295,1.9002323150634766,47.64166296423295,-122.14016599542354,125.12420654296875,28.78523086666078,-3.6172182614895143,-84.23977617867527,0.0,0.0,0.0,0.0,0.0,0.0,0.4023527767143066,-0.29237531158704944,-0.0047157308320500135,0.27637329101562624,0.0,0.0,0.0,-0.0,-0.0,0.0,-0.0,-0.0,-0.0
22/04/2022,13:20:26,34.434353,-0.3187699223635718,21.939138964749873,3.09649658203125,3.3784332275390625,-0.0036225642543286085,2.0002329349517822,-0.5335357189178467,1.2687238454818726,3.880908489227295,1.9002323150634766,47.64166541247473,-122.14016600456301,125.09649658203125,12.947471616023655,-0.43473832054241446,-86.3347602489801,0.0,0.0,0.0,-0.5942911143611758,-0.009585340554218606,2.324949103499284,0.42193586957610835,-0.2930754315341799,-0.004727023089262872,0.30350341796875124,0.0,0.0,0.0,-0.0,-0.0,0.0,-0.5942911143611758,-0.009585340554218606,2.324949103499284
22/04/2022,13:20:26,34.618354,-0.3224938280181959,22.321762960404158,3.0559616088867188,3.3784332275390625,0.008258498273789883,2.0614805221557617,0.2787848711013794,1.2687238454818726,3.880908489227295,1.9002323150634766,47.64166891082841,-122.14016599731974,125.05677032470703,-5.693167864037279,0.3006996891979219,-88.24745076441764,0.09174895494650198,2.9985966933327703,0.0,0.09174895494650198,2.9985966933327703,0.0,0.4535620472833101,-0.2955222441204455,-0.004766487808392839,0.3440383911132825,0.09174895494650198,2.9985966933327703,0.0,-0.0,-0.0,0.0,-0.0,-0.0,-0.0
22/04/2022,13:20:26,34.79935,-0.32471829967107624,22.67993620876223,3.124053955078125,3.3784332275390625,0.00985706876963377,1.8953546285629272,0.2929132282733917,1.2687238454818726,3.880908489227295,1.9002323150634766,47.641672128920355,-122.14016597398765,125.12493896484375,-2.4951216706886403,0.02217826880762347,-89.20822842497802,-0.9308116134182244,5.01334117533664,0.0,-0.9308116134182244,5.01334117533664,0.0,0.40695779646884495,-0.2990738364129105,-0.0048237715550492055,0.27594604492187624,-0.9308116134182244,5.01334117533664,0.0,-0.0,-0.0,0.0,-0.0,-0.0,-0.0
22/04/2022,13:20:26,34.946349,-0.32642088481225073,22.95926128141582,3.16949462890625,3.3784332275390625,0.008732883259654045,1.994312047958374,0.5062043070793152,1.2687238454818726,3.880908489227295,1.9002323150634766,47.641674591010414,-122.1401659558092,125.16949462890625,9.901482837702051,-0.12115437873731426,-89.615521416133,0.0,0.0,0.0,0.0,0.0,0.0,0.3798491946691271,-0.30187576546930794,-0.004868963959182793,0.23050537109375124,0.0,0.0,0.0,-0.0,-0.0,0.0,-0.0,-0.0,-0.0
22/04/2022,13:20:26,35.096352,-0.3286509563913569,23.267858238890767,3.23699951171875,3.3784332275390625,0.007625988218933344,2.140191078186035,0.20831118524074554,1.2687238454818726,3.880908489227295,1.9002323150634766,47.64167742529766,-122.14016593963137,125.23763275146484,-1.3867473498777074,-0.04588537009142163,-89.83343537618862,0.0,0.0,0.0,0.0,0.0,0.0,0.3455257953504436,-0.3046223496600394,-0.0049132637041964244,0.16300048828125124,0.0,0.0,0.0,-0.0,-0.0,0.0,-0.0,-0.0,-0.0
22/04/2022,13:20:26,35.244352,-0.33100772683974355,23.57294811028987,3.2778167724609375,3.3784332275390625,0.006251296494156122,1.9710381031036377,0.3908095955848694,1.2687238454818726,3.880908489227295,1.9002323150634766,47.6416801658256,-122.1401659260183,125.27898406982422,-9.020547126866692,-0.03972135512051466,-89.95799122156673,0.0,0.0,-5.0,0.0,0.0,-5.0,0.33063023728145335,-0.30718571674018147,-0.004954608334521993,0.12218322753906374,0.0,0.0,-5.0,-0.0,-0.0,0.0,-0.0,-0.0,-0.0
22/04/2022,13:20:27,35.39135,-0.33315947896335274,23.84276767447591,3.31097412109375,3.3784332275390625,0.005484974943101406,1.7882403135299683,-0.11158709228038788,1.2687238454818726,3.880908489227295,1.9002323150634766,47.64168258861156,-122.14016591485928,125.31066131591797,-14.704185838855249,-0.11212803266132075,-90.2227113902727,0.0,0.0,-5.0,0.0,0.0,-5.0,0.32197792599998964,-0.30938532085367443,-0.0049900858202249765,0.08902587890625124,0.0,0.0,-5.0,-0.0,-0.0,0.0,-0.0,-0.0,0.0
22/04/2022,13:20:27,35.565349,-0.335562143009156,24.14211848936975,3.2133560180664062,3.3784332275390625,0.0046482631005346775,1.5256123542785645,-0.9981224536895752,1.2687238454818726,3.880908489227295,1.9002323150634766,47.641685233777814,-122.14016590286923,125.2133560180664,-17.407473891207907,-0.43282286963268946,-91.1912968017392,0.0,0.0,-5.0,-0.4189448651983324,-0.006757175245137919,-2.5303860376607425,0.36343762894290244,-0.3118102649190453,-0.005029197821272646,0.186643981933595,0.0,0.0,-5.0,-0.0,-0.0,0.0,-0.4189448651983324,-0.006757175245137919,2.4696139623392575
22/04/2022,13:20:27,35.71435,-0.33724056917708367,24.35030352883041,3.01751708984375,3.3784332275390625,0.0038798004388809204,1.3113389015197754,-1.6859428882598877,1.2687238454818726,3.880908489227295,1.9002323150634766,47.641687142340224,-122.14016589432201,125.01248168945312,-13.309607762251078,-0.557323084033717,-92.11683289285243,0.0,0.0,-5.0,-0.509048625744669,-0.008210461705564717,0.25711522786572605,0.4945646942713915,-0.31348922519395983,-0.0050562778257088326,0.38248291015625124,0.0,0.0,-5.0,-0.0,-0.0,0.0,-0.509048625744669,-0.008210461705564717,5.257115227865726
22/04/2022,13:20:27,35.86635,-0.338638466084376,24.518861974589527,2.786163330078125,3.3784332275390625,0.0023306324146687984,0.9393871426582336,-1.1478254795074463,1.2687238454818726,3.880908489227295,1.9002323150634766,47.64168864895058,-122.14016588810773,124.7826919555664,-8.592471618258642,-0.44069352297919845,-92.67977212212938,0.0,0.0,-5.0,-0.34645968861276777,-0.005588059493757958,-2.1180044280701793,0.6898741675493509,-0.3148096693878307,-0.005077575312711247,0.6138366699218762,0.0,0.0,-5.0,-0.0,-0.0,0.0,-0.34645968861276777,-0.005588059493757958,2.8819955719298207
22/04/2022,13:20:27,36.046349,-0.339957864372991,24.669262984767556,2.5685348510742188,3.3784332275390625,0.0016739550046622753,0.7542085647583008,-1.5745707750320435,1.2687238454818726,3.880908489227295,1.9002323150634766,47.64168997679683,-122.14016588356135,124.56853485107422,-6.565572472387343,-0.41224980163977876,-93.38783284412553,0.0,0.0,-5.0,-0.5566060035619154,-0.008977516186486855,1.4485476880264052,0.8894734699138104,-0.31591580608733705,-0.005095416227216987,0.8314651489257825,0.0,0.0,-5.0,-0.0,-0.0,0.0,-0.5566060035619154,-0.008977516186486855,6.448547688026405
22/04/2022,13:20:27,36.196348,-0.34086268849205226,24.769601482897997,2.3512954711914062,3.3784332275390625,0.0010017941240221262,0.561814546585083,-1.0007247924804688,1.2687238454818726,3.880908489227295,1.9002323150634766,47.641690894822354,-122.14016588075282,124.3482666015625,-4.362551693821665,-0.35273494396076477,-94.41239590416852,0.0,0.0,-5.0,-0.464441045131191,-0.007490984598894116,-1.5007035363737322,1.0954730913593593,-0.31662915926559865,-0.005106921923641039,1.048704528808595,0.0,0.0,-5.0,-0.12312694465341369,-0.0019859184621527476,0.4078076219382151,-0.3413141004777773,-0.0055050661367413685,3.091488841688053
22/04/2022,13:20:27,36.34935,-0.34159134689252824,24.84676185529679,2.2083892822265625,3.3784332275390625,0.0007077158079482615,0.4600240886211395,-1.0410854816436768,1.2687238454818726,3.880908489227295,1.9002323150634766,47.641691586298755,-122.14016587907328,124.20526885986328,-3.586781796781068,-0.3824794972985735,-95.91301060801194,0.0,0.0,-5.0,-0.47920728661836354,-0.007729149784173313,-1.0036720144756393,1.2331030568889594,-0.3171448888357665,-0.005115240142515631,1.1916107177734387,0.0,0.0,-5.0,-0.11699595874394551,-0.0018870315926454882,0.43958973731927264,-0.362211327874418,-0.005842118191527825,3.5567382482050878
22/04/2022,13:20:28,36.528353,-0.3422947369981557,24.919450990855694,2.020904541015625,3.3784332275390625,0.00045004417188465595,0.36185047030448914,-1.0636998414993286,1.2687238454818726,3.880908489227295,1.9002323150634766,47.64169223767636,-122.1401658777159,124.01771545410156,-2.8963475264904073,-0.4419907915411556,-98.50646071070396,0.0,0.0,-5.0,-0.5073649564950526,-0.008183305749926015,-0.28814528277431783,1.4152063604719973,-0.31761378216180547,-0.005122802938096527,1.3790954589843762,0.0,0.0,-5.0,-0.10772629530456755,-0.0017375208920101342,0.4677531423748294,-0.3996386611904851,-0.006445784857915881,4.244101574850853
22/04/2022,13:20:28,36.705349,-0.3428446401376277,24.97360992990434,1.8954391479492188,3.3784332275390625,0.00010105426190420985,0.2459888756275177,-0.1694352924823761,1.2687238454818726,3.880908489227295,1.9002323150634766,47.64169272185836,-122.1401658770545,123.89491271972656,-2.102696392423328,-0.4381047742849325,-101.58543917658623,0.0,0.0,-5.0,-0.5365976925327534,-0.008654801492465839,-2.059722807290885,1.5377951090678632,-0.3179373261287459,-0.005128021389175785,1.5045608520507825,0.0,0.0,-5.0,-0.1013329234680841,-0.0016344019914214965,0.479533345550624,-0.43526476906466927,-0.007020399501044343,2.4607438471584913
22/04/2022,13:20:28,36.852358,-0.3432038703467697,25.006609462201595,1.8550338745117188,3.3784332275390625,1.8512222595745698e-05,0.21024881303310394,-0.6068439483642578,1.2687238454818726,3.880908489227295,1.9002323150634766,47.641693017818284,-122.14016587696808,123.85323333740234,-1.8626487069983195,-0.4798858530263429,-104.3262325163582,0.0,0.0,-5.0,-0.41926654931323065,-0.006762363698606897,-1.8012423203309127,1.5773841694445807,-0.3181103014417468,-0.00513081131357751,1.5449661254882825,0.0,0.0,-5.0,-0.09931253742181317,-0.0016018151197069604,0.4823311456988013,-0.3199540118914175,-0.005160548578899937,2.7164265339702864
22/04/2022,13:20:28,37.099352,-0.3437222415814176,25.052735078148544,1.6021575927734375,3.3784332275390625,-8.708539098734036e-05,0.15962843596935272,-1.1943002939224243,1.2687238454818726,3.880908489227295,1.9002323150634766,47.641693431495185,-122.14016587706332,123.59857177734375,-1.2603072789462488,-0.43943902262464246,-109.09465111280726,0.0,0.0,0.0,-0.6889120686687779,-0.011111484978529604,8.28471327143473,1.8258152662339422,-0.3183358330835475,-0.005134448920706802,1.7978424072265637,0.0,0.0,0.0,-0.08708421092673332,-0.0014045840472065863,0.49181923972364683,-0.6018278577420445,-0.009706900931323018,7.792894031711083
22/04/2022,13:20:28,37.265347,-0.3440118069993332,25.076213133521378,1.4484405517578125,3.3784332275390625,-0.00024002943246159703,0.12246440351009369,-0.4470530152320862,1.2687238454818726,3.880908489227295,1.9002323150634766,47.641693641733795,-122.14016587745812,123.44706726074219,-0.5161228713541633,-0.2042409475108147,-111.85705374095481,0.0,0.0,0.0,-0.39774278708525634,-0.006415206243314325,3.297864862719954,1.9773732800885533,-0.3184249228017916,-0.005135885851640154,1.9515594482421887,0.0,0.0,0.0,-0.08051696365848714,-0.001298660704168731,0.49347155300812845,-0.3172258234267692,-0.005116545539145594,2.804393309711825
22/04/2022,13:20:29,37.416352,-0.3442260784795508,25.092712516896427,1.4444580078125,3.3784332275390625,-0.00018065884069073945,0.10140269994735718,0.43749189376831055,1.2687238454818726,3.880908489227295,1.9002323150634766,47.64169378962258,-122.14016587787225,123.44573974609375,-0.48385080746768044,-0.206072607465022,-113.20422510663563,0.0,0.0,0.0,-0.6983478799965196,-0.011263675483820656,2.5712516094980953,1.9813122706481996,-0.31847675692384536,-0.005136721885868667,1.9555419921875012,0.0,0.0,0.0,-0.08037005219833884,-0.001296291164489385,0.49349601994890646,-0.6179778277981808,-0.00996738431933127,2.077755589549189
22/04/2022,13:20:29,37.604355,-0.3444339579436928,25.1088673369959,1.6251144409179688,3.3784332275390625,-0.0001327987265540287,0.07463659346103668,1.5728486776351929,1.2687238454818726,3.880908489227295,1.9002323150634766,47.641693934254455,-122.1401658782527,123.62980651855469,-0.4675694024853387,-0.20816108748275158,-114.09029347425972,0.0,0.0,0.0,-0.6339792975620445,-0.01022547254132394,-1.841782719548394,1.80324877299442,-0.3185294253727413,-0.005137571376980787,1.7748855590820325,0.0,0.0,0.0,-0.08818644929181592,-0.001422362085352171,0.4913858591607484,-0.5457928482702286,-0.008803110455971768,-2.3331685787091425
22/04/2022,13:20:29,37.788351,-0.34459279116708785,25.121211485937238,1.8981781005859375,3.3784332275390625,-0.00011034309136448428,0.06293898075819016,1.0625059604644775,1.2687238454818726,3.880908489227295,1.9002323150634766,47.64169404501471,-122.14016587854371,123.9013900756836,-0.502231385482855,-0.2279620262057693,-114.51701895538842,-1.6598540653923428,3.639352206313716,0.0,-1.7615230014482395,3.6377123847644275,0.47929430776268955,1.5352465796836434,-0.3185696808535301,-0.005138220658928105,1.5018218994140637,-1.6598540653923428,3.639352206313716,0.0,-0.10166893605589662,-0.0016398215492887194,0.47929430776268955,-0.0,-0.0,-0.0
22/04/2022,13:20:29,37.972355,-0.34650268987752497,25.137063617818058,2.0265579223632812,3.3784332275390625,-0.04493951052427292,0.18596456944942474,0.45898234844207764,1.2687238454818726,3.880908489227295,1.9002323150634766,47.64169419105357,-122.14016590337513,124.0279312133789,12.349636873538875,1.2061950771728218,-114.58917692355061,0.15419332848669853,4.4694769735898845,0.0,0.046403643984274406,4.467738430291457,0.46713620871445116,1.4095406879834393,-0.3169158919156081,-0.005111546643803422,1.37344207763672,0.15419332848669853,4.4694769735898845,0.0,-0.10778968450242413,-0.001738543298427315,0.46713620871445116,-0.0,-0.0,0.0
22/04/2022,13:20:29,38.130351,-0.36358712799847126,25.200578813441098,2.12567138671875,3.3784332275390625,-0.1585208624601364,0.7261562347412109,0.89931720495224,1.2687238454818726,3.880908489227295,1.9002323150634766,47.64169477867433,-122.14016612599846,124.12835693359375,17.83379881346883,6.2232614266878405,-113.2866765655673,0.25574899809744944,4.464817179904699,0.0,0.1484307330149695,4.463086240145304,0.4545592781606403,1.3093715070476588,-0.3008600692866643,-0.004852581762687436,1.2743286132812512,0.25574899809744944,4.464817179904699,0.0,-0.10731826508247992,-0.0017309397593945884,0.4545592781606403,-0.0,-0.0,-0.0
22/04/2022,13:20:29,38.310351,-0.39716410695109516,25.39331292361021,2.3023529052734375,3.3784332275390625,-0.17267346382141113,1.3792693614959717,0.9350550174713135,1.2687238454818726,3.880908489227295,1.9002323150634766,47.6416965336419,-122.14016654511953,124.30516052246094,17.861920436152563,8.303161536439282,-112.70108593718822,0.3013674411485052,4.461970155146222,0.0,0.19749672536607502,4.460294821020698,0.4216477284282773,1.1304707536314067,-0.2703996291661439,-0.004361284341392491,1.0976470947265637,0.3013674411485052,4.461970155146222,0.0,-0.1038707157824302,-0.0016753341255242482,0.4216477284282773,0.0,0.0,-0.0
22/04/2022,13:20:30,38.465352,-0.4250680385157466,25.63673310726881,2.4307785034179688,3.3784332275390625,-0.15363602340221405,1.8163286447525024,0.7248226404190063,1.2687238454818726,3.880908489227295,1.9002323150634766,47.64169868936304,-122.14016687373375,124.43077850341797,15.803492710543429,7.9703663975952175,-112.84380656669686,0.2902519958979821,4.4627070012356,-1.0,0.19168240728313485,4.461117169161166,-0.6123178424282426,1.0000664471980496,-0.24642806569470377,-0.003974646220886058,0.9692214965820325,0.2902519958979821,4.4627070012356,-1.0,-0.09856958861484726,-0.0015898320744345156,0.3876821575717574,0.0,0.0,-0.0
22/04/2022,13:20:30,38.64935,-0.4551611542701721,26.01522448658943,2.54144287109375,3.3784332275390625,-0.12302080541849136,2.264145851135254,0.4657430648803711,1.2687238454818726,3.880908489227295,1.9002323150634766,47.64170209755301,-122.14016721846127,124.54144287109375,12.671428505217166,7.078320107846125,-114.6172338326028,0.1520046722846431,4.469551943942887,-2.0,0.1520046722846431,4.469551943942887,-2.0,0.8869134058436201,-0.22244588846658075,-0.0035878369107535946,0.8585571289062512,0.1520046722846431,4.469551943942887,-2.0,-0.0,-0.0,0.0,-0.0,0.0,-0.0
