date,fly_time,fly_time_s,x,y,z,z_max,vx,vy,vz,vx_max,vy_max,vz_max,latitude,longitude,altitude,pitch,roll,yaw,cx,cy,cz,scx,scy,scz,d,dx,dy,dz,gc_pow_x,gc_pow_y,gc_pow_z,gpc_pow_x,gpc_pow_y,gpc_pow_z,gfc_pow_x,gfc_pow_y,gfc_pow_z
14/04/2022,16:01:07,32.943622,0.0,0.0,2.5970535278320312,2.5970535278320312,0.0,0.0,-0.008241984993219376,0,0,0,47.641468,-122.140165,124.59705352783203,0.0,0.0,0.0,0.0,0.0,0.0,0.0,0.0,0.0,0.8433878177678322,-0.25799739921976594,-0.004161248374512427,0.80294647216797,0.0,0.0,0.0,-0.0,-0.0,0.0,-0.0,-0.0,0.0
14/04/2022,16:01:07,33.132633,0.0,0.0,2.595611572265625,2.5970535278320312,0.0,0.0,-0.007274292875081301,0,0,0,47.641468,-122.140165,124.59558868408203,0.0,0.0,0.0,0.0,0.0,0.0,0.0,0.0,0.0,0.8447607452203136,-0.25799739921976594,-0.004161248374512427,0.8043884277343762,0.0,0.0,0.0,-0.0,-0.0,0.0,-0.0,-0.0,0.0
14/04/2022,16:01:07,33.320622,0.0,0.0,2.5943145751953125,2.5970535278320312,0.0,0.0,-0.006474728230386972,0,0,0,47.641468,-122.140165,124.59429168701172,0.0,0.0,0.0,0.0,0.0,0.0,0.0,0.0,0.0,0.8459958497149437,-0.25799739921976594,-0.004161248374512427,0.8056854248046887,0.0,0.0,0.0,-0.0,-0.0,0.0,-0.0,-0.0,0.0
14/04/2022,16:01:08,33.512624,0.0,0.0,2.5931320190429688,2.5970535278320312,0.0,0.0,-0.00581628130748868,0,0,0,47.641468,-122.140165,124.59313201904297,0.0,0.0,0.0,0.0,1.0,0.0,0.0,1.0,0.0,0.8471221356368135,-0.25799739921976594,-0.004161248374512427,0.8068679809570325,0.0,1.0,0.0,-0.0,-0.0,0.0,-0.0,-0.0,0.0
14/04/2022,16:01:08,33.670627,-1.931807491928339e-05,0.0017419159412384033,2.5939559936523438,2.5970535278320312,4.012260575864124e-12,0.044591039419174194,0.03425810486078262,4.012260575864124e-12,0.044591039419174194,0.03425810486078262,47.64146801684891,-122.140165,124.59405517578125,-4.5039691365677064e-10,-3.692212438227151,1.670830593627966e-08,1.45807475509297e-09,5.0,0.0,1.45807475509297e-09,5.0,0.0,0.8463400281812185,-0.2580061742804596,-0.004161389907749391,0.8060440063476575,1.45807475509297e-09,5.0,0.0,-0.0,-0.0,0.0,-0.0,-0.0,0.0
14/04/2022,16:01:08,33.824625,-0.00029430584982037544,0.026537664234638214,2.626617431640625,2.626617431640625,3.121426728203147e-10,0.42681872844696045,0.5834599733352661,3.121426728203147e-10,0.42681872844696045,0.5834599733352661,47.64146825008563,-122.140165,124.62834930419922,-7.054175636301543e-09,-18.458113588601336,9.392422964374367e-08,8.19643527341294e-09,5.0,0.0,8.19643527341294e-09,5.0,0.0,0.8153340347659099,-0.25813108543454827,-0.004163404603783061,0.7733825683593762,8.19643527341294e-09,5.0,0.0,-0.0,-0.0,0.0,-0.0,-0.0,-0.0
14/04/2022,16:01:08,34.013626,-0.00225236255209893,0.2030963059514761,2.8186721801757812,2.8186721801757812,2.6637447803068426e-09,1.5563931465148926,1.4872901439666748,2.6637447803068426e-09,1.5563931465148926,1.4872901439666748,47.641469869124364,-122.140165,124.82311248779297,-2.0313450803462965e-08,-24.476248096071906,2.1335546112542983e-07,1.8618776368747586e-08,5.0,0.0,-0.3248605434960876,4.994760313514276,-2.514356100279974,0.6364362624189435,-0.25902051737808146,-0.004177750280291659,0.58132781982422,1.8618776368747586e-08,5.0,0.0,-0.0,-0.0,0.0,-0.32486056211486397,-0.005239686485723973,-2.514356100279974
14/04/2022,16:01:08,34.202624,-0.006096602883189917,0.5497327670454979,3.0482025146484375,3.0482025146484375,4.2586023596413725e-09,2.025118112564087,0.6966827511787415,4.2586023596413725e-09,2.025118112564087,1.4872901439666748,47.64147294640965,-122.140165,125.04820251464844,-2.610015867741368e-08,-22.09826242816294,3.146445280026758e-07,2.745791493515095e-08,5.0,0.0,-0.6348626007201801,4.989760280190674,-2.0279085834970396,0.437925164485559,-0.26076673343922985,-0.00420591505547141,0.35179748535156374,2.745791493515095e-08,5.0,0.0,-0.0,-0.0,0.0,-0.634862628178095,-0.01023971980932642,-2.0279085834970396
14/04/2022,16:01:08,34.357625,-0.009662473225034773,0.8712686663493514,3.0949478149414062,3.0949478149414062,5.4421853690200805e-09,2.2734715938568115,-0.09755063056945801,5.4421853690200805e-09,2.2734715938568115,1.4872901439666748,47.64147590074781,-122.14016499999998,125.09467315673828,-1.6161673443876543e-08,-18.578986855321865,3.5800170385294565e-07,3.124154229991785e-08,5.0,0.0,3.124154229991785e-08,5.0,0.0,0.4023946117655204,-0.2623865046129067,-0.004232040396982439,0.305052185058595,3.124154229991785e-08,5.0,0.0,-0.0,-0.0,0.0,-0.0,-0.0,0.0
14/04/2022,16:01:09,34.544621,-0.015028031542897224,1.3553044674918056,3.0860595703125,3.0949478149414062,6.756748189218342e-05,2.9287986755371094,0.22603246569633484,6.756748189218342e-05,2.9287986755371094,1.4872901439666748,47.64148027362882,-122.14016499996461,125.08673858642578,0.2927099351541235,-15.774673436056387,-1.0695385725920732,-0.09332942742772064,4.999128885913626,0.0,-0.09332942742772064,4.999128885913626,0.0,0.4107436652387288,-0.26482734037284655,-0.004271408715691205,0.31394042968750124,-0.09332942742772064,4.999128885913626,0.0,-0.0,-0.0,0.0,-0.0,-0.0,-0.0
14/04/2022,16:01:09,34.732627,-0.02146373374853283,1.9413389060646296,3.0975875854492188,3.0975875854492188,0.0008691094117239118,3.255343437194824,-0.10615856200456619,0.0008691094117239118,3.255343437194824,1.4872901439666748,47.64148555553334,-122.14016499908774,125.09727478027344,0.7185851623445894,-8.922714802666171,-4.496971099484788,-0.3920319714724243,4.9846074001212415,0.0,-0.3920319714724243,4.9846074001212415,0.0,0.4039948214241782,-0.2678430220147326,-0.004320048742173288,0.3024124145507825,-0.3920319714724243,4.9846074001212415,0.0,-0.0,-0.0,0.0,-0.0,-0.0,0.0
14/04/2022,16:01:09,34.927623,-0.028383028111420572,2.5966683765873313,3.0694808959960938,3.0975875854492188,0.0028903945349156857,3.465658187866211,-0.16198091208934784,0.0028903945349156857,3.465658187866211,1.4872901439666748,47.64149136437546,-122.14016499448421,125.0694808959961,0.8577963929710727,-5.197942445548602,-9.25582815682509,-0.8042148128076705,4.934900053178455,0.0,-0.8042148128076705,4.934900053178455,0.0,0.4277502652312277,-0.27149260839742884,-0.00437891303866822,0.3305191040039075,-0.8042148128076705,4.934900053178455,0.0,-0.0,-0.0,0.0,-0.0,-0.0,0.0
14/04/2022,16:01:09,35.080624,-0.033659003442153335,3.123693944886327,3.04534912109375,3.0975875854492188,0.004778037779033184,3.570840835571289,-0.1567949652671814,0.004778037779033184,3.570840835571289,1.4872901439666748,47.64149620262099,-122.14016498672184,125.04487609863281,0.8838039628013805,-3.744319767291517,-13.338867649307987,-1.1535492902562567,4.865112951920982,0.0,-1.1535492902562567,4.865112951920982,0.0,0.4486266522954893,-0.27471620685339787,-0.00443090656215217,0.35465087890625124,-1.1535492902562567,4.865112951920982,0.0,-0.0,-0.0,0.0,-0.0,-0.0,0.0
14/04/2022,16:01:09,35.261622,-0.042981530888937414,3.7846781173720956,3.0210037231445312,3.0975875854492188,-0.05502714961767197,3.6633543968200684,-0.08935429900884628,0.004778037779033184,3.6633543968200684,1.4872901439666748,47.641502152756686,-122.14016501559057,125.0207290649414,-2.9828491956075784,-3.9318856672972093,-18.209503876085982,-1.562462449058509,4.749601151179127,0.0,-1.562462449058509,4.749601151179127,0.0,0.46889659383020366,-0.2760543663302977,-0.004452489779520619,0.37899627685547,-1.562462449058509,4.749601151179127,0.0,-0.0,-0.0,0.0,-0.0,-0.0,0.0
14/04/2022,16:01:10,35.446624,-0.07274823274929076,4.448725847527385,3.009857177734375,3.0975875854492188,-0.20311297476291656,3.728078603744507,-0.0439227931201458,0.004778037779033184,3.728078603744507,1.4872901439666748,47.64150813173864,-122.14016531972717,125.00972747802734,-3.9660041333722265,-3.9476519338579674,-21.681013208599822,-1.8471941957267606,4.646275239724113,0.0,-1.8471941957267606,4.646275239724113,0.0,0.4672035759909405,-0.2570030678435433,-0.004145210771670627,0.39014282226562624,-1.8471941957267606,4.646275239724113,0.0,-0.0,-0.0,0.0,0.0,0.0,0.0
14/04/2022,16:01:10,35.622627,-0.130264472682029,5.122434798628092,3.0026779174804688,3.0975875854492188,-0.35482630133628845,3.775042772293091,-0.038749951869249344,0.004778037779033184,3.775042772293091,1.4872901439666748,47.641514199926746,-122.14016599200333,125.0025634765625,-3.677903517275791,-3.5335233050520785,-23.406774262018402,-1.9862819845169633,4.588538316063554,0.0,-1.9862819845169633,4.588538316063554,0.0,0.4495885688896905,-0.21036523394674178,-0.0033929876443039575,0.3973220825195325,-1.9862819845169633,4.588538316063554,0.0,-0.0,-0.0,0.0,0.0,0.0,0.0
14/04/2022,16:01:10,35.769627,-0.19658467336557806,5.677954864688218,2.9968338012695312,3.0975875854492188,-0.46422362327575684,3.804403066635132,-0.04095369577407837,0.004778037779033184,3.804403066635132,1.4872901439666748,47.64151920520666,-122.14016679723723,124.99671173095703,-3.1863868856480297,-3.095002858356932,-24.14281588545001,-2.045062436817267,4.5626439297318635,0.0,-2.045062436817267,4.5626439297318635,0.0,0.43123564438377454,-0.15301995245601752,-0.002468063749291538,0.40316619873047,-2.045062436817267,4.5626439297318635,0.0,-0.0,-0.0,0.0,0.0,0.0,0.0
14/04/2022,16:01:10,35.922622,-0.27976508741267025,6.237281256355345,2.9970779418945312,3.0975875854492188,-0.6043819785118103,3.8299429416656494,0.06780393421649933,0.004778037779033184,3.8299429416656494,1.4872901439666748,47.64152414309502,-122.14016780344626,124.99707794189453,-5.826604244441753,-4.102049147996024,-24.456462792280917,-2.070008364471213,4.551380600545203,0.0,-0.08016545552969401,4.583474841011999,0.5287119203442698,0.41057263973603136,-0.07888021895441533,-0.001272261596040103,0.40292205810547,-2.070008364471213,4.551380600545203,0.0,-0.0,-0.0,0.0,1.9898429089415188,0.03209424046679676,0.5287119203442698
14/04/2022,16:01:10,36.099624,-0.4092146912589669,6.925943776033819,2.9940414428710938,3.0975875854492188,-0.7085661292076111,3.8493127822875977,-0.07993882894515991,0.004778037779033184,3.8493127822875977,1.4872901439666748,47.6415304554585,-122.14016945337475,124.9937973022461,0.545596037106084,-0.998273724674717,-24.873973921746675,-2.103118767924617,4.536175861670626,0.0,0.11999087449929302,4.572032468806492,0.9443418126796012,0.40786955012018844,0.03943114670620862,0.0006359862371958513,0.4059585571289075,-2.103118767924617,4.536175861670626,0.0,0.0,0.0,0.0,2.22310964242391,0.03585660713586707,0.9443418126796012
14/04/2022,16:01:10,36.248623,-0.517293828772381,7.490832498297095,2.9857864379882812,3.0975875854492188,-0.6606248021125793,3.863996982574463,-0.032279543578624725,0.004778037779033184,3.863996982574463,1.4872901439666748,47.64153554879484,-122.1401708068586,124.98568725585938,3.0022743735398785,0.3023041608055975,-24.96668100378903,-2.1104557429973654,4.532766986824873,0.0,0.14973064939286962,4.569221606056973,0.8107757338192255,0.4367208077425806,0.13837343638663524,0.0022318296191388143,0.41421356201172,-2.1104557429973654,4.532766986824873,0.0,0.0,0.0,0.0,2.260186392390235,0.03645461923209993,0.8107757338192255
14/04/2022,16:01:11,36.426623,-0.6347785253310576,8.185248241759837,2.9824752807617188,3.0975875854492188,-0.5500819087028503,3.877493143081665,-0.009960570372641087,0.004778037779033184,3.877493143081665,1.4872901439666748,47.641541703863616,-122.14017224185974,124.98247528076172,3.6386968881732136,0.7300217168563341,-25.028507623853525,-2.115345722853066,4.53048700172589,0.0,0.07315454166162638,4.565785393089027,0.7850608915536625,0.4839281062961596,0.24463023677073487,0.003945648980172578,0.4175247192382825,-2.115345722853066,4.53048700172589,0.0,0.0,0.0,0.0,2.1885002645146923,0.03529839136313774,0.7850608915536625
14/04/2022,16:01:11,36.603623,-0.7287327292142436,8.858759078197181,2.9809188842773438,3.0975875854492188,-0.4402099549770355,3.887481212615967,-0.009431240148842335,0.004778037779033184,3.887481212615967,1.4872901439666748,47.641547877405465,-122.14017341080542,124.98088836669922,3.351279004342335,0.6880677485724775,-25.072078717239407,-2.118790360659247,4.528877058121302,0.0,-0.06854902996755685,4.561945466680843,0.8294437956486588,0.5320188395371968,0.3276997524710864,0.005285479878564203,0.4190811157226575,-2.118790360659247,4.528877058121302,0.0,0.0,0.0,0.0,2.0502413306916902,0.033068408559541115,0.8294437956486588
14/04/2022,16:01:11,36.780625,-0.8046163722174242,9.534021884202957,2.97900390625,3.0975875854492188,-0.34420251846313477,3.8954098224639893,-0.012746990658342838,0.004778037779033184,3.8954098224639893,1.4872901439666748,47.64155396035373,-122.14017431744543,124.97896575927734,2.826468625968755,0.5139931401245109,-25.10182153600831,-2.1211410609693537,4.527776562449809,0.0,-0.23928525036607962,4.558129075524056,0.8795682316786018,0.5757357054970207,0.3926751568226776,0.006333470271332686,0.42099609375000124,-2.1211410609693537,4.527776562449809,0.0,0.0,0.0,0.0,1.8818558106032741,0.030352513074247425,0.8795682316786018
14/04/2022,16:01:11,36.960626,-0.8670826812740415,10.234050013124943,2.976470947265625,3.0975875854492188,-0.26297929883003235,3.901954174041748,-0.015102826058864594,0.004778037779033184,3.901954174041748,1.4872901439666748,47.6415601595729,-122.14017503186268,124.97647094726562,2.279411941666786,0.31628940659873267,-25.121073640818395,0.0,0.0,0.0,0.0,0.0,0.0,0.6135305411243341,0.4438373799749465,0.00715866741895077,0.42352905273437624,0.0,0.0,0.0,0.0,0.0,0.0,0.0,0.0,0.0
14/04/2022,16:01:11,37.128628,-0.9144521378912032,10.90041739679873,2.9914169311523438,3.0975875854492188,-0.18788960576057434,3.6220009326934814,0.4532862603664398,0.004778037779033184,3.901954174041748,1.4872901439666748,47.64156615943145,-122.14017556407586,124.99141693115234,-4.642075644152826,13.900690751432117,-25.35701744404922,0.0,0.0,0.0,0.0,0.0,0.0,0.6307391291713971,0.4804494510929165,0.007749184695043709,0.4085830688476575,0.0,0.0,0.0,0.0,0.0,0.0,0.0,0.0,-0.0
14/04/2022,16:01:11,37.282626,-0.9424253362230957,11.37678150832653,3.1058425903320312,3.1058425903320312,-0.12951186299324036,2.993844985961914,1.02786123752594,0.004778037779033184,3.901954174041748,1.4872901439666748,47.64157052878115,-122.14017587133216,125.10892486572266,-6.957031135036354,18.09285422454798,-25.680795760987465,0.0,0.0,0.0,0.8804791591558574,0.014201276760577584,-2.338905106532704,0.5807998178457235,0.5007340803446905,0.008076356134591123,0.29415740966797,0.0,0.0,0.0,0.0,0.0,0.0,0.8804791591558574,0.014201276760577584,-2.338905106532704
14/04/2022,16:01:12,37.456626,-0.9680588584160432,11.867974784225225,3.2412185668945312,3.2412185668945312,-0.10157807171344757,2.6048407554626465,0.31461936235427856,0.004778037779033184,3.901954174041748,1.4872901439666748,47.641574869639626,-122.14017613485544,125.24121856689453,-8.04688822385594,20.206209209531657,-25.89134085918941,0.0,0.0,0.0,0.0,0.0,0.0,0.5422748773685016,0.5184405240908468,0.00836194393694889,0.15878143310547,0.0,0.0,0.0,0.0,0.0,0.0,0.0,0.0,-0.0
14/04/2022,16:01:12,37.639622,-0.9868060736916959,12.27027235366404,3.3026123046875,3.3026123046875,-0.058409467339515686,1.9200571775436401,0.47644177079200745,0.004778037779033184,3.901954174041748,1.4872901439666748,47.64157849087565,-122.14017632502969,125.3026123046875,-6.336629357207128,15.930006182258674,-25.27664904790582,0.0,0.0,0.0,1.1596185451921268,0.018703524922457165,-1.694178912977771,0.5396255627235956,0.5306958807135783,0.008559610979249399,0.09738769531250124,0.0,0.0,0.0,0.0,0.0,0.0,1.1596185451921268,0.018703524922457165,-1.694178912977771
14/04/2022,16:01:12,37.809626,-0.997684134170413,12.576537638902664,3.3352813720703125,3.3352813720703125,-0.0167947169393301,1.640083909034729,-0.24361613392829895,0.004778037779033184,3.901954174041748,1.4872901439666748,47.6415812916039,-122.14017642532188,125.33457946777344,-1.7303840317473975,14.749629850986972,-25.138828622572248,0.0,0.0,0.0,0.0,0.0,0.0,0.5405904180925732,0.5366326341063986,0.008655365066230658,0.06471862792968874,0.0,0.0,0.0,0.0,0.0,0.0,0.0,0.0,0.0
14/04/2022,16:01:12,37.985626,-0.9918328433996066,12.830170086584985,3.3026885986328125,3.3352813720703125,0.10843081772327423,1.2010116577148438,0.030548658221960068,0.10843081772327423,3.901954174041748,1.4872901439666748,47.64158352863001,-122.14017630928812,125.30268859863281,-2.9039386144926205,10.252748800495343,-24.967065647332163,0.0,0.0,0.0,0.0,0.0,0.0,0.5356746013483867,0.5266930831364939,0.008495049728004744,0.09731140136718874,0.0,0.0,0.0,0.0,0.0,0.0,0.0,0.0,0.0
14/04/2022,16:01:12,38.162621,-0.9717398004140705,13.020281878300011,3.30731201171875,3.3352813720703125,0.12941107153892517,0.9194349646568298,0.0024580773897469044,0.12941107153892517,3.901954174041748,1.4872901439666748,47.641585237011085,-122.14017601373938,125.30731201171875,-3.3474184699597123,7.126328441298545,-24.79278800235347,0.0,0.0,0.0,0.0,0.0,0.0,0.5120637632760595,0.5035397441708938,0.008121608776948008,0.09268798828125124,0.0,0.0,0.0,0.0,0.0,0.0,0.0,0.0,0.0
14/04/2022,16:01:12,38.339626,-0.9514415707672015,13.16239952109754,3.3044052124023438,3.3352813720703125,0.11873511970043182,0.7154490947723389,-0.03300865367054939,0.12941107153892517,3.901954174041748,1.4872901439666748,47.641586532913806,-122.1401757177893,125.30430603027344,-3.0409753830336634,5.2568029361225665,-24.68822606264813,0.0,0.0,0.0,0.0,0.0,0.0,0.4904247292699623,0.480955169758407,0.007757341447716115,0.0955947875976575,0.0,0.0,0.0,0.0,0.0,0.0,0.0,0.0,0.0
14/04/2022,16:01:13,38.481623,-0.9366860387381166,13.25411200709641,3.2986907958984375,3.3352813720703125,0.10362417995929718,0.5838476419448853,-0.04688510671257973,0.12941107153892517,3.901954174041748,1.4872901439666748,47.64158733722188,-122.14017551257663,125.29869079589844,-2.6454669434029414,4.189133006103846,-24.634924921209052,0.0,0.0,0.0,0.0,0.0,0.0,0.4756981360127941,0.46472462638994616,0.007495558490159482,0.10130920410156374,0.0,0.0,0.0,0.0,0.0,0.0,0.0,0.0,0.0
14/04/2022,16:01:13,38.656626,-0.9212716437177733,13.344376529566944,3.2898635864257812,3.3352813720703125,0.08428612351417542,0.45416122674942017,-0.053273096680641174,0.12941107153892517,3.901954174041748,1.4872901439666748,47.641588147770115,-122.1401752940515,125.28986358642578,-2.1494190312061887,3.208106122215652,-24.59306781483889,0.0,0.0,-2.0,0.0,0.0,-2.0,0.46125877721202924,0.44785873956254096,0.00722352805745885,0.11013641357422,0.0,0.0,-2.0,0.0,0.0,0.0,0.0,0.0,0.0
14/04/2022,16:01:13,38.828624,-0.9084337534150109,13.417215839028358,3.2337722778320312,3.3352813720703125,0.07325819134712219,0.38921353220939636,-0.7392289638519287,0.12941107153892517,3.901954174041748,1.4872901439666748,47.64158881231858,-122.14017510946425,125.23157501220703,-1.9952912411347201,2.892970711044261,-24.581032042566747,0.0,0.0,-5.0,0.4089951762124416,0.006596696390523721,-2.552325097548331,0.46465702883002724,0.4338496660877877,0.006997575259479305,0.16622772216797,0.0,0.0,-5.0,0.0,0.0,0.0,0.4089951762124416,0.006596696390523721,2.447674902451669
14/04/2022,16:01:13,39.008623,-0.8971421902533621,13.480666342191398,3.0362014770507812,3.3352813720703125,0.06422360241413116,0.33905327320098877,-1.5523262023925781,0.12941107153892517,3.901954174041748,1.4872901439666748,47.64158937152627,-122.14017495271514,125.03620147705078,-1.6977116395518355,2.429984778819916,-24.56563304431694,0.0,0.0,-5.0,0.3341447754974846,0.005389431862857933,-0.8929594737541411,0.5568570747723036,0.421537910563864,0.006798998557480118,0.36379852294922,0.0,0.0,-5.0,0.0,0.0,0.0,0.3341447754974846,0.005389431862857933,4.107040526245859
14/04/2022,16:01:13,39.184629,-0.8880206950707361,13.531519531272352,2.80474853515625,3.3352813720703125,0.044808950275182724,0.23415814340114594,-0.7657504677772522,0.12941107153892517,3.901954174041748,1.4872901439666748,47.64158983446034,-122.14017482198119,124.80242156982422,-1.172076709213008,1.6622053650604203,-24.545802746203066,0.0,0.0,-5.0,0.3659093591423961,0.005901763857134295,-2.525228186184233,0.7237278087194358,0.41159878827386837,0.0066386901334478665,0.5952514648437512,0.0,0.0,-5.0,0.0,0.0,0.0,0.3659093591423961,0.005901763857134295,2.474771813815767
14/04/2022,16:01:13,39.351623,-0.8814831099007279,13.567669720388949,2.6673736572265625,3.3352813720703125,0.036791570484638214,0.19173674285411835,-1.1609519720077515,0.12941107153892517,3.901954174041748,1.4872901439666748,47.64159015788235,-122.14017472994044,124.66390991210938,-0.9875214995877277,1.3943495280416174,-24.540162985096906,0.0,0.0,-5.0,0.32936079016627534,0.005312270809131641,-1.9019349876939096,0.8368918563788382,0.4044799874627525,0.006523870765526851,0.7326263427734387,0.0,0.0,-5.0,0.0,0.0,0.0,0.32936079016627534,0.005312270809131641,3.0980650123060904
14/04/2022,16:01:14,39.494626,-0.8769212473416701,13.592856676317751,2.478302001953125,3.3352813720703125,0.03106456808745861,0.1616382598876953,-1.3982856273651123,0.12941107153892517,3.901954174041748,1.4872901439666748,47.641590383232966,-122.14017466572211,124.47411346435547,-0.7912839082877627,1.11544553113288,-24.535528665501555,0.0,0.0,-4.0,0.6136850117164692,0.00989814535026411,1.450726130099956,1.004579264804374,0.3995131757736487,0.006443760899575324,0.9216979980468762,0.0,0.0,-4.0,0.15962065857199695,0.0025745267511613785,0.3682532901895785,0.4540643531444722,0.0073236185991027315,5.082472839910378
14/04/2022,16:01:14,39.674625,-0.8725934487301856,13.616700160317123,2.3015365600585938,3.3352813720703125,0.021340202540159225,0.1108182966709137,-0.4302903413772583,0.12941107153892517,3.901954174041748,1.4872901439666748,47.6415905959338,-122.1401746049781,124.30021667480469,-0.5164946925230739,0.7257980220688803,-24.530734274968527,0.0,0.0,-4.0,0.5875101089622576,0.009475969499388896,-1.122480679598222,1.1672750835467298,0.39480203042371187,0.00636777468425187,1.0984634399414075,0.0,0.0,-4.0,0.14958229124217942,0.002412617600679727,0.4161849877414748,0.4379278177200782,0.0070633518987091685,2.461334332660303
14/04/2022,16:01:14,39.848623,-0.8694436872610822,13.634040507487953,2.2181854248046875,3.3352813720703125,0.017861947417259216,0.09280841797590256,-0.8621536493301392,0.12941107153892517,3.901954174041748,1.4872901439666748,47.64159075114407,-122.14017456062992,124.21561431884766,-0.43289795716767754,0.6079766080998937,-24.529536347024596,0.0,0.0,-3.0,0.4928761942713978,0.007949616036633323,0.3115397109306204,1.2449492907993176,0.3913734778588679,0.006312475449334443,1.1818145751953137,0.0,0.0,-3.0,0.14365231566525927,0.002316972833309849,0.43378105573873843,0.3492238786061385,0.005632643203323474,2.877758655191882
14/04/2022,16:01:14,40.021627,-0.8669341604690999,13.64786662440747,2.1077880859375,3.3352813720703125,0.012768149375915527,0.06635382026433945,-0.1856762170791626,0.12941107153892517,3.901954174041748,1.4872901439666748,47.641590874554055,-122.14017452538452,124.10722351074219,-0.3324239459496143,0.46694363371164016,-24.528454318968308,0.0,0.0,-4.0,0.6634040715266596,0.010700065669782838,-1.1173248167353966,1.3494047812386836,0.3886416598517443,0.006268413868575351,1.2922119140625012,0.0,0.0,-4.0,0.13607363288208488,0.0021947360142267657,0.4524372648754984,0.5273304386445747,0.008505329655556074,2.430237918389105
14/04/2022,16:01:14,40.158625,-0.8653344715712592,13.656679702922702,2.0628433227539062,3.3352813720703125,0.011068771593272686,0.05754879117012024,-0.6397920846939087,0.12941107153892517,3.901954174041748,1.4872901439666748,47.64159095344892,-122.14017450285634,124.06094360351562,-0.2837785108188961,0.39859104633674614,-24.52803466433506,0.0,0.0,-4.0,0.4943160618667408,0.007972839707527032,-0.9340783214555293,1.3920196643530598,0.38690027753932715,0.0062403270570854374,1.337156677246095,0.0,0.0,-4.0,0.13272454583473867,0.0021407184812052963,0.45870608784801553,0.3615915160320022,0.0058321212263217365,2.6072155906964554
14/04/2022,16:01:14,40.305629,-0.8640166065888479,13.663941712118685,1.9897003173828125,3.3352813720703125,0.008434235118329525,0.04385104402899742,-0.19085556268692017,0.12941107153892517,3.901954174041748,1.4872901439666748,47.64159101828705,-122.14017448434572,123.9891128540039,-0.22433337740185233,0.31544154985540557,-24.52762902905165,0.0,0.0,-5.0,0.6290472894518515,0.010145924023414266,-2.0860484329384232,1.462042277304171,0.385465656586781,0.00621718800946347,1.4102996826171887,0.0,0.0,-5.0,0.1277197939736248,0.0020599966769937034,0.467287245509469,0.5013274954782267,0.008085927346420562,2.4466643215521073
14/04/2022,16:01:15,40.574626,-0.862172665190883,13.674108512699604,1.8317413330078125,3.3352813720703125,0.0066144950687885284,0.034423161298036575,-1.2221959829330444,0.12941107153892517,3.901954174041748,1.4872901439666748,47.64159110931056,-122.1401744583716,123.82809448242188,-0.18067337739577183,0.25403280424683017,-24.527376578576412,0.0,0.0,-5.0,0.7293231406119003,0.011763276461477802,2.1322515416538863,1.6144701090910474,0.3834582567506837,0.006184810592751333,1.5682586669921887,0.0,0.0,-5.0,0.1173956783806242,0.001893478683557956,0.48012211719708436,0.611927462231276,0.009869797777919846,6.652129424456802
14/04/2022,16:01:15,40.721642,-0.8613124106777832,13.678848769515753,1.6627731323242188,3.3352813720703125,0.004861326888203621,0.025247251614928246,-0.5941669344902039,0.12941107153892517,3.901954174041748,1.4872901439666748,47.6415911509466,-122.14017444648458,123.66277313232422,-0.11312413326100895,0.15841202214290515,-24.52714665436874,0.0,0.0,0.0,0.47654677520781935,0.007686238309800366,3.3913547081414914,1.7788530504096822,0.3825217901002398,0.0061697062919385814,1.7372268676757825,0.0,0.0,0.0,0.10728664862373832,0.0017304298165116924,0.48724348090917396,0.369260126584081,0.005955808493288673,2.9041112272323173
14/04/2022,16:01:15,40.898621,-0.8606507671065629,13.682499351911247,1.6560211181640625,3.3352813720703125,0.0034050026442855597,0.017724309116601944,0.5536490678787231,0.12941107153892517,3.901954174041748,1.4872901439666748,47.64159118420595,-122.14017443700115,123.65764617919922,-0.07137961228540816,0.10006186227224734,-24.527057096382478,0.0,0.0,0.0,0.10671793610981122,0.001721257034028849,0.4874623319349464,1.785293424700202,0.381801453560242,0.006158087960647762,1.7439788818359387,0.0,0.0,0.0,0.10671793610981122,0.001721257034028849,0.4874623319349464,0.0,0.0,0.0
14/04/2022,16:01:15,41.073626,-0.8601454505696893,13.68529096711427,1.7549972534179688,3.3352813720703125,0.0028144430834800005,0.014680393971502781,0.37381237745285034,0.12941107153892517,3.901954174041748,1.4872901439666748,47.64159120917977,-122.14017442988572,123.7561264038086,-0.06531427668763437,0.09180163098816574,-24.527048997638563,0.0,0.0,0.0,0.11220700862440312,0.0018097904616835537,0.484144866111527,1.6886161102654893,0.38125125410371935,0.006149213775865192,1.6450027465820325,0.0,0.0,0.0,0.11220700862440312,0.0018097904616835537,0.484144866111527,0.0,0.0,0.0
14/04/2022,16:01:15,41.244141,-0.8597291075857356,13.687596507370472,1.81085205078125,3.3352813720703125,0.002249347046017647,0.011743634939193726,0.2825879454612732,0.12941107153892517,3.901954174041748,1.4872901439666748,47.64159122980239,-122.14017442402589,123.81169891357422,-0.056664267840869094,0.07976678976103718,-24.527036743748933,0.90976548404363,0.41512258917440237,0.0,1.757197991517263,0.42879085542397555,2.4755287604028346,1.6341468491655515,0.3807978429395575,0.006141900692572477,1.5891479492187512,0.90976548404363,0.41512258917440237,0.0,0.1153716363985875,0.001860832845138196,0.48146963744731086,0.7320608710750456,0.011807433404434969,1.994059122955524
14/04/2022,16:01:16,41.421142,-0.8557787702884525,13.689441666938365,1.9074859619140625,3.3352813720703125,0.08257261663675308,0.008708896115422249,1.0670658349990845,0.12941107153892517,3.901954174041748,1.4872901439666748,47.641591245930506,-122.14017436801419,123.91065216064453,3.284741779471359,1.5820570782695471,-24.48864521773615,1.90110450886488,3.0636255721568886,0.0,2.0211065292851953,3.0655610886152806,0.4753072551463924,1.5393594400456743,0.3768187801400866,0.006077722260323881,1.4925140380859387,1.90110450886488,3.0636255721568886,0.0,0.12000202042031556,0.0019355164583921558,0.4753072551463924,0.0,0.0,-0.0
14/04/2022,16:01:16,41.591143,-0.829403442912735,13.695482854731381,2.1000900268554688,3.3352813720703125,0.25603267550468445,0.13661989569664001,1.0418146848678589,0.25603267550468445,3.901954174041748,1.4872901439666748,47.64159130099799,-122.14017400912222,124.10320281982422,13.220807830155408,-6.60656684995364,-26.267038939610927,1.8051127393815292,3.1211485062589555,0.0,1.927959817908263,3.1231299107513215,0.4557979765450988,1.3463079233317592,0.35035289923620494,0.005650853213484908,1.2999099731445325,1.8051127393815292,3.1211485062589555,0.0,0.12284707852673403,0.0019814044923658824,0.4557979765450988,-0.0,-0.0,-0.0
14/04/2022,16:01:16,41.767141,-0.76328299427405,13.75497722811997,2.284698486328125,3.3352813720703125,0.5052112340927124,0.5755302309989929,1.0528085231781006,0.5052112340927124,3.901954174041748,1.4872901439666748,47.64159184147211,-122.14017311011528,124.2878646850586,13.360871859961845,-11.394531497024941,-29.09485049597153,1.648934092900158,3.2064024010207346,0.0,0.3857577490627653,3.1860285890233535,-1.39640706100048,1.1507266155341682,0.28329030997295457,0.004569198547949682,1.1153015136718762,1.648934092900158,3.2064024010207346,0.0,0.10801189919376225,0.0017421274063505472,0.4252381053092776,-1.3711882430311548,-0.022115939403731397,-1.8216451663097575
14/04/2022,16:01:16,41.946139,-0.6669032000936568,13.885833084583282,2.4168930053710938,3.3352813720703125,0.5697383880615234,0.8690642714500427,0.2933005690574646,0.5697383880615234,3.901954174041748,1.4872901439666748,47.641593017091516,-122.14017180512803,124.41779327392578,8.623680955050512,-14.5577247090657,-31.1912429262552,1.8680848922537083,4.637915354481304,0.0,0.00965641772849457,4.607940701666374,1.1731398732116114,1.0003343113684753,0.18482555264391498,0.0029810573007065244,0.9831069946289075,1.8680848922537083,4.637915354481304,0.0,0.07392403799992171,0.0011923231935464117,0.39320990950289403,-1.9323525125251355,-0.031166976008476427,0.7799299637087175
14/04/2022,16:01:16,42.117139,-0.5738435451639816,14.086257514543831,2.4861831665039062,3.3352813720703125,0.499581903219223,1.543743371963501,0.8391228318214417,0.5697383880615234,3.901954174041748,1.4872901439666748,47.64159478761405,-122.1401705595005,124.4861831665039,6.60154255757543,-15.277145115548263,-32.33669218817819,1.7749972086903019,4.674332562959298,0.0,-0.0002670038246641582,4.64569926920905,-1.4134147493505602,0.9180990229629393,0.08855828913098257,0.0014283595021087336,0.913816833496095,1.7749972086903019,4.674332562959298,0.0,0.0,0.0,0.0,-1.775264212514966,-0.02863329375024849,-1.4134147493505602
14/04/2022,16:01:16,42.290178,-0.49601648037787527,14.390519265085459,2.6090621948242188,3.3352813720703125,0.44093576073646545,1.8805776834487915,0.2767042815685272,0.5697383880615234,3.901954174041748,1.4872901439666748,47.64159751721193,-122.14016947853345,124.60906219482422,6.473137049217206,-15.684467530105783,-33.79810402034542,1.655207157937228,4.718081099802478,0.0,1.655207157937228,4.718081099802478,0.0,0.7909594098364967,0.005845294183941252,9.427893844993207e-05,0.7909378051757825,1.655207157937228,4.718081099802478,0.0,0.0,0.0,0.0,-0.0,-0.0,0.0
14/04/2022,16:01:17,42.45914,-0.4309519662056118,14.7468250580132,2.6648178100585938,3.3352813720703125,0.3975509703159332,2.404099464416504,0.5463602542877197,0.5697383880615234,3.901954174041748,1.4872901439666748,47.641600781004556,-122.14016854388832,124.66645050048828,8.61342912500383,-10.903702007794626,-34.69450156432212,1.5811928051720927,4.743398498215389,0.0,-0.2919700380699455,4.7131861942921285,-0.7144718280250166,0.7380461704656568,-0.06494767113197564,-0.0010475430827767696,0.7351821899414075,1.5811928051720927,4.743398498215389,0.0,-0.0,-0.0,0.0,-1.8731628432420382,-0.03021230392326079,-0.7144718280250166
14/04/2022,16:01:17,42.60914,-0.3737382641993463,15.130420253612101,2.7410430908203125,3.3352813720703125,0.4112952649593353,2.705066680908203,0.44118601083755493,0.5697383880615234,3.901954174041748,1.4872901439666748,47.64160423453045,-122.14016772505083,124.74237060546875,5.992643841925368,-9.623402085237005,-35.96095501900356,1.4759680417302998,4.777187283307073,0.0,-0.5642015200952157,4.744281322632468,-0.43914105830482664,0.6713401298272644,-0.12833190328781874,-0.0020698694078653546,0.6589569091796887,1.4759680417302998,4.777187283307073,0.0,-0.0,-0.0,0.0,-2.0401695618255156,-0.03290596067460529,-0.43914105830482664
14/04/2022,16:01:17,42.782139,-0.31168040458578616,15.616109002381563,2.8055572509765625,3.3352813720703125,0.36870548129081726,2.9750611782073975,0.3149421215057373,0.5697383880615234,3.901954174041748,1.4872901439666748,47.64160860523507,-122.14016682891189,124.80650329589844,3.7951416534863416,-8.315531192656598,-37.5399594010574,1.3437705807450429,4.816044084757129,0.0,-0.7013942554020614,4.783057555141842,-0.07027909753539502,0.6266240761970286,-0.19820527514171515,-0.003196859276481945,0.5944427490234387,1.3437705807450429,4.816044084757129,0.0,-0.0,-0.0,0.0,-2.045164836147104,-0.03298652961528685,-0.07027909753539502
14/04/2022,16:01:17,42.957139,-0.25938197155483067,16.142987351864576,2.8513412475585938,3.3352813720703125,0.3072354793548584,3.1887049674987793,0.22251194715499878,0.5697383880615234,3.901954174041748,1.4872901439666748,47.6416133459873,-122.14016605737731,124.85201263427734,2.7123601386617477,-6.812109885571629,-39.15558725061746,1.2074514432638057,4.85201618012143,-1.0,1.2074514432638057,4.85201618012143,-1.0,0.6067269482251634,-0.25898593424156946,-0.00417719248776649,0.5486587524414075,1.2074514432638057,4.85201618012143,-1.0,-0.0,-0.0,0.0,-0.0,-0.0,0.0
14/04/2022,16:01:17,43.135143,-0.21398009289987385,16.71805498097092,2.8429031372070312,3.3352813720703125,0.2941255569458008,3.298334836959839,-0.47297054529190063,0.5697383880615234,3.901954174041748,1.4872901439666748,47.64161851817296,-122.14016536863552,124.84150695800781,5.374474228939159,-3.1518594513528053,-41.001599204745894,1.0505247924610073,4.888394180139809,-1.0,-0.34007622946414306,4.865965131399078,1.0732966964714596,0.6393419464667621,-0.31364887690847376,-0.0050588528533630495,0.55709686279297,1.0505247924610073,4.888394180139809,-1.0,-0.0,-0.0,0.0,-1.3906010219251503,-0.022429048740730595,2.0732966964714596
14/04/2022,16:01:17,43.308138,-0.16496606054715812,17.304593422450125,2.7678298950195312,3.3352813720703125,0.33314138650894165,3.4718520641326904,-0.04414915293455124,0.5697383880615234,3.901954174041748,1.4872901439666748,47.64162370134083,-122.14016464131369,124.76782989501953,2.689844444738243,-3.1868574694517604,-44.287109493382964,0.7686366354330088,4.9405665386340285,-1.0,-1.2373671381985276,4.908211639059316,0.2565492740915629,0.7335798697620546,-0.3721079988162892,-0.006001741916392689,0.63217010498047,0.7686366354330088,4.9405665386340285,-1.0,-0.0,-0.0,0.0,-2.0060037736315364,-0.03235489957471205,1.256549274091563
14/04/2022,16:01:18,43.472141,-0.11963604192715138,17.90902197547257,2.799896240234375,3.3352813720703125,0.2416476458311081,3.5920186042785645,0.28574851155281067,0.5697383880615234,3.901954174041748,1.4872901439666748,47.64162923148454,-122.14016393891312,124.80075073242188,-0.9561080806263057,-6.276601684920979,-49.57341767964053,0.31017999197576485,4.990369562725581,-1.0,-1.7277757437041061,4.957499308924295,-0.9431882708140255,0.736646707778996,-0.42717254026302454,-0.006889879681661881,0.6001037597656262,0.31017999197576485,4.990369562725581,-1.0,-0.0,-0.0,0.0,-2.037955735679871,-0.03287025380128532,0.056811729185974595
14/04/2022,16:01:18,43.613141,-0.10160487005487084,18.40868104994297,2.8414688110351562,3.3352813720703125,0.08838248252868652,3.657322406768799,0.30363911390304565,0.5697383880615234,3.901954174041748,1.4872901439666748,47.641633726771616,-122.14016363123044,124.84237670898438,-1.5889365931162198,-7.250083906097161,-55.064743297088135,0.6510024611865071,4.4244994966130475,-1.0,0.6510024611865071,4.4244994966130475,-1.0,0.7193410070171298,-0.45325594398063473,-0.007310579741623968,0.558531188964845,0.6510024611865071,4.4244994966130475,-1.0,-0.0,-0.0,0.0,-0.0,-0.0,-0.0
14/04/2022,16:01:18,43.75514,-0.10230086126830429,18.915049680508673,2.856781005859375,3.3352813720703125,8.732778951525688e-06,3.6875739097595215,-0.21901050209999084,0.5697383880615234,3.901954174041748,1.4872901439666748,47.641638283314265,-122.14016356932277,124.85614776611328,0.5127638388593438,-4.573135467541046,-61.20956907903266,0.1736550019643064,4.468763133160313,-1.0,-0.9359512790766822,4.450866257659646,0.8783066526229013,0.7123270654003673,-0.46072524563749695,-0.007431052348994882,0.5432189941406262,0.1736550019643064,4.468763133160313,-1.0,-0.0,-0.0,0.0,-1.1096062810409886,-0.017896875500666598,1.8783066526229013
14/04/2022,16:01:18,43.893146,-0.11289755895268172,19.437614786438644,2.8301162719726562,3.3352813720703125,-0.06784668564796448,3.743657350540161,-0.012231978587806225,0.5697383880615234,3.901954174041748,1.4872901439666748,47.64164298726364,-122.140163635958,124.83007049560547,1.5203669347330968,-2.0463563310905575,-67.75764251117486,-0.3370813694460535,4.459414328179472,-1.0,-0.3370813694460535,4.459414328179472,-1.0,0.7315033978026105,-0.4585575813121163,-0.007396090021163815,0.569883728027345,-0.3370813694460535,4.459414328179472,-1.0,-0.0,-0.0,0.0,-0.0,-0.0,0.0
14/04/2022,16:01:18,44.037145,-0.12971716676838696,19.966223016381264,2.80419921875,3.3352813720703125,-0.08284585922956467,3.7631330490112305,-0.5152420401573181,0.5697383880615234,3.901954174041748,1.4872901439666748,47.64164774522526,-122.14016378243728,124.80267333984375,1.7977151120051573,-0.7304636522756144,-74.51136606216322,-0.8591780537122176,4.388828211723408,-1.0,-1.4605676270045007,4.379128379896107,1.4090776795057058,0.746840576205056,-0.4502660696899763,-0.007262355962740941,0.5958007812500012,-0.8591780537122176,4.388828211723408,-1.0,-0.0,-0.0,0.0,-0.6013895732922832,-0.009699831827300366,2.409077679505706
14/04/2022,16:01:18,44.180141,-0.14949547697324306,20.509377208538353,2.7383575439453125,3.3352813720703125,-0.13347475230693817,3.803159236907959,-0.06877592206001282,0.5697383880615234,3.901954174041748,1.4872901439666748,47.6416526348824,-122.14016396751936,124.73812103271484,0.9908790707665468,-3.144287008586648,-81.62142257465509,-1.3958012272434002,4.2487338036203,-1.0,-1.3958012272434002,4.2487338036203,-1.0,0.7942055959185975,-0.4392511764484347,-0.007084696394333179,0.6616424560546887,-1.3958012272434002,4.2487338036203,-1.0,-0.0,-0.0,0.0,-0.0,-0.0,0.0
14/04/2022,16:01:18,44.329141,-0.18218096520286053,21.080119493417442,2.7268295288085938,3.3352813720703125,-0.20736299455165863,3.81569766998291,-0.4001089930534363,0.5697383880615234,3.901954174041748,1.4872901439666748,47.64165767047417,-122.14016431308461,124.7268295288086,1.2517612006219845,-4.718015523483175,-88.85587009357936,0.0,0.0,0.0,-0.20406430660745464,-0.0032913597839915928,2.4205445211330225,0.7912485267028252,-0.4157773155662121,-0.006706085734940359,0.6731704711914075,0.0,0.0,0.0,-0.0,-0.0,0.0,-0.20406430660745464,-0.0032913597839915928,2.4205445211330225
14/04/2022,16:01:19,44.505143,-0.23360214510466903,21.73377820570022,2.6483612060546875,3.3352813720703125,-0.2884939908981323,3.595137596130371,-0.20211906731128693,0.5697383880615234,3.901954174041748,1.4872901439666748,47.64166355640033,-122.14016490111098,124.64836120605469,-12.563029946969774,-1.629649634432673,-95.88915264378703,0.0,0.0,0.0,0.16340564661560156,0.0026355749454158753,2.196593217630375,0.8399730277441596,-0.3749096496673773,-0.006046929833345871,0.7516387939453137,0.0,0.0,0.0,-0.0,-0.0,0.0,0.16340564661560156,0.0026355749454158753,2.196593217630375
14/04/2022,16:01:19,44.657141,-0.2816579316277057,22.232071577571332,2.6650924682617188,3.3352813720703125,-0.2683694362640381,3.0166726112365723,0.47019580006599426,0.5697383880615234,3.901954174041748,1.4872901439666748,47.64166812567087,-122.14016547802473,124.6664810180664,-15.880729705195586,-1.6460859622575308,-99.36908570553257,0.0,0.0,0.0,0.0,0.0,0.0,0.8076367453762711,-0.3349012610227625,-0.005401633242303916,0.7349075317382825,0.0,0.0,0.0,-0.0,-0.0,0.0,0.0,0.0,-0.0
14/04/2022,16:01:19,44.840144,-0.33047573920339346,22.707706403918564,2.8175277709960938,3.3352813720703125,-0.21308477222919464,2.290123224258423,1.0982344150543213,0.5697383880615234,3.901954174041748,1.4872901439666748,47.64167239007066,-122.14016605546514,124.8208236694336,-17.081673184952045,-2.106483987806433,-101.54213596847632,0.0,0.0,-5.0,0.08942517856237021,0.0014423415897095104,-7.4698600086403175,0.6523761375673208,-0.2937656841469718,-0.0047381561959234375,0.5824722290039075,0.0,0.0,-5.0,-0.0,-0.0,0.0,0.08942517856237021,0.0014423415897095104,-2.469860008640317
14/04/2022,16:01:19,44.991142,-0.3638253549579531,23.02518364507705,2.95233154296875,3.3352813720703125,-0.18489572405815125,1.9681100845336914,0.5263406038284302,0.5697383880615234,3.901954174041748,1.4872901439666748,47.641675240968006,-122.14016645141929,124.95393371582031,-24.507641445282,-3.1793475155726947,-101.90721637837098,0.0,0.0,-5.0,0.0,0.0,-5.0,0.520518023615033,-0.2655440108027062,-0.004282967916175551,0.44766845703125124,0.0,0.0,-5.0,-0.0,-0.0,0.0,0.0,0.0,-0.0
14/04/2022,16:01:19,45.172139,-0.39868599770125,23.353602826595306,2.96136474609375,3.3352813720703125,-0.14923173189163208,1.558943510055542,-0.45648372173309326,0.5697383880615234,3.901954174041748,1.4872901439666748,47.64167814600788,-122.14016685959862,124.96136474609375,-24.765868758350027,-3.062001342943927,-101.49616360880427,0.0,0.0,-5.0,0.021199055330697887,0.00034192024726445447,-2.636360093841408,0.498102174284462,-0.23598814046431826,-0.0038062603300730302,0.43863525390625124,0.0,0.0,-5.0,-0.0,-0.0,0.0,0.021199055330697887,0.00034192024726445447,2.363639906158592
14/04/2022,16:01:19,45.324144,-0.421580798458308,23.565191473811865,2.8381805419921875,3.3352813720703125,-0.12474238127470016,1.2757399082183838,-1.2050949335098267,0.5697383880615234,3.901954174041748,1.4872901439666748,47.6416800863445,-122.1401671381389,124.83458709716797,-16.911044768457018,-1.8911783186628734,-101.22426553042,0.0,0.0,0.0,-0.008197913917960003,-0.00013222441803796027,2.959183048052267,0.6021049462022908,-0.2165111266846813,-0.0034921149465283463,0.5618194580078137,0.0,0.0,0.0,-0.0,-0.0,0.0,-0.008197913917960003,-0.00013222441803796027,2.959183048052267
14/04/2022,16:01:20,45.50914,-0.4429254689021036,23.757201111875474,2.6487960815429688,3.3352813720703125,-0.07970849424600601,0.7804058194160461,-0.483794242143631,0.5697383880615234,3.901954174041748,1.4872901439666748,47.641681781489545,-122.14016738893854,124.64879608154297,-7.237380182715353,-0.7155462552886694,-101.03630642588382,0.0,0.0,0.0,-0.09270299589306723,-0.0014952096111819347,2.487294965360954,0.7769348785803186,-0.19826813172343127,-0.003197873092311454,0.7512039184570325,0.0,0.0,0.0,-0.0,-0.0,0.0,-0.09270299589306723,-0.0014952096111819347,2.487294965360954
14/04/2022,16:01:20,45.699142,-0.4562904059421271,23.873503527604043,2.6663436889648438,3.3352813720703125,-0.05135651305317879,0.4911525845527649,0.7181175947189331,0.5697383880615234,3.901954174041748,1.4872901439666748,47.64168282916528,-122.1401675496851,124.66634368896484,-4.115351999066994,-0.36860551132638925,-100.86818403678468,2.9461906941966434,0.5656504162723661,0.0,2.9461906941966434,0.5656504162723661,0.0,0.7570655087930016,-0.1867820281586252,-0.0030126133573986635,0.7336563110351575,2.9461906941966434,0.5656504162723661,0.0,-0.0,-0.0,0.0,-0.0,-0.0,-0.0
14/04/2022,16:01:20,45.87414,-0.46188960841391236,23.95028697513044,2.7923812866210938,3.3352813720703125,0.04561055824160576,0.3900497555732727,0.5330333113670349,0.5697383880615234,3.901954174041748,1.4872901439666748,47.641683531063705,-122.14016761114952,124.79398345947266,-4.903713375571556,7.709202208243014,-101.39135863149403,4.901504871091825,0.9875474665367283,0.0,4.901504871091825,0.9875474665367283,0.0,0.6344187031467349,-0.1824224025266601,-0.002942296814946843,0.6076187133789075,4.901504871091825,0.9875474665367283,0.0,-0.0,-0.0,0.0,-0.0,-0.0,-0.0
14/04/2022,16:01:20,46.057145,-0.4102004204178229,24.011186624877155,2.9346542358398438,3.3352813720703125,0.6679455041885376,0.26373425126075745,1.1945704221725464,0.6679455041885376,3.901954174041748,1.4872901439666748,47.64168406326529,-122.14016691579916,124.93465423583984,-6.324404963265022,18.077373139786022,-102.36875152734389,4.883946236507878,1.0710131459980001,0.0,3.260759498416662,1.0448327147384646,-1.9774689345348317,0.5213671746382681,-0.235080144253907,-0.0037916152299040107,0.4653457641601575,4.883946236507878,1.0710131459980001,0.0,-0.0,-0.0,0.0,-1.623186738091216,-0.02618043125953541,-1.9774689345348317
14/04/2022,16:01:20,46.230143,-0.25776548497378826,24.055685284547508,3.1032333374023438,3.3352813720703125,1.0263828039169312,0.2504803538322449,0.5218501091003418,1.0263828039169312,3.901954174041748,1.4872901439666748,47.64168445516011,-122.14016483902057,125.10482025146484,-1.53149152506766,18.100670331069452,-102.38142014239398,4.8837093064305375,1.0720930044934338,0.0,2.408714226300912,1.0321737290074722,-0.7550152775171269,0.4886751835949952,-0.38819296837521544,-0.006261176909280408,0.2967666625976575,4.8837093064305375,1.0720930044934338,0.0,-0.0,-0.0,0.0,-2.4749950801296254,-0.03991927548596171,-0.7550152775171269
14/04/2022,16:01:20,46.380139,-0.0890931038884446,24.097682267427444,3.154510498046875,3.3352813720703125,1.3320508003234863,0.32049688696861267,0.27576592564582825,1.3320508003234863,3.901954174041748,1.4872901439666748,47.641684809405284,-122.14016262838364,125.15451049804688,1.4309149561088321,11.654986450787757,-102.37355629488323,4.8838564052294995,1.0714227051443277,0.0,1.4322475067721063,1.0157515938788844,-0.326913943259326,0.6092214078924957,-0.5574986760034644,-0.008991914129090617,0.24548950195312624,4.8838564052294995,1.0714227051443277,0.0,-0.0,-0.0,0.0,-3.451608898457393,-0.05567111126544338,-0.326913943259326
14/04/2022,16:01:21,46.557658,0.16814996697939932,24.167153237387538,3.177947998046875,3.3352813720703125,1.4958800077438354,0.4298669397830963,0.047166917473077774,1.4958800077438354,3.901954174041748,1.4872901439666748,47.641685408750725,-122.14015919365525,125.17794799804688,3.5480957080265254,2.6856365033210876,-102.72788365215989,4.877137188678436,1.1016046672058912,-2.0,-0.6496218498796118,1.0124633923904351,-1.8152488783187681,0.8455777850152127,-0.815795051700088,-0.013157984704839976,0.22205200195312624,4.877137188678436,1.1016046672058912,-2.0,-0.0,-0.0,0.0,-5.526759038558048,-0.08914127481545601,0.1847511216812318
14/04/2022,16:01:21,46.742188,0.4406463998602703,24.256084035150707,3.1337661743164062,3.3352813720703125,1.4624041318893433,0.5022517442703247,-0.6668903231620789,1.4958800077438354,3.901954174041748,1.4872901439666748,47.641686181649085,-122.14015555299797,125.1337661743164,5.065085347559499,-4.967744634832955,-103.2631936896741,3.6638812875482243,1.891024566406784,-5.0,-5.005494046065987,1.7511959319936514,-1.6220657083982464,1.1218451318633087,-1.0896546089056496,-0.017575074337187857,0.266233825683595,3.6638812875482243,1.891024566406784,-5.0,-0.4198765892855535,-0.006772203052992782,0.1025878748796736,-8.249498744328658,-0.13305643136013964,3.2753464167220803
14/04/2022,16:01:21,46.923191,0.6678955426905304,24.3608540603891,3.0283432006835938,3.3352813720703125,0.8533496260643005,0.6613338589668274,-0.18991099298000336,1.4958800077438354,3.901954174041748,1.4872901439666748,47.64168711935895,-122.14015247782949,125.02774810791016,9.491653207475082,-21.82649748929368,-105.44667527523877,2.6252948400674607,1.762903004341182,-5.0,-0.9737894559702029,1.704853257630892,-4.096026212508428,1.3700777664313064,-1.3185340488547523,-0.02126667820733985,0.3716567993164075,2.6252948400674607,1.762903004341182,-5.0,-0.4571344044088702,-0.0073731355549835585,0.12885303170409712,-3.1419498916287933,-0.05067661115530653,0.7751207557874744
14/04/2022,16:01:21,47.074189,0.7495226095197722,24.467074592597783,2.9942092895507812,3.3352813720703125,0.37559762597084045,0.7274790406227112,-0.5661600232124329,1.4958800077438354,3.901954174041748,1.4872901439666748,47.6416880686505,-122.14015139490594,124.9925308227539,7.4622257025363234,-17.29011682796993,-104.66669657729803,2.395853915588461,2.694417193969679,-5.0,-0.23080180359261537,2.652051779144178,-3.3376739092237777,1.4595781100325216,-1.4018526750936455,-0.022610527017636883,0.40579071044922,2.395853915588461,2.694417193969679,-5.0,-0.46506618686656576,-0.007501067530105049,0.1346215203119591,-2.1615895323145105,-0.03486434729539617,1.5277045704642633
14/04/2022,16:01:21,47.399193,0.8098795327823609,24.72008938435465,2.5732803344726562,3.3352813720703125,0.07929713279008865,0.8946523070335388,-2.07609486579895,1.4958800077438354,3.901954174041748,1.4872901439666748,47.641690343417295,-122.14015056598828,124.56707763671875,8.606105042177042,-2.674072185393486,-102.48766727618813,2.4965687882174397,2.601373538286746,-5.0,-4.116441370013922,2.494712084121704,13.851605303438271,1.6834438925244344,-1.4662737232367706,-0.023649576181242082,0.826719665527345,2.4965687882174397,2.601373538286746,-5.0,-0.4327353243309337,-0.006979602005338775,0.24398636961385947,-6.180274833900428,-0.09968185215970321,18.607618933824412
14/04/2022,16:01:22,47.561188,0.8078957564430311,24.883651420474052,2.2234268188476562,3.3352813720703125,-0.17019261419773102,1.057733178138733,-1.7164266109466553,1.4958800077438354,3.901954174041748,1.4872901439666748,47.64169179106493,-122.1401505714477,124.22342681884766,4.625636450273896,-8.294892346574178,-103.12596405391469,0.0,0.0,0.0,-3.5489314423456695,-0.05724082971525715,12.857629519634491,1.8806279908500303,-1.4669278740796887,-0.023660127001289055,1.176573181152345,0.0,0.0,0.0,-0.38987743154892096,-0.006288345670144885,0.3127074875339783,-3.1590540107967486,-0.05095248404511227,12.544922032100512
14/04/2022,16:01:22,47.74219,0.7403298814315349,25.07642272580415,1.9941253662109375,3.3352813720703125,-0.5495539903640747,1.0419645309448242,-0.7580669522285461,1.4958800077438354,3.901954174041748,1.4872901439666748,47.641693560232646,-122.14015146430309,123.9918212890625,-0.8047101889948395,-7.198567285890184,-103.14199196405353,0.0,0.0,0.0,-0.6875925325293104,-0.011090202137572757,3.2518796114068986,1.9859425248931628,-1.4024879774311254,-0.022620773829533647,1.4058746337890637,0.0,0.0,0.0,-0.35310367260066716,-0.005695220525817053,0.3539563293200601,-0.3344888599286432,-0.005394981611755704,2.8979232820868384
14/04/2022,16:01:22,47.920188,0.6201447759522125,25.2512370031327,1.9183120727539062,3.3352813720703125,-0.6972910165786743,0.9005641341209412,-0.0868339091539383,1.4958800077438354,3.901954174041748,1.4872901439666748,47.641695116868945,-122.14015301655814,123.9183120727539,-4.108905829090041,-0.18015648635432144,-102.16927413675,0.0,0.0,0.0,-0.2078496260528957,-0.003352413323444417,2.854670832360547,1.9614910043977725,-1.285152981262557,-0.020728273891332805,1.481687927246095,0.0,0.0,0.0,-0.3275921990538376,-0.005283745146029954,0.37768998202938897,0.11974257300094189,0.0019313318225855371,2.476980850331158
14/04/2022,16:01:22,48.076189,0.5184986665844917,25.373232890851796,1.9596405029296875,3.3352813720703125,-0.6200619339942932,0.7325135469436646,0.7004309296607971,1.4958800077438354,3.901954174041748,1.4872901439666748,47.64169622457578,-122.14015435168103,123.95964050292969,-4.6822077917114155,2.101441761316046,-98.7619871543224,0.0,0.0,0.0,-0.3175743324400622,-0.005122166652258327,0.3858464983233586,1.8655863584504562,-1.1855004716732374,-0.019120975349565583,1.4403594970703137,0.0,0.0,0.0,-0.3175743324400622,-0.005122166652258327,0.3858464983233586,0.0,0.0,0.0
14/04/2022,16:01:22,48.254191,0.413125759921968,25.492618640884757,2.0773544311523438,3.3352813720703125,-0.5349121689796448,0.6151695251464844,0.44982069730758667,1.4958800077438354,3.901954174041748,1.4872901439666748,47.6416973257688,-122.14015575823035,124.07870483398438,-4.7421238061561,3.2114526608290976,-94.57868651578698,0.0,0.0,0.0,-0.3150268781779424,-0.005081078680290157,0.3850629221282911,1.7089742919667843,-1.0820800460012743,-0.01745290396776511,1.3226455688476575,0.0,0.0,0.0,-0.3150268781779424,-0.005081078680290157,0.3850629221282911,-0.0,-0.0,0.0
14/04/2022,16:01:23,48.433189,0.3258834397420287,25.589816009625793,2.1467666625976562,3.3352813720703125,-0.4338770806789398,0.4929385781288147,0.34425288438796997,1.4958800077438354,3.901954174041748,1.4872901439666748,47.641698205649746,-122.14015690122719,124.1478042602539,-4.1154175856554644,3.2103392951002325,-92.4872907154008,0.0,0.0,0.0,-0.3072094454775874,-0.004954991056090696,0.3863854003425707,1.6011621605651716,-0.9964277074031619,-0.01607141463553674,1.253233337402345,0.0,0.0,0.0,-0.3072094454775874,-0.004954991056090696,0.3863854003425707,-0.0,-0.0,0.0
14/04/2022,16:01:23,48.61119,0.2551133221713826,25.667963314801455,2.2020797729492188,3.3352813720703125,-0.3410945236682892,0.3852796256542206,0.2703951299190521,1.4958800077438354,3.901954174041748,1.4872901439666748,47.64169890246752,-122.14015781440824,124.20207977294922,-3.3218263514503747,2.759858387732497,-91.4254659352767,0.0,0.0,0.0,-0.2989789819119567,-0.0048222416437412345,0.38638366413340663,1.5147431924043793,-0.9269361081780194,-0.014950582389968048,1.1979202270507825,0.0,0.0,0.0,-0.2989789819119567,-0.0048222416437412345,0.38638366413340663,-0.0,-0.0,0.0
14/04/2022,16:01:23,48.789191,0.1998526781098917,25.728732488118112,2.24542236328125,3.3352813720703125,-0.26469913125038147,0.29818955063819885,0.21171177923679352,1.4958800077438354,3.901954174041748,1.4872901439666748,47.64169946275651,-122.14015855168861,124.24605560302734,-2.6024137903697855,2.2256906530861125,-90.89963121354413,0.0,0.0,0.0,-0.2912955016206952,-0.004698314542269592,0.3853958268289356,1.4473424232437602,-0.8726697292373853,-0.01407531821350716,1.1545776367187512,0.0,0.0,0.0,-0.2912955016206952,-0.004698314542269592,0.3853958268289356,-0.0,-0.0,0.0
14/04/2022,16:01:23,48.967192,0.1577396533684805,25.774952856823802,2.2789230346679688,3.3352813720703125,-0.20497621595859528,0.2306159883737564,0.1672201156616211,1.4958800077438354,3.901954174041748,1.4872901439666748,47.641699880967025,-122.14015910308814,124.2794189453125,-2.0301975090457973,1.7382040653672801,-90.98046824245594,-0.017111563871709912,0.9998535864724717,-1.0,-0.30177489995869605,0.9952622423420368,-0.6161138741175117,1.3957344195753565,-0.831312953100524,-0.013408273437104157,1.1210769653320325,-0.017111563871709912,0.9998535864724717,-1.0,-0.28466333608698613,-0.0045913441304348945,0.38388612588248827,-0.0,-0.0,0.0
14/04/2022,16:01:23,49.146192,0.1256637064507231,25.810120219364762,2.3050613403320312,3.3352813720703125,-0.15897060930728912,0.17868857085704803,0.13348984718322754,1.4958800077438354,3.901954174041748,1.4872901439666748,47.64170019433177,-122.14015951668088,124.30506134033203,-1.6276919019501657,1.2882061592243432,-93.18837288405976,-0.16685666642244823,2.995356214688061,-1.0,-0.4460178976692169,2.990853614184079,-0.6178298584878508,1.3560077378421873,-0.7998124164362015,-0.01290020026510419,1.09493865966797,-0.16685666642244823,2.995356214688061,-1.0,-0.27916123124676867,-0.004502600503981594,0.3821701415121492,-0.0,-0.0,0.0
14/04/2022,16:01:23,49.32719,0.10037594195455313,25.843379062600434,2.3309402465820312,3.3352813720703125,-0.12145022302865982,0.25895535945892334,0.23720163106918335,1.4958800077438354,3.901954174041748,1.4872901439666748,47.641700503006604,-122.14015985327616,124.3316421508789,6.526998990884428,2.014402080013081,-98.70119199880874,-0.4538441554251009,2.9654722191560783,-1.0,-0.7289016486389829,2.961035807975208,-0.6206099630563182,1.3205206160954432,-0.7750675221728294,-0.012501089067306737,1.06905975341797,-0.4538441554251009,2.9654722191560783,-1.0,-0.27505749321388195,-0.004436411180870142,0.37939003694368173,-0.0,-0.0,0.0
14/04/2022,16:01:24,49.504191,0.0803855179110542,25.912978512234986,2.3855743408203125,3.3352813720703125,-0.09249453991651535,0.536212146282196,0.33340418338775635,1.4958800077438354,3.901954174041748,1.4872901439666748,47.64170112423846,-122.14016010424798,124.38557434082031,8.877353614963527,3.383890890842864,-105.96701257672153,-0.8252516225228002,2.884260695485671,-1.0,-1.1003710289668185,2.879823285704316,-0.6309356043068395,1.265327445128968,-0.7562045770113554,-0.0121968480163126,1.0144256591796887,-0.8252516225228002,2.884260695485671,-1.0,-0.2751194064440183,-0.004437409781355285,0.3690643956931605,-0.0,-0.0,0.0
14/04/2022,16:01:24,49.688188,0.06144966057036072,26.034223537892103,2.4431838989257812,3.3352813720703125,-0.12991450726985931,0.8230218291282654,0.31294605135917664,1.4958800077438354,3.901954174041748,1.4872901439666748,47.6417022390582,-122.14016034358734,124.44412231445312,9.571536602950923,0.5853545856788732,-114.75282967507523,-1.2561137628812957,2.724367488922923,-1.0,-1.5315524065112374,2.7199249301546984,-0.6434876935954641,1.2091725610231627,-0.7392287008015025,-0.011923043561314017,0.95681610107422,-1.2561137628812957,2.724367488922923,-1.0,-0.2754386436299416,-0.004442558768224664,0.3565123064045359,-0.0,-0.0,0.0
14/04/2022,16:01:24,49.87419,0.02369213430210948,26.210577499121428,2.4975204467773438,3.3352813720703125,-0.26476940512657166,1.0798296928405762,0.2603015899658203,1.4958800077438354,3.901954174041748,1.4872901439666748,47.64170383636636,-122.14016082556921,124.49829864501953,8.887406439268757,0.19406309923670426,-123.84797993252415,-1.6709738797243328,2.491554995034027,-1.0,-1.9401073976350967,2.487214131841916,-0.6551483908256952,1.1448456842955632,-0.7043246733947561,-0.01136007537733974,0.9024795532226575,-1.6709738797243328,2.491554995034027,-1.0,-0.2691335179107639,-0.0043408631921109915,0.34485160917430474,-0.0,-0.0,0.0
14/04/2022,16:01:24,50.057191,-0.04245323454961181,26.43347780779004,2.5396499633789062,3.3352813720703125,-0.41082724928855896,1.2888410091400146,0.18383847177028656,1.4958800077438354,3.901954174041748,1.4872901439666748,47.64170581929008,-122.14016166265894,124.5396499633789,7.410052829561525,0.7707333246139069,-132.7449655652887,-2.036208659572963,2.203146453298118,-1.0,-2.2875929657951075,2.1990918677138893,-0.6630077624879134,1.0734079795911073,-0.6417907387449349,-0.010351463528145644,0.860350036621095,-2.036208659572963,2.203146453298118,-1.0,-0.2513843062221445,-0.004054585584228739,0.3369922375120866,0.0,0.0,0.0
14/04/2022,16:01:24,50.218192,-0.11796885565854609,26.64064704813063,2.5716705322265625,3.3352813720703125,-0.5696139335632324,1.4364711046218872,0.2552413046360016,1.4958800077438354,3.901954174041748,1.4872901439666748,47.64170772933767,-122.14016266005756,124.57243347167969,8.808456839302698,-1.1993718243766025,-139.74969957064323,-2.289687245498814,1.938383944888126,-1.0,-2.517234257531069,1.9347138317908312,-0.6691148070818304,1.005335032318915,-0.5696353279148629,-0.009187666579272502,0.8283294677734387,-2.289687245498814,1.938383944888126,-1.0,-0.22754701203225525,-0.0036701130972946468,0.33088519291816965,0.0,0.0,0.0
14/04/2022,16:01:24,50.408191,-0.25177649199031293,26.919655345380306,2.614593505859375,3.3352813720703125,-0.8246368169784546,1.5056134462356567,0.2060365378856659,1.4958800077438354,3.901954174041748,1.4872901439666748,47.64171025475469,-122.14016441033776,124.6152114868164,6.715111930352589,-4.790813171047554,-148.24553177341906,-2.550933556431695,1.5788407109872562,-1.0,-0.3984358525659166,1.6135584158883078,-0.30719877659690376,0.9004621143996242,-0.4403614554493669,-0.007102604120156286,0.7854064941406262,-2.550933556431695,1.5788407109872562,-1.0,-0.0,-0.0,0.0,2.1524977038657784,0.03471770490105159,0.6928012234030962
