date,fly_time,fly_time_s,x,y,z,z_max,vx,vy,vz,vx_max,vy_max,vz_max,latitude,longitude,altitude,pitch,roll,yaw,cx,cy,cz,scx,scy,scz,d,dx,dy,dz,gc_pow_x,gc_pow_y,gc_pow_z,gpc_pow_x,gpc_pow_y,gpc_pow_z,gfc_pow_x,gfc_pow_y,gfc_pow_z
14/04/2022,18:47:32,25.959533,0.0,0.0,1.637939453125,1.637939453125,0.0,0.0,-0.003212476149201393,0,0,0,47.641468,-122.140165,123.63793182373047,0.0,0.0,0.0,0.0,0.0,0.0,-0.4324825500029562,-0.006975525000047802,2.9627224903100062,1.7808529823782833,-0.25799739921976594,-0.004161248374512427,1.7620605468750012,0.0,0.0,0.0,-0.07228399438703756,-0.0011658708772103036,0.4936823978269577,-0.3601985556159186,-0.005809654122837498,2.4690400924830485
14/04/2022,18:47:32,26.137533,0.0,0.0,1.6373672485351562,1.637939453125,0.0,0.0,-0.003177913837134838,0,0,0,47.641468,-122.140165,123.63735961914062,0.0,0.0,0.0,0.0,0.0,0.0,-0.43236532123845234,-0.006973634213523548,2.9627819176118892,1.7814191507134776,-0.25799739921976594,-0.004161248374512427,1.762632751464845,0.0,0.0,0.0,-0.07226219950513398,-0.0011655193468570202,0.4936938121307912,-0.3601031217333184,-0.005808114866666528,2.4690881054810982
14/04/2022,18:47:32,26.328531,0.0,0.0,1.63677978515625,1.637939453125,0.0,0.0,-0.0031486074440181255,0,0,0,47.641468,-122.140165,123.63677215576172,0.0,0.0,0.0,0.0,0.0,0.0,-0.43224266265882905,-0.0069716558493360765,2.9628438814449765,1.7820004208826221,-0.25799739921976594,-0.004161248374512427,1.7632202148437512,0.0,0.0,0.0,-0.07223983134814825,-0.001165158570131444,0.4937054843776106,-0.3600028313106808,-0.005806497279204632,2.4691383970673657
14/04/2022,18:47:32,26.511536,0.0,0.0,1.6361923217773438,1.637939453125,0.0,0.0,-0.003124847775325179,0,0,0,47.641468,-122.140165,123.63618469238281,0.0,0.0,0.0,0.0,0.0,0.0,-0.43211794237801937,-0.006969644231903659,2.962906662428071,1.7825816951122884,-0.25799739921976594,-0.004161248374512427,1.7638076782226575,0.0,0.0,0.0,-0.07221747122645891,-0.0011647979230074224,0.49371710969283794,-0.35990047115156043,-0.0058048463088962365,2.4691895527352328
14/04/2022,18:47:32,26.663533,0.0,0.0,1.6357192993164062,1.637939453125,0.0,0.0,-0.0031086839735507965,0,0,0,47.641468,-122.140165,123.63571166992188,0.0,0.0,0.0,0.0,0.0,0.0,-0.4320164245168901,-0.006968006847046738,2.962957598981976,1.7830497370507628,-0.25799739921976594,-0.004161248374512427,1.764280700683595,0.0,0.0,0.0,-0.07219947281878077,-0.0011645076261093878,0.4937264363087647,-0.35981695169810934,-0.00580349922093735,2.469231162673211
14/04/2022,18:47:32,26.853535,0.0,0.0,1.6351394653320312,1.637939453125,0.0,0.0,-0.003092294791713357,0,0,0,47.641468,-122.140165,123.63513946533203,0.0,0.0,0.0,0.0,0.0,0.0,-0.43189072428550496,-0.00696597942395988,2.9630204647931695,1.7836234694634152,-0.25799739921976594,-0.004161248374512427,1.76486053466797,0.0,0.0,0.0,-0.07217741737692152,-0.001164151893176174,0.4937378276215885,-0.35971330690858344,-0.005801827530783706,2.469282637171581
14/04/2022,18:47:33,27.036533,0.0,0.0,1.6345672607421875,1.637939453125,0.0,0.0,-0.003078840207308531,0,0,0,47.641468,-122.140165,123.63455963134766,0.0,0.0,0.0,0.0,0.0,0.0,-0.4317656906481575,-0.00696396275238976,2.9630827749195947,1.7841896566328215,-0.25799739921976594,-0.004161248374512427,1.7654327392578137,0.0,0.0,0.0,-0.07215565983726849,-0.0011638009651172541,0.493749024543285,-0.359610030810889,-0.005800161787272506,2.4693337503763098
14/04/2022,18:47:33,27.197532,0.0,0.0,1.6340866088867188,1.637939453125,0.0,0.0,-0.0030694359447807074,0,0,0,47.641468,-122.140165,123.63407897949219,0.0,0.0,0.0,0.0,0.0,0.0,-0.4316599770419777,-0.006962257694225569,2.963135284637869,1.7846652568214048,-0.25799739921976594,-0.004161248374512427,1.7659133911132825,0.0,0.0,0.0,-0.0721373894207007,-0.0011635062809790641,0.49375839587226894,-0.35952258762127703,-0.005798751413246505,2.4693768887656002
14/04/2022,18:47:33,27.380533,0.0,0.0,1.633514404296875,1.637939453125,0.0,0.0,-0.0030600111931562424,0,0,0,47.641468,-122.140165,123.63351440429688,0.0,0.0,0.0,0.0,1.0,0.0,-0.4315334972817665,0.9930397823019069,2.9631979028457422,1.7852314510502065,-0.25799739921976594,-0.004161248374512427,1.7664855957031262,0.0,1.0,0.0,-0.07211564597602654,-0.0011631555802585132,0.4937695117343539,-0.35941785130573994,-0.0057970621178346175,2.4694283911113883
14/04/2022,18:47:33,27.574535,-3.276299685239792e-05,0.0029542548581957817,1.6356887817382812,1.637939453125,-2.490449686753937e-12,0.0609675832092762,0.045823536813259125,0,0.0609675832092762,0.045823536813259125,47.641468028196165,-122.140165,123.63582611083984,-8.287096766777239e-11,-4.060929095464031,-2.220678257061788e-09,-1.1627444163953164e-10,3.0,0.0,-0.453933228363714,2.9926784963185895,2.949727880297387,1.783082087380834,-0.2580122816232269,-0.004161488413277903,1.76431121826172,-1.1627444163953164e-10,3.0,0.0,-0.07220239369887496,-0.0011645547370786422,0.4937264706425768,-0.3817308345485646,-0.006156948944331793,2.4560014096548106
14/04/2022,18:47:33,27.764534,-0.000408224412240088,0.03680973965674639,1.676788330078125,1.676788330078125,-1.2361693266238483e-11,0.3994242250919342,0.49801331758499146,0,0.3994242250919342,0.49801331758499146,47.6414683312083,-122.140165,123.67678833007812,-8.984097358033082e-10,-13.090297272816748,3.848219362845901e-09,2.0149229466197797e-10,3.0,0.0,-0.07383299278223787,2.998809145274456,0.4927898347323188,1.742450623405648,-0.25818283204631143,-0.004164239226553512,1.7232116699218762,2.0149229466197797e-10,3.0,0.0,-0.07383299298373017,-0.0011908547255440642,0.4927898347323188,-0.0,-0.0,0.0
14/04/2022,18:47:33,27.916532,-0.00134711351711303,0.12146969046443701,1.7605438232421875,1.7605438232421875,1.1425801711012484e-12,0.7901977300643921,0.6163628697395325,1.1425801711012484e-12,0.7901977300643921,0.6163628697395325,47.641469114156365,-122.140165,123.76239013671875,-4.179280369948774e-09,-15.029418088961853,2.0451354513635673e-08,1.0708304182666382e-09,3.0,0.0,-0.07729305842078008,2.998753337750135,0.4900000750905292,1.6597327289585577,-0.25860931507126467,-0.004171117985020456,1.6394561767578137,1.0708304182666382e-09,3.0,0.0,-0.0772930594916105,-0.0012466622498647029,0.4900000750905292,-0.0,-0.0,0.0
14/04/2022,18:47:34,28.071532,-0.0030331467278301716,0.2734998809173703,1.8510284423828125,1.8510284423828125,4.064812722526234e-11,1.1677446365356445,0.5214930176734924,4.064812722526234e-11,1.1677446365356445,0.6163628697395325,47.64147049228896,-122.140165,123.85259246826172,-7.450987675787887e-09,-14.165324789488903,3.760876753296994e-08,1.9691904632024114e-09,3.0,0.0,-0.08126690231442932,2.9986892434792964,0.48532061592185743,1.5705431776984233,-0.2593751824694663,-0.004183470684991586,1.5489715576171887,1.9691904632024114e-09,3.0,0.0,-0.08126690428361978,-0.0013107565207036058,0.48532061592185743,-0.0,-0.0,0.0
14/04/2022,18:47:34,28.251535,-0.005832466064020991,0.5259154541417956,1.932861328125,1.932861328125,7.030340892777431e-11,1.5515788793563843,0.3545333743095398,7.030340892777431e-11,1.5515788793563843,0.6163628697395325,47.64147277384384,-122.140165,123.93392944335938,-1.8199481088801463e-08,-11.876078787795787,8.638899674586193e-08,4.523317292129873e-09,3.0,0.0,-0.08513976262500814,2.9986267779492204,0.4792380656670611,1.4901175406328913,-0.26064675126311954,-0.004203979859082718,1.4671386718750012,4.523317292129873e-09,3.0,0.0,-0.08513976714832543,-0.0013732220507794897,0.4792380656670611,-0.0,-0.0,0.0
14/04/2022,18:47:34,28.440531,-0.009354005800560117,0.8434538766741753,1.9860382080078125,1.9860382080078125,-1.5735092048774213e-11,1.8674980401992798,0.22068583965301514,7.030340892777431e-11,1.8674980401992798,0.6163628697395325,47.64147563953318,-122.140165,123.98670196533203,-1.9498102508090328e-08,-9.478383405621571,8.757820657877876e-08,4.585584173374344e-09,3.0,0.0,-0.7287221303752338,2.9882464171780523,2.4067819056432684,1.4380817103257346,-0.2622463828495308,-0.004229780368540936,1.4139617919921887,4.585584173374344e-09,3.0,0.0,-0.08794370571556556,-0.0014184468663801292,0.47416875068725955,-0.6407784292452524,-0.01033513595556774,1.9326131549560088
14/04/2022,18:47:34,28.627533,-0.013391842017881572,1.2075469139963388,2.018035888671875,2.018035888671875,-2.252037722971778e-10,2.116626739501953,0.13268490135669708,7.030340892777431e-11,2.116626739501953,0.6163628697395325,47.64147892231262,-122.140165,124.01844024658203,-1.3322184948712887e-08,-7.436158351347858,4.122450758241249e-08,2.1585101694793965e-09,3.0,0.0,-0.7200667811876523,2.988386019623449,2.5877424251480363,1.4069760046412763,-0.264080537828618,-0.004259363513364756,1.3819641113281262,2.1585101694793965e-09,3.0,0.0,-0.08993244029603027,-0.0014505232305811158,0.470626900244842,-0.6301343430501323,-0.01016345714596979,2.1171155249031943
14/04/2022,18:47:34,28.819046,-0.01795735431369394,1.619220644235611,2.03729248046875,2.03729248046875,-4.6350906446335216e-10,2.3151211738586426,0.07713277637958527,7.030340892777431e-11,2.3151211738586426,0.6163628697395325,47.64148263184941,-122.140165,124.03752136230469,-4.8348833728650845e-09,-5.762524588318718,-1.8629618076226516e-08,-9.754445214576138e-10,3.0,0.0,-0.7140716919706546,2.9884827146613655,2.675887695738253,1.388462591729374,-0.2661543849052714,-0.004292812659762557,1.3627075195312512,-9.754445214576138e-10,3.0,0.0,-0.0914610170226504,-0.001475177693913756,0.4682793998870278,-0.6226106739725596,-0.010042107644720372,2.2076082958512253
14/04/2022,18:47:35,28.997046,-0.02288463804870844,2.063515397720039,2.0483779907226562,2.0483779907226562,-6.199224467096087e-10,2.4681389331817627,0.043920837342739105,7.030340892777431e-11,2.4681389331817627,0.6163628697395325,47.64148663367725,-122.140165,124.04850769042969,1.1471877988190271e-10,-4.4581080886364575,-4.340205756693254e-08,-2.272526420049276e-09,3.0,0.0,-0.7129309540641026,2.9885011136807798,2.71930301458723,1.378018636846018,-0.26839256332884454,-0.004328912311755584,1.351622009277345,-2.272526420049276e-09,3.0,0.0,-0.09269701479043299,-0.0014951131417811864,0.4668211511939145,-0.6202339370011432,-0.01000377317743918,2.2524818633933155
14/04/2022,18:47:35,29.181047,-0.028003781568259,2.5251101814210415,2.0545501708984375,2.0545501708984375,-6.72914723942597e-10,2.5834128856658936,0.02461938001215458,7.030340892777431e-11,2.5834128856658936,0.6163628697395325,47.64149079014865,-122.140165,124.05462646484375,-6.890431752745553e-10,-3.4712800099836945,2.5785611580386378e-09,1.3501314651543622e-10,3.0,0.0,-0.7151998478241798,2.988464518581303,2.741236560657707,1.372422123584292,-0.27071789204153884,-0.004366417613573592,1.3454498291015637,1.3501314651543622e-10,3.0,0.0,-0.09375213354332615,-0.0015121311861828132,0.4659418374697616,-0.6214477144158668,-0.010023350232514331,2.2752947231879457
14/04/2022,18:47:35,29.364046,-0.03332862781826407,3.005253224633634,2.0579605102539062,2.0579605102539062,-6.681025177535105e-10,2.671431064605713,0.013244508765637875,7.030340892777431e-11,2.671431064605713,0.6163628697395325,47.641495040799484,-122.140165,124.0579605102539,-1.4379212016691362e-09,-2.7165690013673607,4.9716700529772e-08,2.6031603524175917e-09,3.0,0.0,-0.7194357921448505,2.988396196858903,2.7528183766513843,1.3695594307827559,-0.273136659192166,-0.004405429986971132,1.342039489746095,2.6031603524175917e-09,3.0,0.0,-0.09471972378523409,-0.0015277374804072486,0.46539929921377815,-0.6247160709627768,-0.01007606566068988,2.287419077437606
14/04/2022,18:47:35,29.543047,-0.03871938609518111,3.4913395224139094,2.0597152709960938,2.0597152709960938,-6.445880496031009e-10,2.737484931945801,0.006642674095928669,7.030340892777431e-11,2.737484931945801,0.6163628697395325,47.641499414528106,-122.140165,124.0597152709961,-3.962312429695329e-09,-2.149857144126991,1.3748231106426085e-07,7.198556973967144e-09,3.0,0.0,-0.724599227601424,2.988312915567741,2.7588834777930242,1.3683311754922052,-0.275585365471986,-0.004444925249548426,1.3402847290039075,7.198556973967144e-09,3.0,0.0,-0.09562513065783042,-0.001542340817061873,0.4650642537211281,-0.6289741041421506,-0.01014474361519715,2.293819224071896
14/04/2022,18:47:35,29.725051,-0.044226053170859814,3.987877325154841,2.060546875,2.060546875,-6.535642582683465e-10,2.787916898727417,0.002789532532915473,7.030340892777431e-11,2.787916898727417,0.6163628697395325,47.64150395742112,-122.140165,124.06055450439453,-7.924925360563085e-09,-1.717099481964411,2.6221930859119645e-07,1.3729770891658296e-08,3.0,0.0,-0.7302509440426487,2.988221758745603,2.7619722311713817,1.3680230321976166,-0.278086721916987,-0.004485269708339068,1.3394531250000012,1.3729770891658296e-08,3.0,0.0,-0.09650730742592603,-0.0015565694746119071,0.46484425299378573,-0.6337436503464935,-0.010221671779785365,2.297127978177596
14/04/2022,18:47:35,29.907047,-0.04982116585597396,4.49239026196301,2.0608291625976562,2.0608291625976562,-7.400381973887704e-10,2.8263792991638184,0.0004470176063477993,7.030340892777431e-11,2.8263792991638184,0.6163628697395325,47.64150849799198,-122.140165,124.06082916259766,-1.1632325971882155e-08,-1.387001850487026,3.80055685204535e-07,1.9899669143226703e-08,3.0,0.0,-0.7360076743061661,2.9881289081579654,2.763545763146848,1.3682657766158148,-0.28062825349579784,-0.004526262153158989,1.339170837402345,1.9899669143226703e-08,3.0,0.0,-0.09737800654544283,-0.0015706130087977978,0.46469229290194913,-0.6386296876603924,-0.010300478833236372,2.298853470244899
14/04/2022,18:47:36,30.089573,-0.055578561732545495,5.011536282487214,2.0607757568359375,2.0608291625976562,-9.394548472485553e-10,2.8561220169067383,-0.0009625455131754279,7.030340892777431e-11,2.8561220169067383,0.6163628697395325,47.64151316998804,-122.140165,124.0607681274414,-1.646637935730924e-08,-1.1317354019235637,5.468556605319832e-07,2.8633295428354538e-08,3.0,0.0,-0.7418609805386751,2.9880344998520614,2.7641994344359295,1.3688569408642857,-0.2832435001857743,-0.004568443551383972,1.3392242431640637,2.8633295428354538e-08,3.0,0.0,-0.0982576825619853,-0.001584801331645103,0.46457931242137135,-0.6436033266099852,-0.01038069881629354,2.299620122014558
14/04/2022,18:47:36,30.271572,-0.06129325274378061,5.526831380091608,2.0605239868164062,2.0608291625976562,-1.2762861878456988e-09,2.8783600330352783,-0.0017767584649845958,7.030340892777431e-11,2.8783600330352783,0.6163628697395325,47.64151780713213,-122.14016500000002,124.06051635742188,-2.1352885180636224e-08,-0.9408687312009092,7.184877838111119e-07,3.7619932388583346e-08,2.9999999999999996,0.0,-0.7475500848678971,2.987942739959874,2.7643041313262975,1.3696427914221063,-0.2858393451283711,-0.004610312018199281,1.339476013183595,3.7619932388583346e-08,2.9999999999999996,0.0,-0.09912086705507686,-0.0015987236621785713,0.4644917716509887,-0.6484292554327526,-0.010458536377946685,2.299812359675309
14/04/2022,18:47:36,30.461575,-0.06714248098433018,6.05431233625859,2.060150146484375,2.0608291625976562,1.7503201888757758e-05,2.8955447673797607,-0.0022602975368499756,1.7503201888757758e-05,2.8955447673797607,0.6163628697395325,47.64152247575731,-122.14016499999198,124.06015014648438,0.005103799878907121,-0.7933488629143479,-0.3645629662854627,-0.01908834347666173,2.999939271909236,-1.0,-0.7723831826050712,2.9877893551490984,1.7640852338683815,1.3705655425949774,-0.28849718282035564,-0.00465318036807183,1.3398498535156262,-0.01908834347666173,2.999939271909236,-1.0,-0.09999829367237757,-0.0016128757043937334,0.4644159704400905,-0.6532965454560319,-0.010537041055743991,2.299669263428291
14/04/2022,18:47:36,30.650573,-0.07302988192532212,6.583910611458123,2.0088729858398438,2.0608291625976562,-0.0003869339416269213,2.8999264240264893,-0.716708242893219,1.7503201888757758e-05,2.8999264240264893,0.6163628697395325,47.64152724100132,-122.14016500017951,124.00887298583984,-0.05229580690874304,-0.7375223983851082,-2.212083714520099,-0.11579566015530937,2.997764394526227,-1.0,-0.5923732357695735,2.990077659435672,2.2524629050153453,1.4212759500200265,-0.2911509991650105,-0.004695983857500252,1.3911270141601575,-0.11579566015530937,2.997764394526227,-1.0,-0.09845533724512866,-0.0015879893104053288,0.4704221511268885,-0.3781222383691354,-0.006098745780149366,2.782040753888457
14/04/2022,18:47:36,30.836574,-0.07934804528485984,7.11418975610286,1.8279342651367188,2.0608291625976562,-0.007291371468454599,2.906931161880493,-1.0963999032974243,1.7503201888757758e-05,2.906931161880493,0.6163628697395325,47.64153209075507,-122.14016500628789,123.82464599609375,-0.42416697191326364,-0.7011403061591218,-5.939815581451147,0.0,0.0,0.0,-0.6159457641936672,-0.009934609099900708,5.7946351240148655,1.599214779030194,-0.2933851440320874,-0.004732018452131115,1.5720657348632825,0.0,0.0,0.0,-0.0905468292361885,-0.0014604327296161514,0.48518328394692184,-0.5253989349574787,-0.008474176370284556,5.309451840067943
14/04/2022,18:47:37,30.985574,-0.0861347783356905,7.545931729488075,1.6799468994140625,2.0608291625976562,-0.018322782590985298,2.7806849479675293,-0.683644711971283,1.7503201888757758e-05,2.906931161880493,0.6163628697395325,47.64153589736017,-122.14016503260736,123.67994689941406,-1.6051992437681828,8.98685358447549,-9.341289169293464,0.0,0.0,0.0,-0.4383703215065529,-0.007070489056557523,3.6492045141983263,1.7449308592323745,-0.2935619452030862,-0.004734870083920484,1.7200531005859387,0.0,0.0,0.0,-0.08383931644316024,-0.0013522470394057358,0.49123559288074714,-0.3545310050633927,-0.005718242017151787,3.157968921317579
14/04/2022,18:47:37,31.153574,-0.09411160764284432,7.977912460453808,1.6363983154296875,2.0608291625976562,-0.017256805673241615,2.222846508026123,0.21940141916275024,1.7503201888757758e-05,2.906931161880493,0.6163628697395325,47.641539784573226,-122.14016507502133,123.63639831542969,-2.6645985765517186,13.450301958610428,-11.686986598121543,0.0,0.0,0.0,-0.6545876849598141,-0.010557865886451865,2.7941822655902766,1.7877081174869904,-0.2925528095628199,-0.004718593702627061,1.7636016845703137,0.0,0.0,0.0,-0.0816668573360361,-0.0013172073763879394,0.4923138744988522,-0.572920827623778,-0.009240658510063926,2.3018683910914244
14/04/2022,18:47:37,31.32758,-0.10043381433933973,8.316334730945528,1.7242965698242188,2.0608291625976562,-0.012261644005775452,1.7121034860610962,0.58622807264328,1.7503201888757758e-05,2.906931161880493,0.6163628697395325,47.641542829900295,-122.14016510922106,123.72429656982422,-2.7831816436346983,12.960143710563834,-12.807980619032538,0.0,0.0,0.0,-0.08528634314080207,-0.0013755861796906925,0.4899550365436644,1.7009076221432033,-0.29168925123490264,-0.004704665342499581,1.6757034301757825,0.0,0.0,0.0,-0.08528634314080207,-0.0013755861796906925,0.4899550365436644,-0.0,-0.0,0.0
14/04/2022,18:47:37,31.472575,-0.1043879174394533,8.537598484195769,1.7996826171875,2.0608291625976562,-0.008929108269512653,1.4272270202636719,0.47079744935035706,1.7503201888757758e-05,2.906931161880493,0.6163628697395325,47.64154482094667,-122.14016512919275,123.7996826171875,-2.5458353637169364,11.450061667749102,-13.22088021367381,0.0,0.0,0.0,-0.08861048266305699,-0.0014292013332748838,0.48679347577691173,1.6266209860979948,-0.2913040185651181,-0.004698451912339863,1.6003173828125012,0.0,0.0,0.0,-0.08861048266305699,-0.0014292013332748838,0.48679347577691173,-0.0,-0.0,0.0
14/04/2022,18:47:37,31.644575,-0.10817287163808942,8.763213993050158,1.8700942993164062,2.0608291625976562,-0.005609497893601656,1.1257357597351074,0.32560765743255615,1.7503201888757758e-05,2.906931161880493,0.6163628697395325,47.641546851127785,-122.14016514627025,123.8700942993164,-2.1235793251596604,9.301658487973466,-13.450826279547519,0.0,0.0,0.0,-0.09185611924302672,-0.0014815503103716892,0.4826629200361029,1.5573716715920134,-0.2911580621566434,-0.0046960977767209755,1.529905700683595,0.0,0.0,0.0,-0.09185611924302672,-0.0014815503103716892,0.4826629200361029,-0.0,-0.0,0.0
14/04/2022,18:47:37,31.819572,-0.11084391211625189,8.935047516599298,1.9167404174804688,2.0608291625976562,-0.0034059348981827497,0.8872276544570923,0.22252431511878967,1.7503201888757758e-05,2.906931161880493,0.6163628697395325,47.64154839733537,-122.14016515645918,123.91674041748047,-1.7187969558421643,7.404368310130881,-13.53662776646028,0.0,0.0,0.0,-0.7050390578129319,-0.011371597706660791,2.5052757580416105,1.5115927275020304,-0.2912585039933119,-0.004697717806344315,1.4832595825195325,0.0,0.0,0.0,-0.09409672865472783,-0.0015176891718506347,0.47919587770755784,-0.610942329158204,-0.009853908534810156,2.0260798803340525
14/04/2022,18:47:38,31.993572,-0.11282939743250608,9.072177175432444,1.9490585327148438,2.0608291625976562,-0.001996419159695506,0.6923321485519409,0.15126995742321014,1.7503201888757758e-05,2.906931161880493,0.6163628697395325,47.64154964995403,-122.14016516272552,123.94950866699219,-1.3607140019079442,5.7930105209304354,-13.567903713948594,0.0,0.0,0.0,-0.6775334987802599,-0.01092795965774647,2.6330462210519174,1.479938036302127,-0.2914847285165821,-0.004701366588976796,1.4509414672851575,0.0,0.0,0.0,-0.0957083249379188,-0.0015436826602889032,0.4764132176788418,-0.5818251738423411,-0.009384276997457567,2.1566330033730754
14/04/2022,18:47:38,32.166574,-0.11428550782147795,9.179003247059882,1.9711380004882812,2.0608291625976562,-0.0011653263354673982,0.5384337306022644,0.10414845496416092,1.7503201888757758e-05,2.906931161880493,0.6163628697395325,47.641550607023134,-122.14016516630502,123.97145080566406,-1.0665719853011864,4.503316186459292,-13.57681356831199,-0.23474876109485393,0.9720560781994171,0.0,-0.8913236016626738,0.9614661614160662,2.701222281842571,1.4583510290160249,-0.29175154987046853,-0.004705670159200537,1.42886199951172,-0.23474876109485393,0.9720560781994171,0.0,-0.09684878409589391,-0.0015620771628368098,0.4743198360213585,-0.559726056471926,-0.009027839620514014,2.2269024458212128
14/04/2022,18:47:38,32.338572,-0.1159329746151343,9.26460341271013,1.98126220703125,2.0608291625976562,-0.012868702411651611,0.4710896611213684,0.035492539405822754,1.7503201888757758e-05,2.906931161880493,0.6163628697395325,47.64155136277096,-122.14016517555207,123.98126220703125,-0.8347022019948208,-0.4443447926805685,-13.837565591762434,-0.23917012391084752,0.970977678336876,0.0,-0.8218820535217115,0.9615790988270237,2.802193317199241,1.4483792379292726,-0.29148480030362856,-0.00470136774683283,1.4187377929687512,-0.23917012391084752,0.970977678336876,0.0,-0.09724650757101266,-0.0015684920575970154,0.47332586598512927,-0.4854654220398513,-0.00783008745225519,2.3288674512141117
14/04/2022,18:47:38,32.482573,-0.12022179097402841,9.332429396919906,1.9874038696289062,2.0608291625976562,-0.039559509605169296,0.5018026232719421,0.050631728023290634,1.7503201888757758e-05,2.906931161880493,0.6163628697395325,47.64155198692099,-122.14016522420194,123.98755645751953,-0.6570633269558355,-2.301474144179202,-14.616214664410819,-0.25234320914505387,0.967637796284527,0.0,-0.7468956508059967,0.9596611439996703,2.788882656737588,1.4417215486494295,-0.2882907823419685,-0.004649851328098364,1.412596130371095,-0.25234320914505387,0.967637796284527,0.0,-0.09650205549673199,-0.0015564847660770249,0.4728504638966928,-0.3980503861642109,-0.0064201675187795584,2.316032192840895
14/04/2022,18:47:38,32.656575,-0.1310199071886018,9.42356888204813,1.9963150024414062,2.0608291625976562,-0.0761617124080658,0.5720668435096741,0.050797365605831146,1.7503201888757758e-05,2.906931161880493,0.6163628697395325,47.641552809851895,-122.14016535595681,123.99646759033203,-0.49134899781324015,-2.831714549656198,-15.927916091583581,-0.27442777317438155,0.961607714876784,0.0,-0.6270523991665198,0.955920220909168,2.7938289658824584,1.4311440651862133,-0.2789650838631986,-0.0044994368365038895,1.403684997558595,-0.27442777317438155,0.961607714876784,0.0,-0.09387409184717599,-0.0015140982555998436,0.4723517816657547,-0.2587505341449622,-0.004173395712016146,2.321477184216704
14/04/2022,18:47:38,32.825575,-0.14817422744818032,9.527166965417564,2.0042877197265625,2.0608291625976562,-0.11175768822431564,0.6452896595001221,0.04155648872256279,1.7503201888757758e-05,2.906931161880493,0.6163628697395325,47.64155372820312,-122.14016556598986,124.00428771972656,-0.415403460679813,-2.64429152845688,-17.443866659593926,-0.2997712877702864,0.9540110979587942,0.0,-0.4971884638752331,0.950826949957098,2.808266964011607,1.4203716268465456,-0.26348572731991776,-0.0042497697954821945,1.3957122802734387,-0.2997712877702864,0.9540110979587942,0.0,-0.08913992235237668,-0.0014377406831027311,0.4721837708452912,-0.10827725375257,-0.0017464073185934556,2.3360831931663157
14/04/2022,18:47:39,33.003088,-0.17139615258201957,9.64251875411719,2.0105667114257812,2.0608291625976562,-0.1454441100358963,0.7090950608253479,0.03168807923793793,1.7503201888757758e-05,2.906931161880493,0.6163628697395325,47.641554787401724,-122.14016586390038,124.01065826416016,-0.4268545327229376,-2.2502243172907774,-18.734231881687833,-0.32117885267701746,0.94701855556957,0.0,-0.3578152024277472,0.9464276467026226,2.8190550075417384,1.4103783141889634,-0.24212987054095775,-0.0039053204925973972,1.38943328857422,-0.32117885267701746,0.94701855556957,0.0,-0.08231951300692864,-0.0013277340807573569,0.47238067494732117,0.045683163256198846,0.0007368252138099218,2.346674332594417
14/04/2022,18:47:39,33.178599,-0.20201022317633033,9.77451693918556,2.0155029296875,2.0608291625976562,-0.17873789370059967,0.7630261182785034,0.02325831912457943,1.7503201888757758e-05,2.906931161880493,0.6163628697395325,47.64155595891735,-122.14016624614662,124.0155029296875,-0.47305600933171205,-1.8168595177898719,-19.416802528599565,-0.33243772655143294,0.9431252080001439,0.0,-0.1962698188012699,0.9453214645767564,2.8219833183182024,1.4008894603160778,-0.21365221127170114,-0.0034460034076087,1.3844970703125012,-0.33243772655143294,0.9431252080001439,0.0,-0.07297628696329923,-0.001177036886505037,0.47289683968908497,0.20914419471346227,0.0033732934631175485,2.3490864786291175
14/04/2022,18:47:39,33.317599,-0.22948412457481027,9.881588072516024,2.01837158203125,2.0608291625976562,-0.20236913859844208,0.7957663536071777,0.01823824644088745,1.7503201888757758e-05,2.906931161880493,0.6163628697395325,47.64155694637974,-122.1401666041612,124.01842498779297,-0.48766647898814214,-1.5186257135096295,-19.690310579519778,-0.33693603936376165,0.9415275383003205,0.0,-0.06831673235638885,0.9458601077681789,2.8179876648029607,1.3943518838419384,-0.18791195985186548,-0.003030838062127117,1.3816284179687512,-0.33693603936376165,0.9415275383003205,0.0,-0.06438932278846736,-0.0010385374643302058,0.47342446030811414,0.33300862979584017,0.005371106932188539,2.344563204494847
14/04/2022,18:47:39,33.493597,-0.2686184551566839,10.022255247458816,2.0211105346679688,2.0608291625976562,-0.22914248704910278,0.8281950354576111,0.013325116597115993,1.7503201888757758e-05,2.906931161880493,0.6163628697395325,47.641558216715865,-122.14016710542911,124.02114868164062,-0.46094638254794723,-1.199727466377196,-19.876070413796874,-0.3399868091379194,0.9404302045405687,0.0,0.09159432279172935,0.9473911905394335,2.80594593208742,1.3871409523148774,-0.15105604258001393,-0.0024363877835504866,1.3788894653320325,-0.3399868091379194,0.9404302045405687,0.0,-0.05194201737803585,-0.0008377744738399327,0.4741438961816366,0.4835231493076846,0.007798760472704784,2.3318020359057834
14/04/2022,18:47:39,33.662597,-0.31057139846961945,10.162746363319457,2.0230484008789062,2.0608291625976562,-0.25115767121315,0.8521493673324585,0.009760684333741665,1.7503201888757758e-05,2.906931161880493,0.6163628697395325,47.64155948550821,-122.1401676440549,124.02307891845703,-0.4086455756601161,-0.950967042673341,-19.9663154894704,-0.34146763368201005,0.9398935339428656,0.0,0.23930773926509602,0.9492608786678169,2.788128450787205,1.3814500735697,-0.11137940671224683,-0.0017964420437461825,1.376951599121095,-0.34146763368201005,0.9398935339428656,0.0,-0.03840442941868731,-0.0006194262809466612,0.47478292498015373,0.6191798023657934,0.009986771005898117,2.313345525807051
14/04/2022,18:47:39,33.833604,-0.35680152371060103,10.309344896115363,2.0244827270507812,2.0608291625976562,-0.2697541117668152,0.8708558082580566,0.0070225452072918415,1.7503201888757758e-05,2.906931161880493,0.6163628697395325,47.64156080953739,-122.14016823858042,124.02449798583984,-0.34689681799517214,-0.74975921402931,-20.01295902950884,-0.34223267212209374,0.9396152394103512,0.0,0.38076552697525307,0.9512765006861118,2.765044593388073,1.3771741373610724,-0.06752518242278338,-0.0010891158455308414,1.37551727294922,-0.34223267212209374,0.9396152394103512,0.0,-0.023331233662149353,-0.0003763102203579653,0.47526735582238905,0.7463294327594961,0.012037571496118593,2.289777237565684
14/04/2022,18:47:40,34.002601,-0.4050682270899415,10.456090990453959,2.0254898071289062,2.0608291625976562,-0.28461652994155884,0.8849846720695496,0.00497799227014184,1.7503201888757758e-05,2.906931161880493,0.6163628697395325,47.6415621111201,-122.14016884866645,124.0254898071289,-0.28710404632455283,-0.5942273954728627,-20.0362187603547,-0.3426140890674211,0.9394762295941825,0.0,0.5104962583277566,0.9532360739070063,2.7385704437743055,1.3746805317519533,-0.021637289070067678,-0.0003489885333891607,1.374510192871095,-0.3426140890674211,0.9394762295941825,0.0,-0.007485069953007076,-0.00012072693472625696,0.4754895546962905,0.8605954173481847,0.013880571247550062,2.2630808890780147
14/04/2022,18:47:40,34.1736,-0.4565361876739189,10.607581527903676,2.0261993408203125,2.0608291625976562,-0.2967560887336731,0.8960714340209961,0.003379035508260131,1.7503201888757758e-05,2.906931161880493,0.6163628697395325,47.641563479175865,-122.14016951145179,124.02619934082031,-0.2323258240769986,-0.47030476434374724,-20.048328168099772,-0.3428126388090395,0.9394037974549512,0.0,0.6334807979027304,0.9551504657890099,2.708584351420094,1.3740734371768062,0.027374525536675298,0.0004415246054296773,1.3738006591796887,-0.3428126388090395,0.9394037974549512,0.0,0.00947253782865208,0.00015278286820386879,0.47538280419406576,0.9668208988831178,0.015593885465854856,2.2332015472260283
14/04/2022,18:47:40,34.341602,-0.508937482140027,10.758025652728975,2.0266647338867188,2.0608291625976562,-0.3062358796596527,0.9044865369796753,0.0021578585729002953,1.7503201888757758e-05,2.906931161880493,0.6163628697395325,47.64156486228499,-122.14017019906231,124.02667236328125,-0.18635726924052354,-0.3752848171545727,-20.054387373475304,-0.34291198174046333,0.9393675387082674,0.0,0.7460887287256543,0.9569320662964289,2.676706431874416,1.3755116186544931,0.07733630451939333,0.0012473597503106504,1.3733352661132825,-0.34291198174046333,0.9393675387082674,0.0,0.026742552601104263,0.000431331493565456,0.47489327064724457,1.0622581578650134,0.017133196094596116,2.2018131612271716
14/04/2022,18:47:40,34.4856,-0.5540439451579005,10.885259098373353,2.0269088745117188,2.0608291625976562,-0.3126497268676758,0.9100740551948547,0.0013353036483749747,1.7503201888757758e-05,2.906931161880493,0.6163628697395325,47.64156601162118,-122.14017078100089,124.02691650390625,-0.15387546941931277,-0.31178492567534277,-20.057156225676813,-0.34295737682814276,0.9393509661884419,0.0,0.8348496510299187,0.9583478537345337,2.648405065738406,1.3783592466866634,0.12037941770814603,0.0019416035114208086,1.3730911254882825,-0.34295737682814276,0.9393509661884419,0.0,0.04156963642414115,0.0006704780068406751,0.4741582901002866,1.1362373914339203,0.018326409539251003,2.1742467756381196
14/04/2022,18:47:40,34.6596,-0.610838106367737,11.043222637847066,2.0270767211914062,2.0608291625976562,-0.31898921728134155,0.9155206680297852,0.000514943792950362,1.7503201888757758e-05,2.906931161880493,0.6163628697395325,47.641567438594045,-122.14017151398777,124.0270767211914,-0.1207695687719765,-0.24961049075633873,-20.058962076059604,-0.34298698315440224,0.9393401563792755,0.0,0.9378025883807175,0.9599980526943549,2.611800136382999,1.3839853673356424,0.1746116716075587,0.0028163172839921202,1.372923278808595,-0.34298698315440224,0.9393401563792755,0.0,0.060133646064600844,0.0009698975171707191,0.47281422691650987,1.220655925470519,0.019687998797908765,2.1389859094664887
14/04/2022,18:47:40,34.8276,-0.6666174217825755,11.196526083163917,2.0271072387695312,2.0608291625976562,-0.3237791657447815,0.9195908308029175,-0.00011859893129440024,1.7503201888757758e-05,2.906931161880493,0.6163628697395325,47.64156882350094,-122.14017223409124,124.02710723876953,-0.09520031004610155,-0.20298006240510225,-20.059873603874017,-0.3430019272253275,0.939334699625065,0.0,1.0308703688890972,0.961493930207554,2.574937659483705,1.3916854892822175,0.2279044869118485,0.0036758788211574966,1.37289276123047,-0.3430019272253275,0.939334699625065,0.0,0.07819439634982678,0.0012611999411257754,0.4710417165195458,1.295677899764598,0.020898030641363263,2.103895942964159
14/04/2022,18:47:41,34.972598,-0.7150118711870164,11.328411065973341,2.0270614624023438,2.0608291625976562,-0.3270546495914459,0.9223527312278748,-0.0005644645425491035,1.7503201888757758e-05,2.906931161880493,0.6163628697395325,47.64157001493567,-122.14017285898719,124.02705383300781,-0.07748287322215117,-0.17126714744012694,-20.060318517894604,-0.3430092213504607,0.9393320361131897,0.0,1.1060816306901053,0.9627044692106126,2.5422932800768945,1.4000511908126188,0.2741597260734835,0.004421931065698104,1.3729385375976575,-0.3430092213504607,0.9393320361131897,0.0,0.09368195206469696,0.0015109992268488427,0.46914097890703604,1.355408899975869,0.02186143387057401,2.0731523011698583
14/04/2022,18:47:41,35.1546,-0.7740568660665303,11.488238597288728,2.0269241333007812,2.0608291625976562,-0.3301991820335388,0.9249885082244873,-0.0010081244399771094,1.7503201888757758e-05,2.906931161880493,0.6163628697395325,47.64157145882479,-122.14017362153561,124.02691650390625,-0.060304786439670605,-0.14095091360090603,-20.06061107424501,-0.34301401764258627,0.9393302846713139,0.0,1.1917284837844158,0.9640841959846498,2.501732044052656,1.4123279289342305,0.3306121716847442,0.005332454382010354,1.37307586669922,-0.34301401764258627,0.9393302846713139,0.0,0.1122940783370586,0.0018111948118874816,0.46637208833579585,1.4224484230899435,0.022942716501448378,2.03535995571686
14/04/2022,18:47:41,35.317598,-0.8325629974715412,11.645700230263174,2.0267181396484375,2.0608291625976562,-0.33260250091552734,0.9269924759864807,-0.00136280816514045,1.7503201888757758e-05,2.906931161880493,0.6163628697395325,47.641572881355245,-122.14017437722845,124.02671813964844,-0.047078800205961155,-0.11786616443681015,-20.060758852535443,-0.3430164403787709,0.9393293999603531,0.0,1.2706706105028664,0.9653566104584439,2.460851062257372,1.4266652381953182,0.38656404369422304,0.006234903930552704,1.3732818603515637,-0.3430164403787709,0.9393293999603531,0.0,0.13037167820309134,0.00210276900327591,0.4631498032484295,1.483315372678546,0.023924441494814905,1.9977012590089425
14/04/2022,18:47:41,35.490598,-0.8924736834596843,11.806229868903756,2.026458740234375,2.0608291625976562,-0.3345033824443817,0.9285703301429749,-0.0016575967893004417,1.7503201888757758e-05,2.906931161880493,0.6163628697395325,47.641574306595416,-122.14017513776788,124.02645874023438,-0.03656850011847807,-0.09966197445826311,-20.060867437867795,-0.3430182205685275,0.9393287498836608,0.0,1.3460061830986279,0.9665710789750651,2.4183966690766896,1.4434985230738318,0.4438706339003884,0.0071592037725860536,1.3735412597656262,-0.3430182205685275,0.9393287498836608,0.0,0.14844866152141353,0.0023943332503450934,0.45936889260937647,1.5405757421457418,0.024847995841059244,1.959027776467313
14/04/2022,18:47:41,35.660596,-0.950600614422001,11.961451261304319,2.0261611938476562,2.0608291625976562,-0.3359321057796478,0.9297518134117126,-0.0018911504885181785,1.7503201888757758e-05,2.906931161880493,0.6163628697395325,47.64157570888106,-122.14017588864812,124.02616119384766,-0.028638618750944398,-0.0860168311760629,-20.06087898063009,-0.34301840980494547,0.9393286807794631,0.0,1.4142331268064292,0.9676714474989991,2.3767744005576668,1.461840540167708,0.4994795276039802,0.008056121412966633,1.373838806152345,-0.34301840980494547,0.9393286807794631,0.0,0.16551388496082176,0.0026695787896904117,0.4552526891482548,1.5917376516505528,0.02567318792984568,1.921521711409412
14/04/2022,18:47:41,35.830597,-1.008943624328822,12.116846916265786,2.0258255004882812,2.0608291625976562,-0.337049275636673,0.9306724667549133,-0.002083895495161414,1.7503201888757758e-05,2.906931161880493,0.6163628697395325,47.641577137840585,-122.14017665585955,124.02581787109375,-0.022418631433892527,-0.07537591075559535,-20.060885586587787,-0.3430185181055123,0.9393286412309051,0.0,1.4782745099627945,0.9687043352320028,2.334713666697565,1.48215912723269,0.5553016340992231,0.008956477969341847,1.37417449951172,-0.3430185181055123,0.9393286412309051,0.0,0.18212598349579176,0.0029375158628352,0.4506971830262791,1.639167044572515,0.026438178138262564,1.884016483671286
14/04/2022,18:47:42,36.002599,-1.0685014559421688,12.275158463977277,2.02545166015625,2.0608291625976562,-0.33793625235557556,0.9314014911651611,-0.0022458015009760857,1.7503201888757758e-05,2.906931161880493,0.6163628697395325,47.64157856808984,-122.14017742536954,124.02544403076172,-0.01746599199399157,-0.06694459577335618,-20.06089093872508,-0.3430186058504703,0.9393286091887119,0.0,1.5394068858199,0.9696903106672622,2.291644011515476,1.5047861028332372,0.6122912280559443,0.009875664968642894,1.3745483398437512,-0.3430186058504703,0.9393286091887119,0.0,0.19850639412682433,0.0032017160343031747,0.4456321142501574,1.6839190975435459,0.027159985444247157,1.8460118972653183
14/04/2022,18:47:42,36.174598,-1.1271472732769325,12.430796924978495,2.0250625610351562,2.0608291625976562,-0.33861565589904785,0.9319583177566528,-0.002377196913585067,1.7503201888757758e-05,2.906931161880493,0.6163628697395325,47.6415799490754,-122.14017816957794,124.02506256103516,-0.013665788756919142,-0.06049764748278641,-20.060892520870258,-0.34301863178875464,0.9393285997167182,0.0,1.5957340439837142,0.9705988041646599,2.2492667761304777,1.5288374626557053,0.6684121480176495,0.010780841097057348,1.374937438964845,-0.34301863178875464,0.9393285997167182,0.0,0.2140285044716047,0.003452072652767333,0.4402610046457349,1.724724171300864,0.027818131795174332,1.8090057714847427
14/04/2022,18:47:42,36.343597,-1.1858956075739115,12.586519682779908,2.024658203125,2.0608291625976562,-0.3391466438770294,0.9323922395706177,-0.0024860224220901728,1.7503201888757758e-05,2.906931161880493,0.6163628697395325,47.641581355933674,-122.14017892865655,124.024658203125,-0.010694511231563581,-0.055468173002646816,-20.060896478551225,-0.3430186966724669,0.9393285760228538,0.0,1.6486157184673838,0.9714517117509117,2.207020599623186,1.5546048956973801,0.7246341990069601,0.011687648371079717,1.3753417968750012,-0.3430186966724669,0.9393285760228538,0.0,0.2289421052065443,0.0036926146001054635,0.43452772003669926,1.7626923099333065,0.028430521127952427,1.772492879586487
14/04/2022,18:47:42,36.5176,-1.246826383518055,12.747868455015123,2.0242156982421875,2.0608291625976562,-0.3395749032497406,0.9327409267425537,-0.00257920753210783,1.7503201888757758e-05,2.906931161880493,0.6163628697395325,47.641582813625455,-122.14017971595767,124.02421569824219,-0.008293030775656624,-0.051423434842231705,-20.060897218365817,-0.3430187088012658,0.9393285715937275,0.0,1.7000295051383911,0.9722809621411396,2.163621232178839,1.5830188109197174,0.7829474054700822,0.012628183959193962,1.3757843017578137,-0.3430187088012658,0.9393285715937275,0.0,0.24370979207088314,0.003930803097917187,0.42824346025448834,1.7993384218687738,0.029021587449494856,1.7353777719243504
14/04/2022,18:47:42,36.690601,-1.3067719935206696,12.906488477252424,2.023773193359375,2.0608291625976562,-0.3399014174938202,0.9330064654350281,-0.0026547759771347046,1.7503201888757758e-05,2.906931161880493,0.6163628697395325,47.6415842718253,-122.14018050414342,124.02375793457031,-0.006458581075789555,-0.048344783695357434,-20.06089771488425,-0.3430187169413758,0.939328568621168,0.0,1.7475402967503773,0.9730472623903861,2.121522568519611,1.612551123182781,0.8403197028618475,0.013553543594545303,1.3762268066406262,-0.3430187169413758,0.939328568621168,0.0,0.257525069602402,0.0041536301548772605,0.42175960287710385,1.833033944089351,0.029565063614340848,1.6997629656425073
14/04/2022,18:47:42,36.854598,-1.3657147134654224,13.062361124902964,2.0233154296875,2.0608291625976562,-0.3401516377925873,0.933209240436554,-0.0027160043828189373,1.7503201888757758e-05,2.906931161880493,0.6163628697395325,47.641585680051456,-122.14018126579617,124.02330780029297,-0.005052277233121097,-0.04598823224881194,-20.060898055139816,-0.3430187225196536,0.9393285665841239,0.0,1.7916047226719645,0.9737579769904381,2.0809104691959277,1.643046218432081,0.8967336719940442,0.014463446322483975,1.3766845703125012,-0.3430187225196536,0.9393285665841239,0.0,0.27040526350400446,0.0043613752178063405,0.4151319010575991,1.8642181816876136,0.030068035188507876,1.6657785681383284
14/04/2022,18:47:43,37.0236,-1.4257488263538107,13.221054014749825,2.0228500366210938,2.0608291625976562,-0.3403501808643341,0.9333696961402893,-0.0027678157202899456,1.7503201888757758e-05,2.906931161880493,0.6163628697395325,47.64158711374645,-122.14018204156142,124.02284240722656,-0.0039344184580189625,-0.044120872181563374,-20.060901201909537,0.0,0.0,0.0,2.1771678197533113,0.035115609996014034,2.040519670826542,1.6754890882955153,0.9541932742755681,0.01539021410121677,1.3771499633789075,0.0,0.0,0.0,0.28280448955394466,0.00456136273474043,0.4081606975570962,1.8943633301993668,0.030554247261273607,1.632358973269446
14/04/2022,18:47:43,37.196599,-1.4849449414759874,13.377469758503139,2.02459716796875,2.0608291625976562,-0.32179495692253113,0.8822517395019531,0.04176079109311104,1.7503201888757758e-05,2.906931161880493,0.6163628697395325,47.64158850174083,-122.14018279288553,124.02459716796875,-0.0030708050855280454,3.8829781298354575,-20.061147447654612,0.0,0.0,0.0,2.2519383880204047,0.036321586903554706,1.9561496754150764,1.7069915539835323,1.0108518153462942,0.016304061537841363,1.3754028320312512,0.0,0.0,0.0,0.2946019355019491,0.004751644120998568,0.40084642502467877,1.9573364525184556,0.031569942782556135,1.5553032503903976
14/04/2022,18:47:43,37.370601,-1.5369304852792993,13.514812364242971,2.0348358154296875,2.0608291625976562,-0.274525910615921,0.752577006816864,0.07089677453041077,1.7503201888757758e-05,2.906931161880493,0.6163628697395325,47.64158974256293,-122.14018346465039,124.03483581542969,-0.002402652638623256,5.124466525803923,-20.061193589345812,0.0,0.0,0.0,2.2845318371466394,0.03684728769590961,1.9204964860674263,1.7288313354576819,1.060609211659444,0.01710660018805399,1.3651641845703137,0.0,0.0,0.0,0.3055183999719065,0.004927716128578687,0.3932483074668955,1.979013437174733,0.03191957156733092,1.5272481786005307
14/04/2022,18:47:43,37.541598,-1.581685347133316,13.633044407702982,2.046539306640625,2.0608291625976562,-0.2228328436613083,0.6108378171920776,0.059871457517147064,1.7503201888757758e-05,2.906931161880493,0.6163628697395325,47.6415908107309,-122.14018404298044,124.04653930664062,-0.0018613733280440626,4.85674441194485,-20.061174675757755,0.0,0.0,0.0,2.2605018774868726,0.036459707701399204,1.9558082618147312,1.7463578068315135,1.103445961275132,0.0177975155044372,1.3534606933593762,0.0,0.0,0.0,0.3148967442065676,0.0050789797452671015,0.3862448916464545,1.945605133280305,0.0313807279561321,1.5695633701682767
14/04/2022,18:47:43,37.7086,-1.6165026495000347,13.725025263614953,2.0550994873046875,2.0608291625976562,-0.1784633994102478,0.4891996681690216,0.04144655168056488,1.7503201888757758e-05,2.906931161880493,0.6163628697395325,47.64159164173231,-122.14018449289541,124.05509948730469,-0.00145494400851484,4.150747894380057,-20.061140587367525,0.0,0.0,0.0,2.222786921599769,0.035851401961284696,2.004109235527767,1.761062730640715,1.1367710320764646,0.018335016646393143,1.3449005126953137,0.0,0.0,0.0,0.3218708892340995,0.005191465955388292,0.38080168454144697,1.9009160323656695,0.0306599360058964,1.6233075509863204
14/04/2022,18:47:43,37.880596,-1.6442336856853217,13.798279132694006,2.0607452392578125,2.0608291625976562,-0.14140629768371582,0.38761529326438904,0.026013366878032684,1.7503201888757758e-05,2.906931161880493,0.6163628697395325,47.64159231401908,-122.14018485690914,124.06082153320312,-0.0011380529435668454,3.3933796715749707,-20.061122205639794,0.0,0.0,0.0,2.1869829135504637,0.03527391796048976,2.0466170263446517,1.7740501727996214,1.1633136492970997,0.01876312337575925,1.3392547607421887,0.0,0.0,0.0,0.3271130063113334,0.005276016230827839,0.3765860146726941,1.8598699072391303,0.02999790172966192,1.6700310116719574
14/04/2022,18:47:44,38.053598,-1.6664869515225291,13.857061311602592,2.0642242431640625,2.0642242431640625,-0.11091594398021698,0.3040350079536438,0.015024389140307903,1.7503201888757758e-05,2.906931161880493,0.6163628697395325,47.641592842820394,-122.1401851432488,124.06427001953125,-0.0008865223023063985,2.7042654739468626,-20.06110953243083,0.0,0.0,0.0,2.1568732903063306,0.034788278875905874,2.0803424620236823,1.7854888818678156,1.1846132744689835,0.019106665717238513,1.3357757568359387,0.0,0.0,0.0,0.33107869954403746,0.005339979024902948,0.37332597058220307,1.825794590762293,0.029448299851002925,1.7070164914414794
14/04/2022,18:47:44,38.312601,-1.6912593855522573,13.922495321370661,2.066741943359375,2.066741943359375,-0.07645676285028458,0.2095772624015808,0.005398801527917385,1.7503201888757758e-05,2.906931161880493,0.6163628697395325,47.641593431431176,-122.14018546198257,124.06675720214844,-0.0006082970047888209,1.8836147634928242,-20.06109723489896,0.0,0.0,0.0,2.1234087629664242,0.03424852843493931,2.1158474153994056,1.7994455060426497,1.2083241529617417,0.0194890992413157,1.3332580566406262,0.0,0.0,0.0,0.33520734733012286,0.005406570118227034,0.3698658968105303,1.7882014156363015,0.028841958316712275,1.7459815185888752
14/04/2022,18:47:44,38.464601,-1.7019390213536099,13.950707605108619,2.0673141479492188,2.0673141479492188,-0.06149154528975487,0.1685556322336197,0.0022856530267745256,1.7503201888757758e-05,2.906931161880493,0.6163628697395325,47.64159368520788,-122.14018559938742,124.06732177734375,-0.0004888242950856385,1.5189002955462814,-20.061091863586903,0.0,0.0,0.0,2.109247264755821,0.03402011717347961,2.130260996516135,1.8059048809068396,1.2185460927351215,0.01965396923766427,1.3326858520507825,0.0,0.0,0.0,0.3368848692867359,0.005433626923979893,0.36844047323698736,1.7723623954690852,0.02858649024949971,1.7618205232791477
14/04/2022,18:47:44,38.628598,-1.7114363459404558,13.97579221893102,2.0675048828125,2.0675048828125,-0.048149265348911285,0.13198280334472656,9.102710464503616e-05,1.7503201888757758e-05,2.906931161880493,0.6163628697395325,47.64159391085807,-122.14018572157771,124.0675048828125,-0.00038101949676748367,1.1911925172504523,-20.061100610589815,0.0,0.0,0.0,2.0968310767581317,0.03381985607674489,2.1425980062886105,1.8119124105049038,1.227636461956148,0.019800588096066107,1.3324951171875012,0.0,0.0,0.0,0.3383173284695274,0.005456731104346997,0.3672147270106648,1.7585137482886042,0.028363124972397895,1.7753832792779456
14/04/2022,18:47:44,38.7966,-1.7188710692571476,13.995431946590543,2.0673980712890625,2.0675048828125,-0.03768853843212128,0.10330870002508163,-0.0012368649477139115,1.7503201888757758e-05,2.906931161880493,0.6163628697395325,47.641594087524695,-122.14018581723253,124.06739807128906,-0.00030113669555960543,0.9331368985028062,-20.061106444062485,0.0,0.0,0.0,2.087215202765299,0.03366476133492061,2.1519585805386745,1.8168209644991018,1.2347525642485988,0.019915363939491115,1.3326019287109387,0.0,0.0,0.0,0.3393935641026491,0.005474089743590452,0.3662891912198619,1.7478216386626497,0.02819067159133016,1.7856693893188125
14/04/2022,18:47:45,38.965597,-1.7247819926124066,14.011045668274164,2.0671157836914062,2.0675048828125,-0.029368259012699127,0.08050181716680527,-0.0020424427930265665,1.7503201888757758e-05,2.906931161880493,0.6163628697395325,47.64159422578608,-122.14018589210417,124.0671157836914,-0.00023352800078508778,0.7273832850360609,-20.061106119775417,0.0,0.0,0.0,2.0796219267455287,0.033542289141053644,2.1592306651461577,1.820878364231141,1.2404101815784379,0.02000661583190677,1.332884216308595,0.0,0.0,0.0,0.34021614754539387,0.005487357218473129,0.36557966060833746,1.739405779200135,0.028054931922580517,1.7936510045378204
14/04/2022,18:47:45,39.141601,-1.7293170960620046,14.0230270633474,2.0667343139648438,2.0675048828125,-0.022983985021710396,0.06300174444913864,-0.0025078593753278255,1.7503201888757758e-05,2.906931161880493,0.6163628697395325,47.64159433573861,-122.1401859516283,124.06672668457031,-0.0001830244933049137,0.5693436336180866,-20.06111128385008,1.5356323617683696,1.625371726556636,0.0,3.609428005455907,1.6588200433903042,2.164740720014024,1.8241176722603512,1.2447509074992995,0.02007662754031081,1.3332656860351575,1.5356323617683696,1.625371726556636,0.0,0.3408213259061014,0.005497118159775699,0.36505727865867493,1.732974317781436,0.027951198673892612,1.799683441355349
14/04/2022,18:47:45,39.308602,-1.7292655234923586,14.036090319044888,2.0744094848632812,2.0744094848632812,0.06952236592769623,0.13855215907096863,0.19451819360256195,0.06952236592769623,2.906931161880493,0.6163628697395325,47.64159445524035,-122.14018594538301,124.07498931884766,7.453297468015897,-3.3051961996868062,-20.291644751267945,1.529080155441787,1.6315372745463463,0.0,3.7100851066555594,1.6667147737594668,1.9285572053666937,1.8183358471520066,1.2444887054678397,0.020072398475283748,1.32559051513672,1.529080155441787,1.6315372745463463,0.0,0.3417950819708915,0.005512823902755219,0.36406945020096854,1.8392098692428807,0.029664675310365027,1.5644877551657252
14/04/2022,18:47:45,39.478596,-1.6990490969037637,14.07854284439236,2.1253280639648438,2.1253280639648438,0.30140554904937744,0.36927714943885803,0.35351037979125977,0.30140554904937744,2.906931161880493,0.6163628697395325,47.64159483047299,-122.14018553957858,124.12532806396484,10.20132588774688,-4.807470441807727,-20.482160880249282,1.5236466326768183,1.6366126416267819,0.0,1.8674447727320251,1.642157772917994,0.3611003877361718,1.7601096457060765,1.213595597437124,0.01957412253930535,1.2746719360351575,1.5236466326768183,1.6366126416267819,0.0,0.34379814005520676,0.0055451312912121326,0.3611003877361718,0.0,0.0,0.0
14/04/2022,18:47:45,39.648598,-1.629374909796752,14.161724417470396,2.1833648681640625,2.1833648681640625,0.5266149640083313,0.6004781723022461,0.3071058392524719,0.5266149640083313,2.906931161880493,0.6163628697395325,47.641595571884174,-122.1401845997831,124.18336486816406,9.7439622301649,-4.710203153481671,-20.441083348722845,1.5248195910772588,1.6355198606764092,0.0,1.8646094702590816,1.6410003425986965,0.3618072296664379,1.6691529031701335,1.1425982417101561,0.018429003898550178,1.2166351318359387,1.5248195910772588,1.6355198606764092,0.0,0.33978987918182274,0.005480481922287247,0.3618072296664379,0.0,0.0,0.0
14/04/2022,18:47:45,39.819597,-1.5238962990697473,14.282641989178956,2.228546142578125,2.228546142578125,0.7223879098892212,0.8040151596069336,0.21797628700733185,0.7223879098892212,2.906931161880493,0.6163628697395325,47.6415966708496,-122.1401831489501,124.22920227050781,8.346912103804437,-4.068932375531749,-20.32600917100221,1.5281013296603452,1.632454080913238,0.0,1.8536632715606856,1.637705079976146,0.36841363215276307,1.5633989717428856,1.0351972874629425,0.016696730442948393,1.1714538574218762,1.5281013296603452,1.632454080913238,0.0,0.3255619419003405,0.005250999062907997,0.36841363215276307,-0.0,-0.0,0.0
14/04/2022,18:47:46,39.9906,-1.3904941830551252,14.43303257226944,2.2587966918945312,2.2587966918945312,0.8838239312171936,0.9720029830932617,0.14295147359371185,0.8838239312171936,2.906931161880493,0.6163628697395325,47.64159798893851,-122.1401813797062,124.25879669189453,6.931928127049622,-3.1763545583478914,-21.460992523280616,1.4954660339975998,1.662402280183557,-1.0,0.14194447080691908,1.6405712872288658,0.9521363432773521,1.4530948010740452,0.8994048427004411,0.01450652972097366,1.14120330810547,1.4954660339975998,1.662402280183557,-1.0,0.2993540097922785,0.004828290480520222,0.37983316305465775,-1.6528755729829592,-0.026659283435211293,1.5723031802226943
14/04/2022,18:47:46,40.162599,-1.2330674258992076,14.609106877818704,2.2362594604492188,2.2587966918945312,0.9675230979919434,1.0605974197387695,-0.5472185611724854,0.9675230979919434,2.906931161880493,0.6163628697395325,47.641599585882176,-122.1401792193405,124.2346420288086,6.1137897032751,-2.4340962595513926,-25.716084292805174,1.367998473403628,1.76877929000917,-1.0,0.38315727397687316,1.7528947545345401,1.6792359206306164,1.3787026684044466,0.739179859228035,0.01192225579399775,1.1637405395507825,1.367998473403628,1.76877929000917,-1.0,0.2552126669072537,0.004116333337212797,0.4017984567342188,-1.2400538663340084,-0.020000868811842404,2.2774374638963977
14/04/2022,18:47:46,40.332599,-1.0667674301657826,14.795456347987056,2.0925140380859375,2.2587966918945312,1.0421007871627808,1.1544049978256226,-1.0219382047653198,1.0421007871627808,2.906931161880493,0.6163628697395325,47.64160124835439,-122.1401769750384,124.0894546508789,5.039824640848298,-2.1362788236426518,-32.012810185075715,1.1657503338210007,1.9081473106645161,-1.0,-0.7108446167509082,1.877879650171412,3.91140908825152,1.4263277534517578,0.5699182595532044,0.009192229992791567,1.3074859619140637,1.1657503338210007,1.9081473106645161,-1.0,0.19224146188335672,0.003100668740053448,0.44103344382645027,-2.0688364124552656,-0.033368329233157704,4.4703756444250695
14/04/2022,18:47:46,40.502596,-0.8812832353869453,15.00875211507082,1.9116897583007812,2.2587966918945312,1.107345700263977,1.2826100587844849,-1.0442966222763062,1.107345700263977,2.906931161880493,0.6163628697395325,47.641603117730156,-122.14017451600303,123.91168975830078,3.908898722697399,-2.4474190170719776,-39.6724146542274,0.9010166956320567,2.046501628191947,-1.0,-2.103444844768351,1.998042571088712,5.439923368230662,1.536326421510636,0.3810429455638562,0.006145853960708436,1.48831024169922,0.9010166956320567,2.046501628191947,-1.0,0.12153861333809587,0.0019603002151309225,0.47471594763508346,-3.126000153738503,-0.05041935731836601,5.965207420595579
14/04/2022,18:47:46,40.672604,-0.6989332576049492,15.231771405786276,1.7402114868164062,2.2587966918945312,1.1204228401184082,1.4053211212158203,-1.0314359664916992,1.1204228401184082,2.906931161880493,0.6163628697395325,47.64160514382734,-122.14017201078178,123.73712158203125,2.9932220775841527,-3.260077344062802,-47.17489628994343,0.6260933323456066,2.1466269212865967,-1.0,-3.4018869173636537,2.081659497904188,6.769317320202139,1.6712238302593532,0.19514424319237345,0.0031474877934201118,1.659788513183595,0.6260933323456066,2.1466269212865967,-1.0,0.057968659515797764,0.0009349783792854963,0.49304921126534307,-4.085948909225058,-0.06590240176169429,7.2762681089367955
14/04/2022,18:47:46,40.8546,-0.5090907304547727,15.488890924490988,1.5628509521484375,2.2587966918945312,1.079614281654358,1.5346105098724365,-1.0060782432556152,1.1204228401184082,2.906931161880493,0.6163628697395325,47.64160744160102,-122.14016944721756,123.55982971191406,2.2720320861605288,-4.246606645970085,-54.33478934471602,0.3536583351500685,2.207923409445826,0.0,-4.489777958049604,2.1298034692329275,8.94792682852938,1.8371494431907864,0.0012050794667632925,1.9436765592573124e-05,1.8371490478515637,0.3536583351500685,2.207923409445826,0.0,0.00032769205592907363,5.2853557406873065e-06,0.49956800787219,-4.843763985255602,-0.0781252255686392,8.44835882065719
14/04/2022,18:47:47,41.028599,-0.3328577649081126,15.770849631167948,1.4335556030273438,2.2587966918945312,0.9571061134338379,1.7021023035049438,-0.2926899194717407,1.1204228401184082,2.906931161880493,0.6163628697395325,47.64160996523332,-122.14016706441336,123.43265533447266,1.5558126285998584,-4.81697373558519,-59.982355399788,0.1346619641137078,2.2320094433987143,0.0,-2.288156698642248,2.1929317230316827,3.3220530678090507,1.97462463918272,-0.17952859007168476,-0.0028956224205103354,1.9664443969726575,0.1346619641137078,2.2320094433987143,0.0,-0.04545876715772304,-0.0007332059218985792,0.49792703176076497,-2.3773598955982327,-0.03834451444513323,2.824126036048286
14/04/2022,18:47:47,41.198596,-0.17966113181319088,16.085569405928254,1.4337234497070312,2.2587966918945312,0.8114266395568848,1.8293778896331787,0.12024671584367752,1.1204228401184082,2.906931161880493,0.6163628697395325,47.64161278485156,-122.14016498440482,123.43408203125,0.9407715896684933,-5.259670154049629,-63.49607490350777,-0.0023855517216363475,2.2360667049851135,0.0,-2.0948242341450953,2.2023176939782827,2.2088222786300116,1.9950827283424921,-0.3377601852997778,-0.005447744924193643,1.96627655029297,-0.0023855517216363475,2.2360667049851135,0.0,-0.08464816332418998,-0.0013652929568426957,0.49278069415434345,-2.007790519099269,-0.032383718049988,1.7160415844756682
14/04/2022,18:47:47,41.369596,-0.05522864032536745,16.40629083942622,1.455108642578125,2.2587966918945312,0.6768321394920349,1.9109185934066772,0.12181399017572403,1.1204228401184082,2.906931161880493,0.6163628697395325,47.64161560859949,-122.14016331308893,123.45510864257812,0.4507228224881848,-5.331638164144699,-65.1853424443649,-0.0683015460675176,2.235024585727143,0.0,-2.097230861386909,2.2022999193510198,2.214393426079585,2.00026455960577,-0.46733189561344946,-0.007537611219571971,1.9448913574218762,-0.0683015460675176,2.235024585727143,0.0,-0.11681752130510328,-0.0018841535694372013,0.48615853040269724,-1.912111794014288,-0.030840512806686173,1.7282348956768874
14/04/2022,18:47:47,41.537598,0.042589608929120004,16.727403482422233,1.473785400390625,2.2587966918945312,0.5459349751472473,1.9739128351211548,0.10277395695447922,1.1204228401184082,2.906931161880493,0.6163628697395325,47.64161854098416,-122.14016194162343,123.4740982055664,0.14610874926940304,-4.987290692650633,-66.00745044539342,-0.10036264597028333,2.2338145266099967,0.0,-2.0420059412466087,2.2024976992668286,2.274031895242344,2.0088883351698974,-0.570302593662865,-0.009198428930044855,1.9262145996093762,-0.10036264597028333,2.2338145266099967,0.0,-0.1419448417743963,-0.002289432931844765,0.4794230810156816,-1.7996984535019291,-0.029027394411323366,1.7946088142266625
14/04/2022,18:47:47,41.680601,0.10938559693749994,17.009085391648114,1.4869766235351562,2.2587966918945312,0.44125133752822876,2.0174453258514404,0.08377686142921448,1.1204228401184082,2.906931161880493,0.6163628697395325,47.64162106972316,-122.140161015028,123.48722839355469,-0.0017504107629322827,-4.4961066180082785,-66.38352873263958,-0.1150227002298373,2.233107650435114,0.0,-1.9726271588800315,2.203146288198816,2.339965735208471,2.017782439958396,-0.6416232845019332,-0.010348762653254795,1.913023376464845,-0.1150227002298373,2.233107650435114,0.0,-0.1589923654243484,-0.0025643929907147533,0.47404157405591013,-1.698612093225846,-0.02739696924558327,1.8659241611525608
14/04/2022,18:47:47,41.8506,0.17059044912457466,17.3516963487491,1.499298095703125,2.2587966918945312,0.33013683557510376,2.05901837348938,0.06270325928926468,1.1204228401184082,2.906931161880493,0.6163628697395325,47.64162414710447,-122.1401601541267,123.4994888305664,-0.0779821618549171,-3.82110560159322,-66.6252303193833,-0.12444198777326021,2.2326025601703137,0.0,-1.8775405280885908,2.2043267772619983,2.4215525968771594,2.0284327020859463,-0.7083367646442936,-0.011424786526525565,1.9007019042968762,-0.12444198777326021,2.2326025601703137,0.0,-0.17460279067039605,-0.0028161740430720627,0.4685170575459614,-1.5784957496449346,-0.025459608865243205,1.9530355393311978
