date,fly_time,fly_time_s,x,y,z,z_max,vx,vy,vz,vx_max,vy_max,vz_max,latitude,longitude,altitude,pitch,roll,yaw,cx,cy,cz,scx,scy,scz,d,dx,dy,dz,gc_pow_x,gc_pow_y,gc_pow_z,gpc_pow_x,gpc_pow_y,gpc_pow_z,gfc_pow_x,gfc_pow_y,gfc_pow_z
22/04/2022,12:58:53,20.003,0.0,0.0,1.54132080078125,1.54132080078125,0.0,0.0,-0.006420062854886055,0,0,0,47.641468,-122.140165,123.54129791259766,0.0,0.0,0.0,0.0,0.0,0.0,-0.41003214602355004,-0.006613421710057375,2.970963026618538,1.8765042871255733,-0.25799739921976594,-0.004161248374512427,1.8586791992187512,0.0,0.0,0.0,-0.06871825862650112,-0.0011083590101048763,0.49506389716283133,-0.34131388739704893,-0.0055050626999524985,2.4758991294557067
22/04/2022,12:58:54,20.191003,0.0,0.0,1.5401687622070312,1.54132080078125,0.0,0.0,-0.005780764855444431,0,0,0,47.641468,-122.140165,123.54014587402344,0.0,0.0,0.0,0.0,0.0,0.0,-0.410013430651621,-0.00661311984921981,2.9709685347488857,1.8776453890611848,-0.25799739921976594,-0.004161248374512427,1.85983123779297,0.0,0.0,0.0,-0.06867720723576934,-0.0011076968908995252,0.495074817528159,-0.3413362234158517,-0.0055054229583202845,2.4758937172207265
22/04/2022,12:58:54,20.345001,0.0,0.0,1.5393142700195312,1.54132080078125,0.0,0.0,-0.005352491978555918,0,0,0,47.641468,-122.140165,123.53929901123047,0.0,0.0,0.0,0.0,0.0,0.0,-0.40998336780680994,-0.006612634964626083,2.970976478837377,1.8784917779285466,-0.25799739921976594,-0.004161248374512427,1.86068572998047,0.0,0.0,0.0,-0.06864678194036138,-0.001107206160328429,0.4950828494852738,-0.34133658586644855,-0.005505428804297654,2.4758936293521034
22/04/2022,12:58:54,20.497001,0.0,0.0,1.5385055541992188,1.54132080078125,0.0,0.0,-0.0049841017462313175,0,0,0,47.641468,-122.140165,123.53849029541016,0.0,0.0,0.0,0.0,0.0,0.0,-0.40994189472656406,-0.006611966043976956,2.970987104686243,1.8792928312903658,-0.25799739921976594,-0.004161248374512427,1.8614944458007825,0.0,0.0,0.0,-0.06861800496671565,-0.0011067420155922076,0.4950903982511377,-0.3413238897598484,-0.005505224028384749,2.475896706435105
22/04/2022,12:58:54,20.652003,0.0,0.0,1.5377655029296875,1.54132080078125,0.0,0.0,-0.004679344594478607,0,0,0,47.641468,-122.140165,123.53776550292969,0.0,0.0,0.0,0.0,0.0,0.0,-0.40989253971035683,-0.006611169995328453,2.970999546734897,1.8800258764365245,-0.25799739921976594,-0.004161248374512427,1.8622344970703137,0.0,0.0,0.0,-0.06859168701340128,-0.0011063175324742336,0.49509726127045245,-0.34130085269695554,-0.0055048524628542195,2.4759022854644446
22/04/2022,12:58:54,20.845004,0.0,0.0,1.536895751953125,1.54132080078125,0.0,0.0,-0.004362923093140125,0,0,0,47.641468,-122.140165,123.5368881225586,0.0,0.0,0.0,0.0,0.0,0.0,-0.4098198252280482,-0.006609997181097669,2.971017667654999,1.880887400426329,-0.25799739921976594,-0.004161248374512427,1.8631042480468762,0.0,0.0,0.0,-0.06856077582587365,-0.0011058189649334655,0.49510527267667337,-0.34125904940217455,-0.005504178216164204,2.4759123949783257
22/04/2022,12:58:54,21.036004,0.0,0.0,1.5360870361328125,1.54132080078125,0.0,0.0,-0.004106875974684954,0,0,0,47.641468,-122.140165,123.53607177734375,0.0,0.0,0.0,0.0,0.0,0.0,-0.40973877287483207,-0.006608689885078053,2.9710376935713345,1.8816884733835104,-0.25799739921976594,-0.004161248374512427,1.8639129638671887,0.0,0.0,0.0,-0.06853205247000853,-0.001105355685000157,0.49511266945162646,-0.3412067204048235,-0.005503334200077896,2.475925024119708
22/04/2022,12:58:55,21.233001,0.0,0.0,1.535308837890625,1.54132080078125,0.0,0.0,-0.003896730486303568,0,0,0,47.641468,-122.140165,123.53530883789062,0.0,0.0,0.0,0.0,0.0,0.0,-0.4096480258378372,-0.006607226223191039,2.9710599601929175,1.8824593233430074,-0.25799739921976594,-0.004161248374512427,1.8646911621093762,0.0,0.0,0.0,-0.06850442997836755,-0.0011049101609414316,0.4951197397040119,-0.3411435958594697,-0.0055023160622496075,2.475940220488906
22/04/2022,12:58:55,21.419001,0.0,0.0,1.5345840454101562,1.54132080078125,0.0,0.0,-0.003731666598469019,0,0,0,47.641468,-122.140165,123.53458404541016,0.0,0.0,0.0,0.0,0.0,0.0,-0.4095527271237871,-0.006605689147157973,2.9710832074842077,1.883177277271192,-0.25799739921976594,-0.004161248374512427,1.865415954589845,0.0,0.0,0.0,-0.06847871812784721,-0.0011044954536749746,0.4951262831790608,-0.34107400899593987,-0.005501193693482998,2.4759569243051467
22/04/2022,12:58:55,21.578002,0.0,0.0,1.5340194702148438,1.54132080078125,0.0,0.0,-0.003621238749474287,0,0,0,47.641468,-122.140165,123.53401947021484,0.0,0.0,0.0,0.0,0.0,0.0,-0.40947212234904473,-0.006604389070145998,2.971102779135393,1.883736529223101,-0.25799739921976594,-0.004161248374512427,1.8659805297851575,0.0,0.0,0.0,-0.06845869996900937,-0.0011041725801453318,0.49513135257523366,-0.34101342238003535,-0.005500216490000666,2.475971426560159
22/04/2022,12:58:55,21.732998,0.0,0.0,1.5334625244140625,1.54132080078125,0.0,0.0,-0.0035262801684439182,0,0,0,47.641468,-122.140165,123.53345489501953,0.0,0.0,0.0,0.0,0.0,0.0,-0.40938770619039566,-0.006603027519200045,2.971123195677333,1.8842882268270231,-0.25799739921976594,-0.004161248374512427,1.8665374755859387,0.0,0.0,0.0,-0.0684389609303777,-0.0011038542085544984,0.49513632987399914,-0.34094874526001795,-0.005499173310645547,2.4759868658033337
22/04/2022,12:58:55,21.93,0.0,0.0,1.5327987670898438,1.54132080078125,0.0,0.0,-0.003429749980568886,0,0,0,47.641468,-122.140165,123.53278350830078,0.0,0.0,0.0,0.0,0.0,0.0,-0.4092812748301169,-0.00660131088435684,2.971148827148634,1.8849457334823754,-0.25799739921976594,-0.004161248374512427,1.8672012329101575,0.0,0.0,0.0,-0.0684154474932832,-0.0011034749595691033,0.49514223126235135,-0.3408658273368337,-0.005497835924787737,2.4760065958862825
22/04/2022,12:58:56,22.118003,0.0,0.0,1.5321426391601562,1.54132080078125,0.0,0.0,-0.0033516311086714268,0,0,0,47.641468,-122.140165,123.53213500976562,0.0,0.0,0.0,0.0,0.0,0.0,-0.4091700167922977,-0.006599516399875886,2.971175496239052,1.8855956868946715,-0.25799739921976594,-0.004161248374512427,1.867857360839845,0.0,0.0,0.0,-0.06839221627502358,-0.0011031002625003995,0.495148032421198,-0.34077780051727413,-0.005496416137375486,2.476027463817854
22/04/2022,12:58:56,22.314,0.0,0.0,1.5315170288085938,1.54132080078125,0.0,0.0,-0.0032892480958253145,0,0,0,47.641468,-122.140165,123.53150939941406,0.0,0.0,0.0,0.0,0.0,0.0,-0.4090597172529703,-0.006597737375048023,2.9712018171849968,1.886215413897487,-0.25799739921976594,-0.004161248374512427,1.8684829711914075,0.0,0.0,0.0,-0.06837007665255738,-0.0011027431718154614,0.4951535339142579,-0.3406896406004129,-0.005494994203232562,2.476048283270739
22/04/2022,12:58:56,22.501001,0.0,0.0,1.5308914184570312,1.54132080078125,0.0,0.0,-0.0032379617914557457,0,0,0,47.641468,-122.140165,123.53089141845703,0.0,0.0,0.0,0.0,0.0,0.0,-0.4089455593255625,-0.00659589611815435,2.9712289377412047,1.8868351447833938,-0.25799739921976594,-0.004161248374512427,1.86910858154297,0.0,0.0,0.0,-0.06834794784966676,-0.0011023862556398059,0.495159006420233,-0.34059761147589573,-0.005493509862514545,2.4760699313209718
22/04/2022,12:58:56,22.659006,0.0,0.0,1.5303878784179688,1.54132080078125,0.0,0.0,-0.0032033901661634445,0,0,0,47.641468,-122.140165,123.53038024902344,0.0,0.0,0.0,0.0,2.0,0.0,-0.40885135257562205,1.9934056233455544,2.9712512280978363,1.8873339553875106,-0.25799739921976594,-0.004161248374512427,1.8696121215820325,0.0,2.0,0.0,-0.06833014472696869,-0.0011020991084995145,0.4951633901633839,-0.34052120784865336,-0.0054922775459461184,2.476087837934452
22/04/2022,12:58:56,22.825004,-3.975245635956526e-05,0.003584491088986397,1.5361862182617188,1.54132080078125,-2.469513309122373e-12,0.09555402398109436,0.1495102047920227,0,0.09555402398109436,0.1495102047920227,47.6414680347695,-122.140165,123.53662872314453,9.01475186244704e-10,-7.273991663512674,-1.1721806510985237e-08,-1.0000000010229206,4.999999999795416,0.0,-1.4741725394275043,4.9923520556276,2.9261255067568412,1.881592704910027,-0.2580154564383019,-0.004161539619972732,1.8638137817382825,-1.0000000010229206,4.999999999795416,0.0,-0.06854028219027221,-0.0011054884224237773,0.4951111236276176,-0.4056322562143112,-0.006542455745392228,2.4310143831292237
22/04/2022,12:58:56,23.014005,-0.005196554819121957,0.07066709734499454,1.614044189453125,1.614044189453125,-0.09080413728952408,0.7956791520118713,0.8376410603523254,0,0.7956791520118713,0.8376410603523254,47.64146865749527,-122.14016506231259,123.61653900146484,-4.022884638163335,-21.950886588317733,0.4335880137963598,-0.9621340352728414,5.007424297797182,0.0,-1.0324138396675375,5.006290752565009,0.4942734072004731,1.8039238663799102,-0.2539416913681885,-0.004095833731745047,1.7859558105468762,-0.9621340352728414,5.007424297797182,0.0,-0.07027980439469615,-0.001133545232172538,0.4942734072004731,-0.0,-0.0,0.0
22/04/2022,12:58:57,23.197999,-0.04455408814828843,0.3221906619146466,1.847381591796875,1.847381591796875,-0.3049594461917877,1.9234473705291748,1.5843762159347534,0,1.9234473705291748,1.5843762159347534,47.641470954764614,-122.14016555769007,123.85213470458984,-4.747797795598232,-24.05867012815292,0.5372977155686809,-0.9530686467146483,5.009157629247608,0.0,-0.5271568036153995,5.016027175104046,-1.941459862472011,1.5679426825110232,-0.21865017066233744,-0.003526615655844223,1.5526184082031262,-0.9530686467146483,5.009157629247608,0.0,-0.06860046149594642,-0.0011064590563862548,0.4871267148211864,0.4945123045951952,0.007976004912823973,-2.4285865772931974
22/04/2022,12:58:57,23.360003,-0.10586121096275747,0.672119490802288,2.084197998046875,2.084197998046875,-0.4132421910762787,2.4765217304229736,1.3220674991607666,0,2.4765217304229736,1.5843762159347534,47.64147412406776,-122.14016632650733,124.08817291259766,-4.277610431909292,-21.740438775402396,0.30743267035437444,0.0,0.0,0.0,0.9142838827641041,0.014746514238128406,-1.7472957320722597,1.3258624821847094,-0.16300153796850508,-0.0026290570640084,1.3158020019531262,0.0,0.0,0.0,-0.05770349523051122,-0.0009307015359760772,0.4658015837781219,0.9719873779946153,0.015677215774104483,-2.2130973158503817
22/04/2022,12:58:57,23.543001,-0.1945411121705547,1.1638095965608954,2.2662353515625,2.2662353515625,-0.46017909049987793,2.7335565090179443,0.5129028558731079,0,2.7335565090179443,1.5843762159347534,47.64147856356801,-122.14016743635077,124.26779174804688,0.16719752135281563,-0.36996940869824285,-0.4571109377643094,0.0,0.0,0.0,-0.031532018605887044,-0.0005085809452563815,0.4345269326667648,1.1367466321859991,-0.08227312348586818,-0.0013269858626756559,1.1337646484375012,0.0,0.0,0.0,-0.031532018605887044,-0.0005085809452563815,0.4345269326667648,0.0,0.0,0.0
22/04/2022,12:58:57,23.700001,-0.2681478646118194,1.5728503204882145,2.3130416870117188,2.3130416870117188,-0.4285426139831543,2.55657696723938,0.329778790473938,0,2.7335565090179443,1.5843762159347534,47.64148224627129,-122.14016835458511,124.31402587890625,1.8624353372042375,11.221022895990375,-0.36170902663522503,-0.006312971515766389,0.9999800729967778,0.0,-0.012272031861751211,0.9998839591202296,0.4238696947922179,1.0870657527971772,-0.015281229727551526,-0.0002464714472187879,1.0869583129882825,-0.006312971515766389,0.9999800729967778,0.0,-0.005959060345984823,-9.611387654822609e-05,0.4238696947922179,0.0,0.0,0.0
22/04/2022,12:58:57,23.858001,-0.33495447516907007,1.946180284023285,2.3630752563476562,2.3630752563476562,-0.3724374771118164,2.2554736137390137,0.23385322093963623,0,2.7335565090179443,1.5843762159347534,47.641485603547935,-122.14016918656351,124.36377716064453,2.262783276852928,10.629621504697049,-0.4611777469604913,-0.03219593283377189,3.999870425639931,0.0,-0.014185551978115739,4.000160915653732,0.4105557489250851,1.0379222665637364,0.04548812092079629,0.0007336793696897104,1.036924743652345,-0.03219593283377189,3.999870425639931,0.0,0.01801038085565615,0.0002904900138006869,0.4105557489250851,0.0,0.0,0.0
22/04/2022,12:58:57,24.053999,-0.40548004338052124,2.3609167132526636,2.3714141845703125,2.3714141845703125,-0.307733952999115,2.1627886295318604,-0.02866966277360916,0,2.7335565090179443,1.5843762159347534,47.64148933926031,-122.14017006159713,124.37132263183594,2.1942901836854714,-4.1967082731967045,-1.088324554664397,-0.09496852296516387,4.999098016607178,0.0,1.1381350436788182,5.018986783811113,2.3806082944629248,1.03437907984159,0.10930778947543784,0.001763028862506566,1.0285858154296887,-0.09496852296516387,4.999098016607178,0.0,0.04332277520731378,0.000698754438827445,0.4076671230580976,1.1897807914366683,0.01919001276510683,1.972941171404827
22/04/2022,12:58:58,24.244001,-0.46215110609773546,2.8039870942011476,2.4116744995117188,2.4116744995117188,-0.2335083931684494,2.5432209968566895,0.45391845703125,0,2.7335565090179443,1.5843762159347534,47.64149327284655,-122.14017073826467,124.41167449951172,1.7118473631327744,-13.316184995538471,-1.4358863239049466,-0.10023328344292735,3.9987439639079483,0.0,-0.036721458743973284,3.999768348177286,0.3952303501789855,1.0010082647263927,0.15881967542242498,0.002561607668102983,0.9883255004882825,-0.10023328344292735,3.9987439639079483,0.0,0.06351182469895407,0.0010243842693377107,0.3952303501789855,0.0,0.0,0.0
22/04/2022,12:58:58,24.424009,-0.5080149088753387,3.308961178176105,2.4777450561523438,2.4777450561523438,-0.20087496936321259,2.883089065551758,0.2115447223186493,0,2.883089065551758,1.5843762159347534,47.641497820541815,-122.14017127426017,124.47774505615234,1.178694092662619,-10.350738432815696,-1.3773066557828813,0.0,0.0,0.0,0.0,0.0,0.0,0.9429675750444524,0.19652892501167324,0.0031698213711557344,0.9222549438476575,0.0,0.0,0.0,0.0,0.0,0.0,0.0,0.0,0.0
22/04/2022,12:58:58,24.614998,-0.5492097816895694,3.854838702827692,2.4873275756835938,2.4873275756835938,-0.16995304822921753,2.8798136711120605,0.1295732855796814,0,2.883089065551758,1.5843762159347534,47.64150281346182,-122.14017174887748,124.4876937866211,0.9246945544001222,8.430154043303492,-1.0428549673354954,0.0,0.0,0.0,0.0,0.0,0.0,0.9409488747159627,0.22891089759151828,0.003692111251475616,0.9126724243164075,0.0,0.0,0.0,0.0,0.0,0.0,0.0,0.0,0.0
22/04/2022,12:58:58,24.797001,-0.5822264553280547,4.345837872475386,2.5621261596679688,2.5621261596679688,-0.12742450833320618,2.37749981880188,0.5700239539146423,0,2.883089065551758,1.5843762159347534,47.64150722063703,-122.14017211420754,124.56383514404297,0.7361166713293875,14.826479315528797,-0.9425118600872415,0.0,0.0,0.0,0.0,0.0,0.0,0.8755376753626044,0.2540017025195237,0.00409680165353965,0.8378738403320325,0.0,0.0,0.0,0.0,0.0,0.0,0.0,0.0,-0.0
22/04/2022,12:58:58,24.951002,-0.6028134346706793,4.666947121731937,2.64617919921875,2.64617919921875,-0.1039954125881195,1.9937407970428467,0.542133092880249,0,2.883089065551758,1.5843762159347534,47.64151010127628,-122.140172339919,124.64781188964844,0.5991180781447546,14.79055567216972,-0.9409805177626027,0.0,0.0,0.0,0.0,0.0,0.0,0.8005273266101578,0.26940549319290275,0.004345249890207903,0.7538208007812512,0.0,0.0,0.0,0.0,0.0,0.0,0.0,0.0,-0.0
22/04/2022,12:58:58,25.102003,-0.6200671141268685,4.94025728199631,2.7187042236328125,2.7187042236328125,-0.08524750173091888,1.6528429985046387,0.4144963324069977,0,2.883089065551758,1.5843762159347534,47.6415125080644,-122.14017252508472,124.71870422363281,0.48357239846944766,13.213720206527176,-0.9554716063220786,-0.033350705061967995,1.9997219132849122,0.0,-0.033350705061967995,1.9997219132849122,0.0,0.7374607574050474,0.2822476034382085,0.004552380700615366,0.6812957763671887,-0.033350705061967995,1.9997219132849122,0.0,0.0,0.0,0.0,0.0,0.0,-0.0
22/04/2022,12:58:59,25.256001,-0.6345807402394712,5.1723546562716365,2.7493362426757812,2.7493362426757812,-0.07436151057481766,1.4807978868484497,-0.03951190039515495,0,2.883089065551758,1.5843762159347534,47.64151463756756,-122.14017268700626,124.74922180175781,0.39884121195308375,4.239876692963518,-1.0242918251659696,-1.0713454564104135,3.9814845112129675,0.0,-1.0713454564104135,3.9814845112129675,0.0,0.7136129240637606,0.2930149224425711,0.00472604713616942,0.65066375732422,-1.0713454564104135,3.9814845112129675,0.0,0.0,0.0,0.0,0.0,0.0,0.0
22/04/2022,12:58:59,25.435001,-0.6536435669986531,5.444041421636939,2.7506179809570312,2.7506179809570312,-0.13815930485725403,1.5963040590286255,0.24787718057632446,0,2.883089065551758,1.5843762159347534,47.641517086766854,-122.14017290316059,124.7513427734375,-3.6967155876544266,-9.270620060145331,-0.7354205463946062,-1.0640934133830728,4.986752972385414,0.0,-1.0640934133830728,4.986752972385414,0.0,0.7186069389820663,0.3076918864502815,0.004962772362100409,0.64938201904297,-1.0640934133830728,4.986752972385414,0.0,0.0,0.0,0.0,0.0,0.0,0.0
22/04/2022,12:58:59,25.618001,-0.699567093863152,5.780461720190942,2.8518829345703125,2.8518829345703125,-0.3325384557247162,2.1568052768707275,0.8299482464790344,0,2.883089065551758,1.5843762159347534,47.64152013308397,-122.1401734726017,124.85436248779297,-4.795007720427748,-16.87885165331371,-0.19897400955236424,-1.0138849484536676,3.9965031354046383,0.0,0.5522335439981916,4.021763111089345,-1.845394351035877,0.6493783907111125,0.3481787469852062,0.005615786241696341,0.5481170654296887,-1.0138849484536676,3.9965031354046383,0.0,0.0,0.0,0.0,1.5661184924518592,0.02525997568470651,-1.845394351035877
22/04/2022,12:58:59,25.807005,-0.7795757749117911,6.22741374745965,2.978790283203125,2.978790283203125,-0.4567757844924927,2.56551456451416,0.4505188763141632,0,2.883089065551758,1.5843762159347534,47.64152417325346,-122.1401744766961,124.98014831542969,-4.19051575113092,-13.333973348148088,-0.5234684019991979,-1.0273666249151725,2.990738674309477,0.0,1.1727977750604068,3.0262251968897287,-0.843523554186768,0.5955423596982672,0.42095959074601474,0.006789670818482918,0.42120971679687624,-1.0273666249151725,2.990738674309477,0.0,0.0,0.0,0.0,2.2001643999755793,0.03548652258025181,-0.843523554186768
22/04/2022,12:58:59,25.991999,-0.8791525368578732,6.725880022160709,3.020965576171875,3.020965576171875,-0.5578898787498474,2.7950265407562256,0.060613539069890976,0,2.883089065551758,1.5843762159347534,47.64152859869321,-122.14017571045657,125.02096557617188,-3.5699119018752854,-5.8158460134326795,-1.0610396364965773,-2.073727376777442,3.9622789864929686,0.0,0.34940429805091044,4.001361755441812,0.4062241794265996,0.6374666683906552,0.5124727673101952,0.008265689795324604,0.37903442382812624,-2.073727376777442,3.9622789864929686,0.0,0.0,0.0,0.0,2.4231316748283525,0.03908276894884418,0.4062241794265996
22/04/2022,12:59:00,26.149,-0.9807190774008632,7.17094764765352,3.0390548706054688,3.0390548706054688,-0.7066912651062012,2.9486732482910156,0.21666483581066132,0,2.9486732482910156,1.5843762159347534,47.64153269240588,-122.14017702501195,125.0396957397461,-6.704839163981935,-6.244798145355619,-1.011285286509812,-3.070130080745317,3.94642892844946,0.0,-0.5724199409725621,3.9867145758651477,-0.09393163090023583,0.7061355527543632,0.6068362495121976,0.009787681443744312,0.3609451293945325,-3.070130080745317,3.94642892844946,0.0,0.0,0.0,0.0,2.497710139772755,0.04028564741568764,-0.09393163090023583
22/04/2022,12:59:00,26.304002,-1.1123167818877846,7.633122305385768,3.0887908935546875,3.0887908935546875,-0.9816938042640686,3.1285905838012695,0.4488939642906189,0,3.1285905838012695,1.5843762159347534,47.6415368684461,-122.14017871957826,125.09013366699219,-11.186881524245914,-6.337414898755944,-1.0192475619951091,0.0,0.0,0.0,2.5774932003171944,0.04157247097285753,-0.5830870811431426,0.7945275092756995,0.7309472370982384,0.011789471566098442,0.31120910644531374,0.0,0.0,0.0,0.0,0.0,0.0,2.5774932003171944,0.04157247097285753,-0.5830870811431426
22/04/2022,12:59:00,26.492001,-1.3317428352311254,8.236426876857877,3.1458587646484375,3.1458587646484375,-1.1641767024993896,3.0643935203552246,0.26317474246025085,0,3.1285905838012695,1.5843762159347534,47.641542316528884,-122.14018155897504,125.1466293334961,-0.37689318945473566,10.506567478189073,-2.9354768163176885,0.0,0.0,0.0,3.312216107337522,0.053422840440925365,-0.2844643160702766,0.9744351032093517,0.9405880343987666,0.01517077474836448,0.25414123535156374,0.0,0.0,0.0,0.0,0.0,0.0,3.312216107337522,0.053422840440925365,-0.2844643160702766
22/04/2022,12:59:00,26.638017,-1.4995734211988747,8.644566097296774,3.2201766967773438,3.2201766967773438,-1.075026273727417,2.6071066856384277,0.7157675623893738,0,3.1285905838012695,1.5843762159347534,47.641545992903716,-122.14018372940065,125.2223129272461,3.791355613694218,15.961129243085553,-2.9901322915341364,0.0,0.0,0.0,4.042310879805624,0.06519856257750771,-1.3600331346883243,1.1165132268906124,1.101793792732399,0.01777086762471569,0.1798233032226575,0.0,0.0,0.0,0.4253569748092213,0.006860596367890502,0.06942233361952545,3.6169539049964032,0.05833796620961721,-1.4294554683078498
22/04/2022,12:59:00,26.824011,-1.6853803317062557,9.070282706059515,3.358154296875,3.358154296875,-0.8949346542358398,2.0779616832733154,0.7214086651802063,0,3.1285905838012695,1.5843762159347534,47.64154977110833,-122.1401860969885,125.358154296875,5.032291786398191,16.15857084663287,-3.1366910225525104,-5.047227417124457,0.7249106150603553,0.0,-1.2910329749574276,0.7854943963856283,-1.5213824326986367,1.281537710088865,1.2806877678291695,0.02065625431982454,0.04184570312500124,-5.047227417124457,0.7249106150603553,0.0,0.46260682028408173,0.0074614003271623285,0.015115399827720272,3.293587621882948,0.05312238099811073,-1.536497832526357
22/04/2022,12:59:00,27.002002,-1.8461073121288791,9.40854344703257,3.4617996215820312,3.4617996215820312,-0.9928038120269775,1.6674957275390625,0.6812182664871216,0,3.1285905838012695,1.5843762159347534,47.6415528754498,-122.14018822618053,125.46382141113281,-13.25578885399205,10.12922047880412,-2.938163483837577,0.0,0.0,0.0,4.8767112840115745,0.07865663361308822,-1.8796908676692456,1.4374343992083414,1.4359185472320917,0.023159976568258855,-0.06179962158203001,0.0,0.0,0.0,0.4816874191976171,0.0077691519225419805,-0.020731050716364822,4.3950238648139575,0.07088748169054625,-1.858959816952881
22/04/2022,12:59:01,27.153004,-2.027881598798558,9.641232328489423,3.565704345703125,3.565704345703125,-1.2519400119781494,1.4531357288360596,0.3616895079612732,0,3.1285905838012695,1.5843762159347534,47.641554941964266,-122.14019057213429,125.56570434570312,-4.22456977236941,9.889721210380324,-2.979609008292942,0.0,0.0,0.0,7.902521665286495,0.127460026859457,-1.6692290101003304,1.6225867341561628,1.6138934880143858,0.02603054012926087,-0.16570434570312376,0.0,0.0,0.0,0.49197407519887876,0.007935065729013133,-0.05051277723044071,7.410547590087616,0.11952496113044388,-1.6187162328698896
22/04/2022,12:59:01,27.306,-2.2149759348249063,9.838465823791921,3.5965194702148438,3.5965194702148438,-1.232419729232788,1.233604907989502,0.1813499927520752,0,3.1285905838012695,1.5843762159347534,47.64155676840692,-122.14019308298288,125.59706115722656,3.1759724702899126,9.562221916691277,-3.101697552724238,0.0,0.0,-5.0,8.692103005307057,0.1401952097630161,-6.13977241529285,1.8087004738798564,1.7977588068639379,0.02899610978812639,-0.1965194702148425,0.0,0.0,-5.0,0.496279433086291,0.008004506985262306,-0.05425008677263661,8.195823572220766,0.1321907027777538,-1.0855223285202134
22/04/2022,12:59:01,27.481,-2.4298475238028914,10.039778069593012,3.5811233520507812,3.5965194702148438,-1.1194329261779785,1.0435307025909424,-0.5227872133255005,0,3.1285905838012695,1.5843762159347534,47.6415585676805,-122.14019586433639,125.58112335205078,8.074810688723394,11.940872140128262,-2.915319147599457,0.0,0.0,0.0,8.92275991676747,0.14391548252850447,1.6833886299560437,2.0177354981866564,2.0093283852232893,0.032408522342310064,-0.18112335205078,0.0,0.0,0.0,0.49791725151847677,0.008030923411588075,-0.04488287842950867,8.424842665248994,0.1358845591169164,1.7282715083855524
22/04/2022,12:59:01,27.663003,-2.605795415234752,10.19290073774755,3.4973831176757812,3.5965194702148438,-0.8333926200866699,0.705066978931427,-0.3091128170490265,0,3.1285905838012695,1.5843762159347534,47.64155998189227,-122.14019821739122,125.4964599609375,6.516798998770456,7.91669352599491,-3.507838368158849,0.0,0.0,0.0,6.175620957339227,0.09960678963450219,0.7502396040035121,2.1852163322561755,2.1827614383412324,0.0352058296506641,-0.09738311767578,0.0,0.0,0.0,0.5000729674824744,0.008065693023910662,-0.022310575852865708,5.675547989856752,0.09154109661059152,0.7725501798563778
22/04/2022,12:59:01,27.840999,-2.735824845614843,10.297385036945343,3.4446334838867188,3.5965194702148438,-0.6486721038818359,0.5219756364822388,-0.30251094698905945,0,3.1285905838012695,1.5843762159347534,47.64156091583046,-122.14019989952891,125.44463348388672,4.9386208218924965,5.209694834055752,-3.818181712707075,0.0,0.0,-5.0,5.132283281622921,0.08277876260681982,-4.287325132352699,2.311803751330664,2.311072258583315,0.03727535900940637,-0.04463348388671751,0.0,0.0,-5.0,0.5028722379010135,0.00811084254679012,-0.009711916122082304,4.629411043721907,0.0746679200600297,0.7223867837693838
22/04/2022,12:59:01,28.019002,-2.8438896680017933,10.381262734532356,3.3417434692382812,3.5965194702148438,-0.5458811521530151,0.43136826157569885,-0.9984134435653687,0,3.1285905838012695,1.5843762159347534,47.64156168123778,-122.14020132572372,125.34174346923828,5.624565920209867,5.493727759541336,-3.8116290605646013,0.0,0.0,0.0,6.402737448783045,0.10326995885133484,3.478554932809687,2.418772586223433,2.4177564614454843,0.038996071958797174,0.05825653076171999,0.0,0.0,0.0,0.5071309000061509,0.008179530645260297,0.012219463518159324,5.895606548776894,0.09509042820607455,3.466335469291528
22/04/2022,12:59:02,28.197001,-2.925057687680237,10.442913151346147,3.18994140625,3.5965194702148438,-0.35273733735084534,0.2695574164390564,-0.5069192051887512,0,3.1285905838012695,1.5843762159347534,47.641562243988595,-122.14020239714507,125.18994140625,3.538915099541204,3.3297938596414545,-4.000633743059684,0.0,0.0,0.0,4.18590339841593,0.06751457094218974,1.4508713116571252,2.5070497635507767,2.4979092681558828,0.04028885916380531,0.21005859375000124,0.0,0.0,0.0,0.5111657346852901,0.008244608623956446,0.04298585091541345,3.6747376637306397,0.059269962318233296,1.4078854607417117
22/04/2022,12:59:02,28.353001,-2.97081044211518,10.476691496558487,3.125732421875,3.5965194702148438,-0.2673446834087372,0.20099706947803497,-0.39126238226890564,0,3.1285905838012695,1.5843762159347534,47.64156255788074,-122.1402030119485,125.12455749511719,2.407382452108865,2.1903945582910618,-4.070605872794765,0.0,0.0,0.0,3.7975542317821693,0.0612508747061624,1.1852254182929935,2.558181094400967,2.5431054529789665,0.04101782988675673,0.27426757812500124,0.0,0.0,0.0,0.5143419905417269,0.008295838557124468,0.05547050041067978,3.2832122412404425,0.05295503614903794,1.1297549178823139
22/04/2022,12:59:02,28.530003,-3.0130196920363232,10.507437139749527,3.06103515625,3.5965194702148438,-0.1992570012807846,0.14825525879859924,-0.32760873436927795,0,3.1285905838012695,1.5843762159347534,47.641562837275956,-122.14020356657525,125.06005096435547,1.6526328055154793,1.4591484221386395,-4.104547063572483,-0.3578830111773565,4.987175528323685,0.0,3.234339230971368,5.045114596745438,1.094105360162057,2.6072720287747546,2.5848079567030315,0.04169045091456347,0.33896484375000124,-0.3578830111773565,4.987175528323685,0.0,0.5178940184362849,0.008353129329617187,0.06791524476047728,3.0743282237124396,0.04958593909213597,1.0261901154015798
22/04/2022,12:59:02,28.704002,-3.0454392436658964,10.544000936672091,3.0277252197265625,3.5965194702148438,-0.16402609646320343,0.44124552607536316,0.21001450717449188,0,3.1285905838012695,1.5843762159347534,47.641563165459395,-122.14020398476177,125.02772521972656,1.2723514951633044,-16.8945254048992,-4.567271728582057,-0.3981476756879787,4.984122633758549,0.0,3.0260513991190336,5.039351651094144,0.0268612606099988,2.6433160158988627,2.616629491437721,0.04220370147480068,0.37227478027343874,-0.3981476756879787,4.984122633758549,0.0,0.5213072696358307,0.008408181768319596,0.07416776043137564,2.9028918051711816,0.046820835567274885,-0.04730649982137684
22/04/2022,12:59:02,28.887,-3.0781755176139995,10.704403324052691,3.1432571411132812,3.5965194702148438,-0.1945217400789261,1.4631284475326538,1.1099194288253784,0,3.1285905838012695,1.5843762159347534,47.64156465099751,-122.14020440463612,125.14656829833984,0.849308641541805,-23.454425289859408,-4.7189960395913255,-0.4113446635199227,4.9830508293407645,0.0,3.839663557615587,5.051615478068755,-2.395736030994754,2.6595366003097864,2.6467707889770997,0.042689851435113724,0.25674285888672,-0.4113446635199227,4.9830508293407645,0.0,0.5261513707397113,0.00848631243128551,0.0510378940607421,3.724856850395798,0.0600783362967051,-2.446773925055496
22/04/2022,12:59:02,29.063004,-3.119931210298091,11.035359725356102,3.3601837158203125,3.5965194702148438,-0.23363062739372253,2.2244062423706055,1.1540707349777222,0,3.1285905838012695,1.5843762159347534,47.64156765332696,-122.14020491320807,125.36365509033203,0.5259670817988175,-22.215489288958786,-4.712464933495732,-0.16431065853883892,1.9932390743437007,0.0,4.823867486145597,2.0736935605482842,-3.275568417534959,2.6838233564000054,2.6831790037487084,0.04327708070562508,0.03981628417968874,-0.16431065853883892,1.9932390743437007,0.0,0.5318488427067636,0.00857820714043182,0.00789222211125886,4.4563293019776715,0.07187627906415195,-3.2834606396462176
22/04/2022,12:59:03,29.241006,-3.167917483136989,11.460455906577408,3.5089797973632812,3.5965194702148438,-0.24919381737709045,2.5128915309906006,0.39458784461021423,0,3.1285905838012695,1.5843762159347534,47.64157149048147,-122.14020548988486,125.51018524169922,0.37496123934549797,-7.395558231698534,-4.5993361997143465,0.0,0.0,-5.0,3.9207609015404445,0.06323807905710031,-5.988673857045577,2.7268311226431203,2.7242981895892813,0.043940293380472895,-0.10897979736328,0.0,0.0,-5.0,0.5378971743281896,0.008675760876261245,-0.0215174408163464,3.382863727212255,0.054562318180839064,-0.9671564162292311
22/04/2022,12:59:03,29.413002,-3.216776851331815,11.90693126898259,3.5049362182617188,3.5965194702148438,-0.24210453033447266,2.500993251800537,-0.4664778709411621,0,3.1285905838012695,1.5843762159347534,47.64157551191067,-122.14020607412444,125.50355529785156,0.5076140551594664,8.908775019068631,-4.1560954290659895,0.0,0.0,0.0,3.968679809566316,0.06401096467042289,0.8738160052217613,2.768294853378501,2.7659455078914377,0.044612024320827004,-0.1049362182617175,0.0,0.0,0.0,0.5448878585454111,0.008788513847506112,-0.020672305759222985,3.423791951020905,0.05522245082291677,0.8944883109809842
22/04/2022,12:59:03,29.561001,-3.252210635691881,12.237618941813707,3.44696044921875,3.5965194702148438,-0.20082904398441315,2.1313037872314453,-0.1376025229692459,0,3.1285905838012695,1.5843762159347534,47.64157848066815,-122.14020649536815,125.446533203125,0.5480792909644964,12.924220042291934,-3.5093641623137106,0.0,0.0,0.0,3.77750391795412,0.06092748254764667,0.22616391688466397,2.796795736302684,2.796037791731376,0.04509738373760186,-0.04696044921874876,0.0,0.0,0.0,0.5504380305461463,0.008878032750744102,-0.00924480250516362,3.227065887407974,0.05204944979690257,0.2354087193898276
22/04/2022,12:59:03,29.741015,-3.2877622036030516,12.576275270432234,3.4372177124023438,3.5965194702148438,-0.15885411202907562,1.709501028060913,-0.03407047316431999,0,3.1285905838012695,1.5843762159347534,47.641581519644134,-122.14020691695998,125.4371109008789,0.5153376522187257,12.341917244110293,-3.0895371561744036,-0.2694823411521774,4.992732645336334,0.0,3.4323737226741278,5.052440001204498,0.024165336986970782,2.8267319338144423,2.8261193352102296,0.04558256992274501,-0.03721771240234251,-0.2694823411521774,4.992732645336334,0.0,0.5563853408011247,0.008973957109695436,-0.0073271462180754645,3.1454707230251806,0.05073339875846846,0.031492483205046246
22/04/2022,12:59:03,29.909001,-3.316575908102095,12.854826167225838,3.3998641967773438,3.5965194702148438,-0.14129555225372314,1.6041542291641235,-0.3132250905036926,0,3.1285905838012695,1.5843762159347534,47.64158402555877,-122.14020725869615,125.3989028930664,0.4220101771462623,-6.553182642233376,-3.0426045063727503,0.0,0.0,-1.0,3.745856802697506,0.0604170452047942,-0.3524161896874075,2.8508047011322515,2.850433957965267,0.04597474125750267,0.00013580322265749345,0.0,0.0,-1.0,0.5615140505308243,0.00905667823436781,2.6752213436294508e-05,3.184342752166682,0.05136036697042639,0.6475570580991562
22/04/2022,12:59:03,30.061,-3.340626396238804,13.10915944352746,3.3535308837890625,3.5965194702148438,-0.1401529759168625,1.7376093864440918,-0.6105511784553528,0,3.1285905838012695,1.5843762159347534,47.6415862729677,-122.14020753565852,125.35353088378906,0.3761812862828727,0.7555813719626626,-2.9051217784672154,0.0,0.0,-5.0,4.003526325117445,0.06457300524382893,-3.5827716042553788,2.87112651760082,2.8703771083597553,0.04629640497354259,0.04646911621093874,0.0,0.0,-5.0,0.5659586670202371,0.009128365597100233,0.00916241945762311,3.4375676580972074,0.0554446396467287,1.408065976286998
22/04/2022,12:59:04,30.239999,-3.367546333814971,13.405314780771732,3.1781539916992188,3.5965194702148438,-0.1291864663362503,1.647654414176941,-1.4262205362319946,0,3.1285905838012695,1.5843762159347534,47.64158898452227,-122.1402078554734,125.17389678955078,0.46483451669600623,9.675975665776194,-2.7861386001795703,0.0,0.0,0.0,7.037387691941655,0.11350625309583016,6.4608968977092625,2.9013846415977063,2.892514587978388,0.04665346109642421,0.2218460083007825,0.0,0.0,0.0,0.5714844974703843,0.00921749189468334,0.04383091276237693,6.465903194471271,0.10428876120114683,6.417065984946886
22/04/2022,12:59:04,30.412002,-3.3901473951991647,13.660838483832777,2.9551162719726562,3.5965194702148438,-0.0927150696516037,1.2320579290390015,-0.7683355212211609,0,3.1285905838012695,1.5843762159347534,47.641591274531315,-122.14020811717053,124.9527816772461,0.31060792839955653,9.029577481652908,-2.7617788272783828,0.0,0.0,-5.0,4.536108595293815,0.07316304185957294,-2.345533553513416,2.945163119202944,2.910989493146413,0.046951443437842855,0.444883728027345,0.0,0.0,-5.0,0.577653198301151,0.009316987069372906,0.08828218341982506,3.9584553969926635,0.06384605479020003,2.5661842630667593
22/04/2022,12:59:04,30.594003,-3.407221691100858,13.859475331380963,2.805145263671875,3.5965194702148438,-0.07542958855628967,1.0169792175292969,-1.2290520668029785,0,3.1285905838012695,1.5843762159347534,47.641593030006895,-122.14020831142044,124.80514526367188,0.3096630794073214,10.467287939345281,-2.7407986673747184,0.0,0.0,0.0,6.702767245138443,0.10810914911512996,6.258148097240351,2.985106762439893,2.924856361520437,0.04717510260516633,0.5948547363281262,0.0,0.0,0.0,0.5835768843704016,0.009412530393070592,0.11868735786358,6.119190360768041,0.09869661872205937,6.139460739376771
22/04/2022,12:59:04,30.766002,-3.4198285824386403,14.00762400124222,2.619415283203125,3.5965194702148438,-0.04789695888757706,0.6558226943016052,-0.5682120323181152,0,3.1285905838012695,1.5843762159347534,47.64159438186289,-122.14020845929888,124.61769104003906,0.1833958635698147,6.750133431900171,-2.7507524203116893,0.0,0.0,0.0,4.327210889958796,0.06979372403159034,2.536922766682282,3.037465379099237,2.935071100862709,0.047339856465526964,0.7805847167968762,0.0,0.0,0.0,0.5910464432753181,0.009533007149601784,0.15718931660710247,3.7361644466834787,0.06026071688198856,2.3797334500751792
22/04/2022,12:59:04,30.942999,-3.427891702973284,14.10353901796043,2.5501480102539062,3.5965194702148438,-0.03381378948688507,0.4670839011669159,-0.3246484398841858,0,3.1285905838012695,1.5843762159347534,47.64159524045669,-122.14020855191141,124.5491714477539,0.11207604342298008,4.371759728941313,-2.7544927270780106,0.0,0.0,-5.0,3.92766607844092,0.06334945287807582,-3.159540259617454,3.0622581112725715,2.9415855103031876,0.04744492758553598,0.849851989746095,0.0,0.0,-5.0,0.5954377561638621,0.009603834776836627,0.17202762254348053,3.3322283222770577,0.05374561810123919,1.6684321178390653
22/04/2022,12:59:05,31.118,-3.4342341762967408,14.179364312440157,2.447021484375,3.5965194702148438,-0.027754660695791245,0.3845985233783722,-0.9938655495643616,0,3.1285905838012695,1.5843762159347534,47.64159591065906,-122.14020862379142,124.447021484375,0.11296497401927522,4.547777429877362,-2.753041140820834,0.0,0.0,0.0,6.14765261062583,0.09915568726815785,5.649696069352826,3.097335854112909,2.9467036635405415,0.047527478444200355,0.9529785156250012,0.0,0.0,0.0,0.6013927325383339,0.00969988278287596,0.19449337938292474,5.546259878087496,0.08945580448528188,5.4552026899699015
22/04/2022,12:59:05,31.266002,-3.438177741598338,14.226623397320509,2.3165359497070312,3.5965194702148438,-0.018811600282788277,0.2615097165107727,-0.591647207736969,0,3.1285905838012695,1.5843762159347534,47.64159634330405,-122.14020867007112,124.31475067138672,0.07387595981833348,3.0440120231435284,-2.7550802959314176,0.0,0.0,0.0,4.708239032231861,0.0759393392295449,3.3426110079337015,3.1429245353257493,2.94988415814568,0.04757877674428279,1.08346405029297,0.0,0.0,0.0,0.6094172868783959,0.009829311078683314,0.22383310210217805,4.098821745353464,0.06611002815086159,3.1187779058315233
22/04/2022,12:59:05,31.411002,-3.440871953498572,14.258996102027595,2.2453460693359375,3.5965194702148438,-0.013861955143511295,0.19317324459552765,-0.43247655034065247,0,3.1285905838012695,1.5843762159347534,47.64159663295862,-122.14020870095486,124.24404907226562,0.04767287590196287,1.9797710209923982,-2.7560681777296367,0.0,0.0,0.0,4.360497729926323,0.07033060854719647,2.784515997018053,3.1701932782351823,2.95205566473935,0.047613801044182225,1.1546539306640637,0.0,0.0,0.0,0.614810230216282,0.009916294035746308,0.2404741405831138,3.7456874997100402,0.06041431451145016,2.544041856434939
22/04/2022,12:59:05,31.562003,-3.4429898670641705,14.284489812329412,2.1854782104492188,3.5965194702148438,-0.010647348128259182,0.14862583577632904,-0.36644721031188965,0,3.1285905838012695,1.5843762159347534,47.64159685731913,-122.14020872482945,124.18547821044922,0.032802570823339344,1.377931747250628,-2.7564303975610405,0.0,0.0,0.0,4.273529782250186,0.06892789971371073,2.650369332027615,3.1940636349002043,2.953761945547529,0.04764132170237545,1.2145217895507825,0.0,0.0,0.0,0.6198228098444961,0.009997142094265216,0.2548574739922685,3.65370697240569,0.05893075761944551,2.3955118580353467
22/04/2022,12:59:05,31.737003,-3.4449219949310645,14.307768643833697,2.1252365112304688,3.5965194702148438,-0.007986517623066902,0.11162485182285309,-0.3027031719684601,0,3.1285905838012695,1.5843762159347534,47.64159706996785,-122.14020874743757,124.12432861328125,0.02280433220800254,0.9674834145615542,-2.756600370893232,0.0,0.0,0.0,4.201083687620479,0.067759414316457,2.5351443279528185,3.2188817505929523,2.9553182035363648,0.047666422637682615,1.2747634887695325,0.0,0.0,0.0,0.6253183009472493,0.010085779047536133,0.26972829455491265,3.5757653866732304,0.05767363526892087,2.265416033397906
22/04/2022,12:59:05,31.887,-3.4460990948136896,14.321968013420701,2.0854873657226562,3.5965194702148438,-0.006449548527598381,0.09019985795021057,-0.2603313624858856,0,3.1285905838012695,1.5843762159347534,47.64159719724703,-122.14020876094348,124.08470153808594,0.017852926447143737,0.761489692973512,-2.756663228913793,0.0,0.0,0.0,4.156856315188705,0.06704606959981523,2.4622810301436853,3.2356955789150086,2.9562660347546785,0.04768171023797585,1.314512634277345,0.0,0.0,0.0,0.629210104239198,0.010148550068373558,0.2797801760442805,3.5276462109495066,0.05689751953144166,2.1825008540994046
22/04/2022,12:59:05,32.064002,-3.4472646325593814,14.33604153059423,2.0433807373046875,3.5965194702148438,-0.004966455511748791,0.06949350982904434,-0.21528273820877075,0,3.1285905838012695,1.5843762159347534,47.64159732341886,-122.14020877432368,124.04273986816406,0.01349459953538836,0.578111650640207,-2.7567084303395863,0.0,0.0,0.0,4.113087544735094,0.06634012168927338,2.3880407504393135,3.2538820351779507,2.9572043361928273,0.04769684413214215,1.3566192626953137,0.0,0.0,0.0,0.6335752444834098,0.01021895555618398,0.2906530233685687,3.4795123002516837,0.0561211661330894,2.097387727070745
22/04/2022,12:59:06,32.243001,-3.4481777698965743,14.347066845744848,2.0080337524414062,3.5965194702148438,-0.0038217983674257994,0.05349399521946907,-0.1774202436208725,0,3.1285905838012695,1.5843762159347534,47.64159742227192,-122.14020878480356,124.00750732421875,0.010317204250883723,0.44315458978754896,-2.756737067039661,0.0,0.0,0.0,4.078834983025458,0.06578766101653793,2.328224493984412,3.269442149928571,2.9579394546284137,0.047708700881100796,1.391966247558595,0.0,0.0,0.0,0.6374393074792014,0.010281279152889775,0.29997030516962975,3.4413956755462562,0.05550638186364817,2.0282541888147825
22/04/2022,12:59:06,32.422003,-3.4488708140561357,14.355436015874147,1.9793472290039062,3.5965194702148438,-0.002958096796646714,0.041413407772779465,-0.14671359956264496,0,3.1285905838012695,1.5843762159347534,47.641597497323644,-122.14020879276016,123.9789047241211,0.007980315890562351,0.34330148234599495,-2.756745152426799,0.0,0.0,0.0,4.052735678217871,0.06536670448738303,2.281452953792142,3.2822611025528423,2.958497367034483,0.047717699468295294,1.420652770996095,0.0,0.0,0.0,0.6407120892516499,0.010334065955671162,0.30766611968238555,3.412023588966221,0.05503263853171187,1.9737868341097564
22/04/2022,12:59:06,32.591001,-3.4493995216907933,14.361821761354804,1.9559783935546875,3.5965194702148438,-0.002300441265106201,0.03221113607287407,-0.12176495045423508,0,3.1285905838012695,1.5843762159347534,47.641597554566694,-122.14020879883638,123.95561218261719,0.0062166806786627836,0.26768585408355566,-2.7567617735784986,0.0,0.0,0.0,4.032654446633455,0.06504281365537791,2.2446455501700475,3.292825711266761,2.958922968056024,0.04772456400090164,1.4440216064453137,0.0,0.0,0.0,0.6434696675258147,0.010378543024609483,0.3140278111430259,3.38918477910764,0.054664270630768425,1.9306177390270216
22/04/2022,12:59:06,32.768999,-3.4498108176048845,14.366788289509714,1.93658447265625,3.5965194702148438,-0.0017888968577608466,0.025051508098840714,-0.10112479329109192,0,3.1285905838012695,1.5843762159347534,47.64159759909487,-122.14020880355426,123.936279296875,0.004846608961814399,0.20882337928651437,-2.756773500628585,0.0,0.0,0.0,4.016806939518139,0.0647872087019038,2.21501401884988,3.301673487081997,2.9592540725418917,0.0477299043958368,1.4634155273437512,0.0,0.0,0.0,0.6458207331931062,0.01041646343859845,0.31937240455447186,3.370986206325033,0.05437074526330535,1.8956416142954082
22/04/2022,12:59:06,32.942005,-3.4501306952442974,14.37064953520894,1.9204635620117188,3.5965194702148438,-0.00139078579377383,0.019478537142276764,-0.08411426842212677,0,3.1285905838012695,1.5843762159347534,47.64159763318797,-122.14020880716998,123.92046356201172,0.003778274908721073,0.1628599811874385,-2.756777530971345,0.0,0.0,0.0,4.004342887984276,0.06458617561264517,2.1913124112553994,3.309080771444367,2.959511605028901,0.04773405814562537,1.4795364379882825,0.0,0.0,0.0,0.6478177763485802,0.01044867381207342,0.323860870711101,3.3565251116356953,0.05413750180057175,1.8674515405442984
22/04/2022,12:59:07,33.118005,-3.4503827485023066,14.373699189163744,1.9068374633789062,3.5965194702148438,-0.0010762508027255535,0.015074903145432472,-0.0697607547044754,0,3.1285905838012695,1.5843762159347534,47.64159766105391,-122.1402088101235,123.90663146972656,0.0029309150095225083,0.12639714926995746,-2.756780097435204,0.0,0.0,0.0,3.994181286712978,0.06442227881795014,2.171675818753888,3.3153766975844663,2.9597144175590935,0.04773732931546881,1.493162536621095,0.0,0.0,0.0,0.6495353479506266,0.01047637657984872,0.32768764513803267,3.3446459387623513,0.05394590223810142,1.843988173615855
22/04/2022,12:59:07,33.397001,-3.450664183823392,14.377106180414557,1.890228271484375,3.5965194702148438,-0.0007243053987622261,0.010146724060177803,-0.052431702613830566,0,3.1285905838012695,1.5843762159347534,47.641597691603515,-122.14020881334773,123.89006805419922,0.0019789081391186586,0.0853876072815605,-2.7567819207669673,0.0,0.0,0.0,3.9824536683340552,0.06423312368280555,2.1486367901750687,3.323091883269588,2.9599408425049196,0.04774098133072435,1.5097717285156262,0.0,0.0,0.0,0.6516649126321875,0.010510724397293314,0.3323935557864269,3.330788755701868,0.05372239928551224,1.8162432343886417
22/04/2022,12:59:07,33.547001,-3.4507819585269317,14.378525392152369,1.8826522827148438,3.5965194702148438,-0.0005774531746283174,0.0080901263281703,-0.04463076591491699,0,3.1285905838012695,1.5843762159347534,47.64159770433144,-122.14020881470121,123.88251495361328,0.0015801565226097648,0.06819761354497592,-2.756782656060733,0.0,0.0,0.0,3.9774041051582203,0.06415167911545298,2.1385774162109215,3.3266251366462356,2.9600357020192662,0.047742511322889314,1.5173477172851575,0.0,0.0,0.0,0.652649129702597,0.010526598866170462,0.33455531177101144,3.3247549754556234,0.053625080249282524,1.8040221044399098
22/04/2022,12:59:07,33.697999,-3.4508688026107848,14.37957859504968,1.8766555786132812,3.5965194702148438,-0.0004683937004301697,0.006562686525285244,-0.038526710122823715,0,3.1285905838012695,1.5843762159347534,47.64159771359402,-122.14020881567764,123.87665557861328,0.0012831524682819391,0.055396963162621944,-2.756783021699017,0.0,0.0,0.0,3.9735713775203947,0.0640898609277489,2.130885129408065,3.3294267515204172,2.9601055407913592,0.047743637754699364,1.52334442138672,0.0,0.0,0.0,0.6534332248625486,0.010539245562299175,0.33627309706564884,3.320138152657846,0.05355061536544972,1.7946120323424162
22/04/2022,12:59:07,33.866004,-3.450953351217322,14.380588383413851,1.8704910278320312,3.5965194702148438,-0.0003636582405306399,0.0050956448540091515,-0.03233254328370094,0,3.1285905838012695,1.5843762159347534,47.64159772283055,-122.1402088166686,123.87039184570312,0.0009974835383910429,0.04307353747306985,-2.756783390010503,0.0,0.0,0.0,3.969807943871857,0.06402916038502793,2.1232717416672555,3.3323124241025397,2.9601737847354297,0.04774473846347327,1.52950897216797,0.0,0.0,0.0,0.6542445310469139,0.010552331145917658,0.3380453152406786,3.315563412824943,0.05347682923911027,1.7852264264265771
22/04/2022,12:59:07,34.017,-3.4510079202009365,14.381252424791455,1.8661422729492188,3.5965194702148438,-0.00029489491134881973,0.004132439382374287,-0.028031863272190094,0,3.1285905838012695,1.5843762159347534,47.641597728666895,-122.1402088172825,123.86614227294922,0.0008097553726053316,0.03496599942299828,-2.756783385015194,0.0,0.0,0.0,3.9672824115099306,0.06398842599209378,2.1181361636051914,3.33434964918618,2.960217631967576,0.047745445676895315,1.5338577270507825,0.0,0.0,0.0,0.6548190884116606,0.010561598200187835,0.33929914737822103,3.31246332309827,0.05342682779190595,1.7788370162269704
22/04/2022,12:59:08,34.194002,-3.451060466701165,14.3818976636976,1.861572265625,3.5965194702148438,-0.00022788811475038528,0.003193757263943553,-0.023579714819788933,0,3.1285905838012695,1.5843762159347534,47.64159773456838,-122.14020881789642,123.86149597167969,0.0006262013752914382,0.027051112521751502,-2.7567833812091878,0.0,0.0,0.0,3.964752088528286,0.06394761433109732,2.112965087821912,3.336491785630341,2.9602597604291354,0.047746125168210085,1.5384277343750012,0.0,0.0,0.0,0.6554248072087716,0.010571367858205602,0.34062000730003184,3.3093272813195145,0.053376246472891714,1.7723450805218801
22/04/2022,12:59:08,34.371001,-3.4511019486235455,14.382396772503853,1.8577194213867188,3.5965194702148438,-0.00017608336929697543,0.0024679936468601227,-0.019931357353925705,0,3.1285905838012695,1.5843762159347534,47.64159773904985,-122.14020881837013,123.85765838623047,0.0004840413901992748,0.020921565210107993,-2.756783378917169,0.0,0.0,0.0,3.96279132140623,0.06391598905493774,2.1089379810516236,3.338299695874803,2.9602931835146085,0.0477466642502371,1.5422805786132825,0.0,0.0,0.0,0.6559375029248422,0.010579637143949395,0.34173631084202544,3.306853818481388,0.05333635191098835,1.767201670209598
22/04/2022,12:59:08,34.551004,-3.451134984032251,14.382788822986186,1.8544082641601562,3.5965194702148438,-0.00013545091496780515,0.001898644957691431,-0.01688859984278679,0,3.1285905838012695,1.5843762159347534,47.64159774250216,-122.14020881874718,123.85440826416016,0.0003725558166852334,0.016106292874250815,-2.7567837552286836,4.89802071324091,2.2381673513531126,0.0,8.859273269201223,2.302058521610534,2.1057653462625945,3.339854404267462,2.96031988858123,0.04774709497711527,1.545591735839845,4.89802071324091,2.2381673513531126,0.0,0.6563793747412927,0.010586764108730228,0.3426976054476585,3.3048731812190213,0.05330440614869151,1.763067740814936
22/04/2022,12:59:08,34.701998,-3.445073287934065,14.386502190493047,1.8629226684570312,3.5965194702148438,0.19905942678451538,0.10850603133440018,0.3350639343261719,0.19905942678451538,3.1285905838012695,1.5843762159347534,47.64159777530556,-122.1402087375046,123.86292266845703,15.306090559091015,-6.637849486500375,-3.4871172513414335,4.869094276677416,2.3004175544511973,0.0,8.048186381788755,2.3516932335658947,1.1975709069915463,3.330491568973084,2.9541998915495387,0.0476483853475731,1.53707733154297,4.869094276677416,2.3004175544511973,0.0,0.652422267982427,0.010522939806168153,0.3394568802125437,2.5266698371289125,0.04075273930852903,0.8581140267790026
22/04/2022,12:59:08,34.883,-3.3335738610476255,14.444145323708653,1.9970550537109375,3.5965194702148438,1.1652847528457642,0.5762834548950195,1.192702054977417,1.1652847528457642,3.1285905838012695,1.5843762159347534,47.64159828278138,-122.14020724469437,123.99705505371094,23.928381308515235,-9.949480493275274,-4.466873231938244,4.829047261898036,2.383338528693539,-1.0,6.3785722743823445,2.4083308676045694,-2.615598382826983,3.1695713469625715,2.8417999770603735,0.045835483500972884,1.4029449462890637,4.829047261898036,2.383338528693539,-1.0,0.5917349979054299,0.009544112869442236,0.2921288027148703,0.9577900145788789,0.01544822604158831,-1.9077271855418532
22/04/2022,12:59:08,35.055001,-3.0686088950606063,14.577900365926325,2.2040481567382812,3.5965194702148438,1.84033203125,0.9070039987564087,0.996966540813446,1.84033203125,3.1285905838012695,1.5843762159347534,47.64159948407927,-122.14020362427746,124.20704650878906,24.95150046767679,-10.035564286119014,-6.128034861760024,4.8646785613436885,1.5280387739854957,0.0,3.4214497264044668,1.5047608895509885,-1.1366047303632767,2.8392513552551994,2.574747144323937,0.041528179747158944,1.19595184326172,4.8646785613436885,1.5280387739854957,0.0,0.5070252755089313,0.008177827024337338,0.23550965544789723,-1.9502541104481526,-0.03145571145884457,-1.372114385811174
22/04/2022,12:59:09,35.205999,-2.7474271410610527,14.73930490668863,2.355712890625,3.5965194702148438,2.5155787467956543,1.2086201906204224,1.1447184085845947,2.5155787467956543,3.1285905838012695,1.5843762159347534,47.64160091229116,-122.1401992978324,124.3591537475586,21.50147561217505,-4.8745560494291365,-7.324722078320916,0.0,0.0,0.0,-2.40037913950773,-0.03871579257270533,-1.0504936182969316,2.481746003756489,2.2510463006564345,0.03630719839768304,1.0442871093750012,0.0,0.0,0.0,0.4636617018789778,0.00747841454643484,0.2150981693454699,-2.8640408413867076,-0.04619420711914017,-1.2655917876424014
22/04/2022,12:59:09,35.385521,-2.2817960693500936,14.963534150272608,2.5058441162109375,3.5965194702148438,2.7610278129577637,1.2726659774780273,0.42953673005104065,2.7610278129577637,3.1285905838012695,1.5843762159347534,47.641602884950835,-122.14019305612659,124.50715637207031,0.7881782069931196,2.1352896866598274,-7.651185441722646,2.9732909786755037,0.39942553264265324,0.0,-1.900701341059746,0.32081275329208525,0.2736108134198655,1.9938861655868019,1.7819206692496379,0.028740655955639127,0.8941558837890637,2.9732909786755037,0.39942553264265324,0.0,0.4468461185398627,0.007207195460320318,0.22422439614496037,-5.320838438275112,-0.08581997481088832,0.049386417274905094
22/04/2022,12:59:09,35.557538,-1.8065850216662511,15.183515410870314,2.537384033203125,3.5965194702148438,2.7222888469696045,1.177992820739746,0.0630580261349678,2.7610278129577637,3.1285905838012695,1.5843762159347534,47.641604814124214,-122.14018669909414,124.53756713867188,-0.8833891193963312,4.559445420188874,-8.58807192060267,4.645278459243203,2.7242224645008526,-2.0,-2.961109739494665,2.6015387838760415,-0.31549342428017524,1.5630427728292848,1.3032860514463225,0.021020742765262668,0.8626159667968762,4.645278459243203,2.7242224645008526,-2.0,0.4099502957363544,0.006612101544134561,0.27133695653601136,-8.016338494474223,-0.12929578216894558,1.4131696191838135
22/04/2022,12:59:09,35.732819,-1.3240277918521315,15.38984356727451,2.522430419921875,3.5965194702148438,2.772786855697632,1.1383756399154663,-0.4499819874763489,2.772786855697632,3.1285905838012695,1.5843762159347534,47.641606590484066,-122.14018035363826,124.52243041992188,8.923041123843923,-2.8997191913374283,-11.147177842359884,4.51900922332109,2.928917144532927,-1.0,-11.26611290518362,2.6743184005247778,5.332967313665913,1.1994386808758473,0.8175273161790829,0.013185924454500508,0.8775695800781262,4.51900922332109,2.928917144532927,-1.0,0.3058247961492956,0.004932658002407683,0.3282857130555201,-16.090946924654006,-0.2595314020105571,6.004681600610392
22/04/2022,12:59:09,35.907809,-0.8272771271876991,15.60501731839031,2.40142822265625,3.5965194702148438,3.0012621879577637,1.3236044645309448,-0.7615776658058167,3.0012621879577637,3.1285905838012695,1.5843762159347534,47.64160851238739,-122.14017358909024,124.3991470336914,12.209307867823302,-6.018941706614811,-16.425348554325158,0.0,0.0,0.0,-37.47392794665458,-0.6044181926879926,16.952299622045157,1.047825153205669,0.3174362036851277,0.005119938769112764,0.9985717773437512,0.0,0.0,0.0,0.12532106871425178,0.0020213075599064185,0.39422750420975955,-37.59924901536883,-0.6064395002478989,16.558072117835398
22/04/2022,12:59:09,36.085811,-0.29175064573064446,15.857813768088818,2.2715072631835938,3.5965194702148438,3.085789918899536,1.4684240818023682,-0.49070557951927185,3.085789918899536,3.1285905838012695,1.5843762159347534,47.64161073727211,-122.14016641916541,124.27001190185547,-6.1532517967939855,-0.7398416119665338,-20.050780750160474,0.0,0.0,0.0,-54.249670057453294,-0.8749946783460569,18.17793019588324,1.150132515627971,-0.22202730076278532,-0.003581085496175973,1.1284927368164075,0.0,0.0,0.0,-0.08467265614463532,-0.0013656880023335967,0.4303636405878874,-54.16499740130866,-0.8736289903437233,17.74756655529535
22/04/2022,12:59:10,36.260815,0.2125483382260427,16.107886233367026,2.2617721557617188,3.5965194702148438,2.5481767654418945,1.2489697933197021,0.4212912917137146,3.085789918899536,3.1285905838012695,1.5843762159347534,47.64161289721407,-122.14015979244708,124.26177215576172,-15.837582818383726,0.6175623011893416,-22.439683566488974,-1.9085531685197434,4.6214093957291045,0.0,-33.68421600679613,4.108898704789155,1.9867086838018317,1.3523806983354805,-0.7302275054901596,-0.011777862991777965,1.1382278442382825,-1.9085531685197434,4.6214093957291045,0.0,-0.2553122970104646,-0.004117940274362751,0.39796305021224826,-31.52035054126592,-0.508392750665586,1.5887456335895835
22/04/2022,12:59:10,36.43981,0.6032570276875049,16.32103252131492,2.3842697143554688,3.5965194702148438,1.7745394706726074,1.256813645362854,1.0545320510864258,3.085789918899536,3.1285905838012695,1.5843762159347534,47.64161480963229,-122.140154488468,124.38741302490234,-16.858996589615057,-16.824705073447127,-18.22390880155106,-1.5636565129342834,4.749208177113128,0.0,-15.50154988842876,4.524403445250316,-2.8217432275868317,1.515263444335534,-1.1242715294544325,-0.01813341176539751,1.0157302856445325,-1.5636565129342834,4.749208177113128,0.0,-0.36253134921931773,-0.005847279826119137,0.327531260243089,-13.57536202627516,-0.2189574520366933,-3.1492744878299206
22/04/2022,12:59:10,36.584809,0.8001098395325243,16.538230835460126,2.5785980224609375,3.5965194702148438,0.9636058211326599,1.8061243295669556,1.6615638732910156,3.085789918899536,3.1285905838012695,1.6615638732910156,47.64161675877526,-122.14015186831988,124.58356475830078,-13.942864958878507,-23.395241783460854,-16.716212342792634,-1.438157663044126,4.788705726626711,-1.0,-7.808304153542158,4.685961428392857,-5.240674356439267,1.558735932939798,-1.324575431719519,-0.021364119866447595,0.8214019775390637,-1.438157663044126,4.788705726626711,-1.0,-0.41758639980523177,-0.006735264512988787,0.258955652037239,-5.9525600906928,-0.09600903372086468,-4.4996300084765055
22/04/2022,12:59:10,36.748811,0.9159380323253572,16.86569589562714,2.8216171264648438,3.5965194702148438,0.5978575348854065,2.1580967903137207,1.0593955516815186,3.085789918899536,3.1285905838012695,1.6615638732910156,47.64161970293668,-122.14015029291295,124.82482147216797,-10.317549017399394,-25.28819300185372,-18.09408955929181,-1.2423135038347475,3.802191099641078,-1.0,-4.479307087151046,3.7499815257166196,-2.397830140510605,1.5572364627624984,-1.4456538210110679,-0.023316997113081328,0.5783828735351575,-1.2423135038347475,3.802191099641078,-1.0,-0.4561149016864937,-0.007356691962685253,0.1824842459968294,-2.780878681629804,-0.04485288196177359,-1.5803143865074345
22/04/2022,12:59:10,36.912809,0.9913345214445144,17.243829494342208,2.9277725219726562,3.5965194702148438,0.3694300353527069,2.4132893085479736,0.18694892525672913,3.085789918899536,3.1285905838012695,1.6615638732910156,47.641623104287056,-122.14014924254484,124.92835998535156,-6.977555970560505,-20.218692921547625,-23.539481132877775,0.0,0.0,0.0,-2.9896177767521017,-0.04821964156052143,0.2514377240032379,1.5986636746547633,-1.527128043974494,-0.02463109748346426,0.472227478027345,0.0,0.0,0.0,-0.4714513323368909,-0.007604053747370652,0.1457849422388055,-2.5181664444152108,-0.04061558781315078,0.10565278176443238
22/04/2022,12:59:10,37.081808,1.030893185758032,17.67145175486803,2.9070281982421875,3.5965194702148438,0.11810270696878433,2.5433285236358643,-0.14436613023281097,3.085789918899536,3.1285905838012695,1.6615638732910156,47.641626882550625,-122.1401486676493,124.90702819824219,-7.384304622729875,-1.1979434310057018,-29.860712486588127,0.0,0.0,0.0,-2.783258470559229,-0.04489126565418082,1.1028321594812258,1.6491796243304073,-1.5735717593902971,-0.025380189667586706,0.49297180175781374,0.0,0.0,0.0,-0.472957358115531,-0.007628344485734752,0.1481690552677229,-2.310301112443698,-0.03726292116844607,0.9546631042135029
22/04/2022,12:59:11,37.226811,1.0313598186476156,18.023124227300286,2.9216842651367188,3.5965194702148438,-0.03623133897781372,2.298780918121338,0.31727930903434753,3.085789918899536,3.1285905838012695,1.6615638732910156,47.64163010845908,-122.14014861093385,124.92262268066406,-8.136837585778105,7.790097178089316,-32.82734708293998,0.0,0.0,-1.0,-2.927512493604824,-0.047217943445239045,-1.0987220451936086,1.650731789741483,-1.5797089323729654,-0.025479176328595088,0.4783157348632825,0.0,0.0,-1.0,-0.47441011543206896,-0.007651776055355612,0.1436453376563487,-2.453102378172755,-0.03956616738988343,-0.24236738284995732
22/04/2022,12:59:11,37.399809,1.0173889239085838,18.393424784764647,2.9408187866210938,3.5965194702148438,-0.06714434921741486,2.061187267303467,-0.29817256331443787,3.085789918899536,3.1285905838012695,1.6615638732910156,47.6416334349012,-122.14014874351346,124.93994903564453,-8.531607597501747,10.93796480995447,-36.001943944858425,-1.321069399595042,5.220610657907137,-1.0,-3.8407531674781157,5.179970597134828,0.5736954097683372,1.6376113257984806,-1.5717127074538373,-0.025350204958936473,0.4591812133789075,-1.321069399595042,5.220610657907137,-1.0,-0.47531207218259475,-0.007666323744881653,0.1388640385761194,-2.044371695700479,-0.03297373702742781,1.4348313711922178
