date,fly_time,fly_time_s,x,y,z,z_max,vx,vy,vz,vx_max,vy_max,vz_max,latitude,longitude,altitude,pitch,roll,yaw,cx,cy,cz,scx,scy,scz,d,dx,dy,dz,gc_pow_x,gc_pow_y,gc_pow_z,gpc_pow_x,gpc_pow_y,gpc_pow_z,gfc_pow_x,gfc_pow_y,gfc_pow_z
14/04/2022,21:37:02,37.081411,0.0,0.0,1.54473876953125,1.54473876953125,0.0,0.0,-0.0030525201000273228,0,0,0,47.641468,-122.140165,123.54473876953125,0.0,0.0,3.1216618007597932e-06,0.0,0.0,0.0,-0.4119530897843545,-0.00664440467394132,2.9704768968484125,1.8731188449408709,-0.25799739921976594,-0.004161248374512427,1.8552612304687512,0.0,0.0,0.0,-0.0688402662935136,-0.001110326875701852,0.49503087060466694,-0.34311282349084093,-0.005534077798239468,2.4754460262437457
14/04/2022,21:37:02,37.261409,0.0,0.0,1.544189453125,1.54473876953125,0.0,0.0,-0.0030465666204690933,0,0,0,47.641468,-122.140165,123.54418182373047,0.0,0.0,3.170099867447861e-06,0.0,0.0,0.0,-0.4118378854052135,-0.006642546538793884,2.9705072355650404,1.873662925898009,-0.25799739921976594,-0.004161248374512427,1.8558105468750012,0.0,0.0,0.0,-0.06882063648946393,-0.0011100102659591152,0.49503624232663535,-0.34301724891574953,-0.005532536272834768,2.475470993238405
14/04/2022,21:37:02,37.452409,0.0,0.0,1.543609619140625,1.54473876953125,0.0,0.0,-0.0030417342204600573,0,0,0,47.641468,-122.140165,123.5436019897461,0.0,0.0,3.220959837470332e-06,0.0,0.0,0.0,-0.4117158165380026,-0.006640577686096934,2.9705392449318406,1.874237236888494,-0.25799739921976594,-0.004161248374512427,1.8563903808593762,0.0,0.0,0.0,-0.06879992503467669,-0.0011096762102367403,0.4950418857882619,-0.3429158915033259,-0.005530901475860194,2.4754973591435787
14/04/2022,21:37:02,37.647408,0.0,0.0,1.54302978515625,1.54473876953125,0.0,0.0,-0.003037689020857215,0,0,0,47.641468,-122.140165,123.54301452636719,0.0,0.0,3.272627108604271e-06,1.7135435470549965e-07,2.999999999999995,0.0,-0.41159335033617056,2.9933613948114384,2.9705711731359847,1.8748115512789667,-0.25799739921976594,-0.004161248374512427,1.8569702148437512,1.7135435470549965e-07,2.999999999999995,0.0,-0.06877922272147845,-0.0011093423019593494,0.4950475019521242,-0.3428142989690468,-0.005529262886597627,2.4755236711838604
14/04/2022,21:37:03,37.843776,-0.0001333506079390645,0.012024270370602608,1.5664443969726562,1.5664443969726562,1.421628681441689e-08,0.24640674889087677,0.43257519602775574,1.421628681441689e-08,0.24640674889087677,0.43257519602775574,47.64146811472249,-122.140165,123.5677261352539,1.3690036691459105e-09,-12.183134866867652,3.30939185068105e-06,2.3103913613221133e-07,3.9999999999999933,0.0,-0.6010727169188732,3.990305275032928,2.4295142909928362,1.8516310082698098,-0.25805797269858505,-0.00416222536610622,1.833555603027345,2.3103913613221133e-07,3.9999999999999933,0.0,-0.06963844387299348,-0.0011232007076289296,0.49479563686478806,-0.5314345040850159,-0.008571524259436235,1.9347186541280483
14/04/2022,21:37:03,38.031766,-0.00134597800206393,0.12136798817664385,1.7099990844726562,1.7099990844726562,5.5613039506852147e-08,0.9592048525810242,1.0281161069869995,5.5613039506852147e-08,0.9592048525810242,1.0281161069869995,47.64146911774859,-122.1401649999999,123.71308135986328,8.844173118173162e-09,-19.261535551974028,3.3104950850437215e-06,2.3111615642041038e-07,3.9999999999999933,0.0,-0.07526047758750766,3.998786117601547,0.4918265021067544,1.7096780426254083,-0.25860881035813216,-0.004171109844486098,1.690000915527345,2.3111615642041038e-07,3.9999999999999933,0.0,-0.07526070870366408,-0.0012138823984462227,0.4918265021067544,-0.0,-0.0,-0.0
14/04/2022,21:37:03,38.21877,-0.003958362387493253,0.3569287918508053,1.8992233276367188,1.8992233276367188,9.134048184478161e-08,1.570666790008545,0.9326425194740295,9.134048184478161e-08,1.570666790008545,1.0281161069869995,47.641471253801896,-122.14016499999973,123.90202331542969,6.94274489293682e-09,-18.9766707057209,3.339537723535735e-06,2.3314371508101869e-07,3.9999999999999933,0.0,-0.08343469708453378,3.9986542753188927,0.48198373006827516,1.5231027124141434,-0.2597954850655984,-0.004190249759122633,1.5007766723632825,2.3314371508101869e-07,3.9999999999999933,0.0,-0.08343493022824887,-0.0013457246811008133,0.48198373006827516,-0.0,-0.0,-0.0
14/04/2022,21:37:03,38.398765,-0.007628932246007025,0.6879070429131389,2.0457839965820312,2.0457839965820312,1.197358159288342e-07,2.0534353256225586,0.6576435565948486,1.197358159288342e-07,2.0534353256225586,1.0281161069869995,47.64147418968022,-122.14016499999947,124.04578399658203,-1.1299805953972767e-08,-16.193548575628697,3.417647380247202e-06,2.38596797829889e-07,3.999999999999993,0.0,-0.09025058834433182,3.9985443415009425,0.46744353425708046,1.379232244795468,-0.2614628403399125,-0.004217142586127931,1.35421600341797,2.38596797829889e-07,3.999999999999993,0.0,-0.09025082694112965,-0.0014556584990505852,0.46744353425708046,-0.0,-0.0,0.0
14/04/2022,21:37:03,38.59077,-0.012359881773591042,1.1145005766302347,2.14666748046875,2.14666748046875,1.4415172699955292e-07,2.4679253101348877,0.41494959592819214,1.4415172699955292e-07,2.4679253101348877,1.0281161069869995,47.641478028102256,-122.14016499999913,124.14666748046875,-2.512556451918931e-08,-12.97136702270964,3.4813839087626696e-06,2.4304644693543367e-07,3.9999999999999925,0.0,-0.09525389002251387,3.9984636430150093,0.452882115702045,1.2807621565848857,-0.2636118726172667,-0.004251804397052528,1.2533325195312512,2.4304644693543367e-07,3.9999999999999925,0.0,-0.09525413306896081,-0.0015363569849831807,0.452882115702045,-0.0,-0.0,0.0
14/04/2022,21:37:04,38.777766,-0.01778585568536073,1.6037649996578693,2.2080917358398438,2.2080917358398438,1.6356754883872782e-07,2.8000893592834473,0.25206559896469116,1.6356754883872782e-07,2.8000893592834473,1.0281161069869995,47.64148250582577,-122.14016499999876,124.20884704589844,-4.015617050052829e-08,-10.17340546788983,3.5526175204333235e-06,3.1002436397799193e-07,4.99999999999999,0.0,-0.09864617090362546,4.998408927726958,0.4418936027275358,1.2212536570744235,-0.2660766191740601,-0.004291558373775484,1.1919082641601575,3.1002436397799193e-07,4.99999999999999,0.0,-0.09864648092798943,-0.0015910722730322065,0.4418936027275358,-0.0,-0.0,0.0
14/04/2022,21:37:04,38.968766,-0.02410925109870732,2.1739322571083903,2.2681045532226562,2.2681045532226562,6.370122264343081e-06,3.176257848739624,0.3821801543235779,6.370122264343081e-06,3.176257848739624,1.0281161069869995,47.64148764622094,-122.14016500000079,124.26924896240234,0.163321495577916,-11.926786874024842,-0.8008462019928292,-0.06988473954454914,4.999511588463296,-1.0,-0.17193533528674526,4.997865611112615,-0.5705106776152029,1.1634171801610647,-0.26894872268330017,-0.004337882623924649,1.131895446777345,-0.06988473954454914,4.999511588463296,-1.0,-0.10205059574219612,-0.0016459773506807545,0.4294893223847971,-0.0,-0.0,0.0
14/04/2022,21:37:04,39.157768,-0.03110202820971608,2.7960172072052956,2.2826766967773438,2.2826766967773438,-0.001936154323630035,3.3951120376586914,-0.3914356529712677,6.370122264343081e-06,3.3951120376586914,1.0281161069869995,47.64149324959576,-122.1401650013255,124.28152465820312,0.3643137173107114,-12.05425627719039,-3.2155034447238626,-0.28045833597267744,4.99212811552182,-1.0,-0.8714393466668062,4.982596163736431,1.8780518640476922,1.1499602197471388,-0.27198878294111306,-0.004386915853888951,1.1173233032226575,-0.28045833597267744,4.99212811552182,-1.0,-0.10373274917873955,-0.0016731088577216172,0.42613160995632043,-0.48724826151538925,-0.007858842927668171,2.451920254091372
14/04/2022,21:37:04,39.344766,-0.039835980045609176,3.4478427758440375,2.1570968627929688,2.2826766967773438,-0.021138828247785568,3.658201217651367,-0.8154945373535156,6.370122264343081e-06,3.658201217651367,1.0281161069869995,47.64149912183483,-122.14016502211985,124.15464782714844,-0.09377038438471608,-10.52242741530858,-6.33857439724174,-0.5520173531087089,4.969434257726613,-1.0,-0.9963629308340534,4.9622673935697525,2.2883539496561074,1.2727043847058386,-0.2737676839550087,-0.0044156078057260295,1.2429031372070325,-0.5520173531087089,4.969434257726613,-1.0,-0.09927815185235242,-0.0016012605137476496,0.45072203048510123,-0.34506742587299194,-0.005565603643113347,2.837631919171006
14/04/2022,21:37:04,39.523765,-0.05524830229114741,4.128998896107078,2.0029144287109375,2.2826766967773438,-0.07538469135761261,3.9235193729400635,-0.8907445669174194,6.370122264343081e-06,3.9235193729400635,1.0281161069869995,47.64150525871723,-122.14016512888651,124.000244140625,-1.0720431987315773,-8.805704867654075,-9.699325059893237,-0.8423888401914393,4.928527269065367,-1.0,-1.1901068363676028,4.9229189142883305,2.800562779627833,1.4228185283783208,-0.2693429018339319,-0.004344240352160966,1.3970855712890637,-0.8423888401914393,4.928527269065367,-1.0,-0.09101124766454527,-0.0014679233494284114,0.4720766727892038,-0.2567067485116182,-0.004140431427607463,3.3284861068386293
14/04/2022,21:37:04,39.708765,-0.08513086254242808,4.865408866666257,1.836517333984375,2.2826766967773438,-0.17299115657806396,4.137637138366699,-0.9243899583816528,6.370122264343081e-06,4.137637138366699,1.0281161069869995,47.641511892766836,-122.14016542185934,123.833740234375,-2.295051658022336,-7.330595416841298,-13.288173894669967,-1.1492443190707682,4.866131676710317,-1.0,-1.2720042087428594,4.864151678489798,3.395307832901931,1.5835616773446972,-0.2513426044525915,-0.004053912975042984,1.5634826660156262,-1.1492443190707682,4.866131676710317,-1.0,-0.07821364355806282,-0.0012615103799691238,0.48652983530303795,-0.04454624611402834,-0.0007184878405501722,3.908777997598893
14/04/2022,21:37:05,39.88877,-0.1359041330870241,5.622998462989926,1.6694717407226562,2.2826766967773438,-0.30910059809684753,4.29538106918335,-0.9293168187141418,6.370122264343081e-06,4.29538106918335,1.0281161069869995,47.64151871793063,-122.14016599134729,123.66667938232422,-3.488238559013919,-6.231566837119308,-16.898998626936695,-1.4534273553847492,4.784093322942111,-1.0,-1.1774718827483341,4.788544217662053,4.026484478647978,1.7435661898619053,-0.21279854801530684,-0.0034322346454080943,1.730528259277345,-1.4534273553847492,4.784093322942111,-1.0,-0.06081813231758101,-0.0009809376180254772,0.4945874754957075,0.3367736049539961,0.005431832337966808,4.53189700315227
14/04/2022,21:37:05,40.071767,-0.21476502378936857,6.4043946005403996,1.50335693359375,2.2826766967773438,-0.481791228055954,4.405106544494629,-0.9165679216384888,6.370122264343081e-06,4.405106544494629,1.0281161069869995,47.64152575878507,-122.14016693269294,123.50060272216797,-4.601785850050973,-5.446771121626711,-20.544759986475395,-1.754695055970812,4.681991591251696,-1.0,-0.8374364359264949,4.696786085123375,4.781902541886808,1.9022985496455889,-0.1465580530005649,-0.0023638395645262378,1.8966430664062512,-1.754695055970812,4.681991591251696,-1.0,-0.03851412191322746,-0.0006211955147297372,0.49842052886146326,0.9557727419575447,0.015415689386409599,5.283482013025345
14/04/2022,21:37:05,40.245282,-0.3253746115369722,7.187975955195725,1.3429718017578125,2.2826766967773438,-0.6798166036605835,4.471292972564697,-0.8960485458374023,6.370122264343081e-06,4.471292972564697,1.0281161069869995,47.64153282128804,-122.14016829737582,123.34028625488281,-5.521549028029431,-4.91089403402013,-24.1413404184747,-2.0449449400426905,4.56269659216935,-1.0,-0.1328617010891331,4.593536644410543,5.848368596454549,2.0576026788777857,-0.048612354349548415,-0.0007840702314441117,2.0570281982421887,-2.0449449400426905,4.56269659216935,-1.0,-0.01181331388731186,-0.00019053732076304163,0.4998795081216279,1.9238965528408691,0.031030589561955854,6.34848908833292
14/04/2022,21:37:05,40.433282,-0.4817948651034385,8.019966637715697,1.1788253784179688,2.2826766967773438,-0.9116724729537964,4.500921726226807,-0.8731082081794739,6.370122264343081e-06,4.500921726226807,1.0281161069869995,47.64154032290413,-122.14017026610658,123.17620086669922,-6.309565924537982,-4.534002509581231,-27.922786985114715,-2.3414062891621894,4.4178973040431515,-1.0,1.3297039792987446,4.4771087599860655,7.672099798214642,2.223178180351798,0.09435150322997254,0.0015217984391924233,2.2211746215820325,-2.3414062891621894,4.4178973040431515,-1.0,0.02126713673781973,0.0003430183344808096,0.5006600083585528,3.6498431317231144,0.05886843760843376,8.17143978985609
14/04/2022,21:37:05,40.611283,-0.672102504526265,8.813431688584387,1.0264358520507812,2.2826766967773438,-1.1469786167144775,4.496170997619629,-0.8503060340881348,6.370122264343081e-06,4.500921726226807,1.0281161069869995,47.64154735918904,-122.14017264598255,123.02643585205078,-6.918425796843509,-4.299502621788722,-31.518773428634073,-2.6138895557746493,4.262344588394069,-1.0,3.9671427203203247,4.3684902702665624,10.484363662318547,2.389081300880346,0.27181515284960484,0.00438411536854133,2.37356414794922,-2.6138895557746493,4.262344588394069,-1.0,0.057557099016695396,0.0009283403067207489,0.5026043075736133,6.523475177078279,0.10521734156577248,10.981759354744934
14/04/2022,21:37:06,40.791282,-0.9050694487523288,9.603019321337342,0.8779678344726562,2.2826766967773438,-1.3927675485610962,4.461905479431152,-0.8300350308418274,6.370122264343081e-06,4.500921726226807,1.0281161069869995,47.64155460640293,-122.14017568633614,122.87547302246094,-7.41362058205833,-4.1524298583684915,-35.11190938341122,-2.8758764927277554,4.090150901687602,-1.0,8.783059952316272,4.278198263704416,14.939833318013719,2.5695841912626673,0.491989535261648,0.00793531508486467,2.522032165527345,-2.8758764927277554,4.090150901687602,-1.0,0.09927137046422116,0.0016011511365195707,0.5088839730983272,11.559665074579806,0.18644621088029428,15.430949344915392
14/04/2022,21:37:06,40.966794,-1.1871464410796762,10.396886430680752,0.7303848266601562,2.2826766967773438,-1.6484240293502808,4.39992094039917,-0.813349723815918,6.370122264343081e-06,4.500921726226807,1.0281161069869995,47.64156177509311,-122.14017933441818,122.72794342041016,-7.790816401592546,-4.0612585143022,-38.763675405406936,-3.130547989226706,3.8986753246646004,0.0,17.373537777484895,4.229386385418006,22.860773121733196,2.77604204793768,0.7611921874663378,0.012277293346230067,2.669615173339845,-3.130547989226706,3.8986753246646004,0.0,0.14991542284634418,0.0024179906910698334,0.5257758738701691,20.354170343865256,0.3282930700623355,22.334997247863026
14/04/2022,21:37:06,41.148788,-1.5161601371364668,11.16235551983118,0.6352691650390625,2.2826766967773438,-2.0016515254974365,4.288576126098633,-0.06532134115695953,6.370122264343081e-06,4.500921726226807,1.0281161069869995,47.64156869166085,-122.14018361538302,122.63504791259766,-7.615535395715119,-3.646048982839722,-41.76836708943037,0.0,0.0,0.0,24.72148923032914,0.3987336972633802,14.908915178304918,2.9674302984012466,1.0777772496548883,0.017383504026689423,2.7647308349609387,0.0,0.0,0.0,0.21448684020684025,0.003459465164625993,0.5502049528351736,24.5070023901223,0.39527423209875423,14.358710225469745
14/04/2022,21:37:06,41.32379,-1.8966616824036464,11.896737078204751,0.6673812866210938,2.2826766967773438,-2.106839895248413,3.929884195327759,0.5367161631584167,6.370122264343081e-06,4.500921726226807,1.0281161069869995,47.641575327139314,-122.14018857667631,122.6689682006836,-8.434261705663154,14.417075410247993,-45.84579136429522,0.0,0.0,0.0,28.477440237104567,0.4593135522113454,9.009356632544716,3.0918672334487463,1.4463380515763127,0.023328033089939026,2.7326187133789075,0.0,0.0,0.0,0.2947856980620642,0.004754608033258795,0.5569492651340638,28.182654539042503,0.4545589441780866,8.452407367410652
14/04/2022,21:37:06,41.501791,-2.241975520271808,12.501973113976419,0.83331298828125,2.2826766967773438,-1.7165833711624146,3.010164737701416,1.3950812816619873,6.370122264343081e-06,4.500921726226807,1.3950812816619873,47.641580782015325,-122.14019306869724,122.83747863769531,-8.237271915493995,21.97831498609766,-47.84997064165662,0.0,0.0,0.0,18.0698784268561,0.2914496520460443,-0.2456072399793391,3.124664648506719,1.7818027482076182,0.028738754003347466,2.5666870117187512,0.0,0.0,0.0,0.36623855111320863,0.005907073405051503,0.5275666643115057,17.70363987574289,0.2855425786409928,-0.7731739042908448
14/04/2022,21:37:06,41.674791,-2.512571870465763,12.958642273209989,1.0954971313476562,2.2826766967773438,-1.3552497625350952,2.3403711318969727,1.4254320859909058,6.370122264343081e-06,4.500921726226807,1.4254320859909058,47.6415848361886,-122.14019653466977,123.09549713134766,-7.010112774938623,21.351895961902095,-48.185897501795765,0.0,0.0,0.0,12.799738015462188,0.20644738734616544,-0.9774869593621461,3.081185363951934,2.04496500627604,0.03298330655283799,2.304502868652345,0.0,0.0,0.0,0.41572907655566305,0.006705307686381384,0.4684915617452837,12.384008938906524,0.19974207965978405,-1.4459785211074299
14/04/2022,21:37:07,41.848793,-2.730624263291247,13.324623330496252,1.31060791015625,2.2826766967773438,-1.0991523265838623,1.9004127979278564,1.029212236404419,6.370122264343081e-06,4.500921726226807,1.4254320859909058,47.64158820189491,-122.14019942743903,123.31370544433594,-5.689703030165823,18.287490444997005,-48.02588141293228,0.0,0.0,0.0,9.818713132906835,0.15836634085333126,0.49021544134913275,3.0759065767166325,2.257059303407227,0.03640418231301901,2.0893920898437512,0.0,0.0,0.0,0.45828225856650184,0.007391649331717614,0.42423844358856727,9.360430874340333,0.15097469152161364,0.06597699776056545
14/04/2022,21:37:07,42.02279,-2.9065339725930244,13.62095521017909,1.4593505859375,2.2826766967773438,-0.8799793124198914,1.530139684677124,0.6847565770149231,6.370122264343081e-06,4.500921726226807,1.4254320859909058,47.64159087546053,-122.14020171665547,123.46141052246094,-4.550397399727915,14.831010253918825,-47.795290954273334,0.0,0.0,0.0,8.090313246064175,0.13048892332361026,1.4451745077572,3.108623792023693,2.428144959068006,0.03916362837206222,1.9406494140625012,0.0,0.0,0.0,0.4969785917821697,0.008015783738421602,0.3972008381714835,7.593334654282005,0.12247313958518864,1.0479736695857165
14/04/2022,21:37:07,42.194792,-3.0464536872459576,13.858137410134077,1.5565872192382812,2.2826766967773438,-0.6949714422225952,1.216503381729126,0.4405662417411804,6.370122264343081e-06,4.500921726226807,1.4254320859909058,47.64159298197602,-122.14020350900938,123.55658721923828,-3.6131454971972556,11.720003260803379,-47.60783472067572,0.0,0.0,0.0,7.030376974799321,0.11339317701289203,1.9799532503353903,3.1583258371773324,2.5642037592575155,0.04135812514931203,1.84341278076172,0.0,0.0,0.0,0.5321227287975417,0.008582624658024299,0.3825444197473699,6.498254246001779,0.10481055235486773,1.5974088305880203
14/04/2022,21:37:07,42.37479,-3.1581274593481794,14.048651506192982,1.6196136474609375,2.2826766967773438,-0.5414867401123047,0.9536703824996948,0.2782630920410156,6.370122264343081e-06,4.500921726226807,1.4254320859909058,47.641594732878495,-122.1402049892097,123.62045288085938,-2.7294642952224253,9.141894756417784,-46.79147794761341,0.0,0.0,0.0,6.306381163220586,0.10171582521323434,2.262568044359028,3.211754673169792,2.672776478634704,0.043109298042493194,1.7803863525390637,0.0,0.0,0.0,0.5641619587761293,0.009099386431872625,0.3757988219575335,5.742219204444457,0.09261643878136172,1.8867692224014945
14/04/2022,21:37:07,42.554792,-3.2448991764103994,14.197519829496741,1.659423828125,2.2826766967773438,-0.419527143239975,0.74272620677948,0.17612068355083466,6.370122264343081e-06,4.500921726226807,1.4254320859909058,47.64159607517191,-122.14020611746163,123.65995788574219,-1.743770887830472,7.170608738378987,-43.59742732526995,0.0,0.0,0.0,5.790877813547894,0.09340125505721918,2.3944412561266826,3.2608774994900513,2.7571251507653516,0.04446976049621476,1.7405761718750012,0.0,0.0,0.0,0.5922468344132454,0.009552368296987704,0.37388608477273516,5.1986309791346486,0.08384888676023147,2.0205551713539474
14/04/2022,21:37:08,42.727792,-3.3110229346202686,14.311505292542279,1.6843795776367188,2.2826766967773438,-0.32542088627815247,0.5787001848220825,0.11342306435108185,6.370122264343081e-06,4.500921726226807,1.4254320859909058,47.64159710283702,-122.14020697712014,123.68472290039062,-0.9496422173696951,5.63942934712854,-39.2886967093128,0.0,0.0,0.0,5.418830793744807,0.08740049667330016,2.4450755599742555,3.3023759256310705,2.8213937145754726,0.04550635023508498,1.7156204223632825,0.0,0.0,0.0,0.6159086524990278,0.009934010524177151,0.3745189680826151,4.802922141245779,0.077466486149123,2.0705565918916404
14/04/2022,21:37:08,42.898793,-3.3615051719825715,14.398874206468463,1.7003250122070312,2.2826766967773438,-0.253227561712265,0.45185649394989014,0.07462085038423538,6.370122264343081e-06,4.500921726226807,1.4254320859909058,47.64159789048257,-122.14020763335537,123.70055389404297,-0.5871966784259636,4.4081591159247395,-37.12255638522163,0.0,0.0,0.0,5.147277698435276,0.08302060803927443,2.456836152847751,3.3362471097498334,2.8704540130819143,0.04629764537228809,1.69967498779297,0.0,0.0,0.0,0.6354749310398456,0.010249595661932806,0.3762822329622409,4.51180276739543,0.07277101237734163,2.08055391988551
14/04/2022,21:37:08,43.044795,-3.3952178318286315,14.457380154170096,1.7094879150390625,2.2826766967773438,-0.20497247576713562,0.36650070548057556,0.05309753865003586,6.370122264343081e-06,4.500921726226807,1.4254320859909058,47.641598408001904,-122.14020806335625,123.70948791503906,-0.42344571897933764,3.572541490647821,-36.16507250919366,0.0,0.0,0.0,4.972609014537061,0.08020337120220486,2.4529125540404415,3.359862832906227,2.9032145061094186,0.046826040421118265,1.6905120849609387,0.0,0.0,0.0,0.6493351816263757,0.010473148090747685,0.37810122862768686,4.323273832910685,0.06973022311145717,2.0748113254127545
14/04/2022,21:37:08,43.214793,-3.4270137544954196,14.512657976709306,1.7170562744140625,2.2826766967773438,-0.1594805121421814,0.28562819957733154,0.035988323390483856,6.370122264343081e-06,4.500921726226807,1.4254320859909058,47.64159891620655,-122.14020848485924,123.7171630859375,-0.30525195574897607,2.7803699239996016,-35.56064926385295,0.0,0.0,0.0,4.813196513339642,0.07763220182805738,2.441409724522099,3.3828309808369084,2.934110813452384,0.04732436795890749,1.6829437255859387,0.0,0.0,0.0,0.6630293466635686,0.010694021720379702,0.380299569372384,4.1501671666760735,0.06693818010767769,2.061110155149715
14/04/2022,21:37:08,43.38879,-3.452137643354945,14.556396589614451,1.7222900390625,2.2826766967773438,-0.12356629222631454,0.22153756022453308,0.024613654240965843,6.370122264343081e-06,4.500921726226807,1.4254320859909058,47.64159931048529,-122.14020881142035,123.72236633300781,-0.22757644566969623,2.153627317065149,-35.25432807977716,0.0,0.0,0.0,4.6911863014985435,0.07566429518545813,2.4275695541346822,3.401447548104446,2.9585228901171163,0.04771811113092106,1.6777099609375012,0.0,0.0,0.0,0.6743014171271007,0.010875829308501585,0.3823807508697784,4.016884884371443,0.06478846587695654,2.045188803264904
14/04/2022,21:37:08,43.660793,-3.480147461639717,14.60520026087761,1.7273483276367188,2.2826766967773438,-0.08357025682926178,0.1499570906162262,0.014068947173655033,6.370122264343081e-06,4.500921726226807,1.4254320859909058,47.64159975042557,-122.1402091754826,123.72738647460938,-0.1502978443272442,1.4554279577461067,-35.05598187548831,0.0,0.0,0.0,4.559632445158793,0.07354245879288128,2.4079422903417385,3.4226768685067723,2.9857384723975713,0.04815707213544407,1.6726516723632825,0.0,0.0,0.0,0.6873614251894411,0.01108647459982955,0.3850693046259664,3.872271019969352,0.06245598419305173,2.022872985715772
14/04/2022,21:37:09,43.809791,-3.4918992443708703,14.62568988930434,1.7292022705078125,2.2826766967773438,-0.06680471450090408,0.11990223824977875,0.010272840037941933,6.370122264343081e-06,4.500921726226807,1.4254320859909058,47.64159993188629,-122.14020932554979,123.72920227050781,-0.11951290242307307,1.1629227007451568,-35.00880873566132,0.0,0.0,0.0,4.5059887559579614,0.07267723799931974,2.3986853926488134,3.4317416646532743,2.997156806820483,0.048341238819682886,1.6707977294921887,0.0,0.0,0.0,0.6930053507345677,0.01117750565700862,0.38632338618331263,3.8129834052233935,0.061499732342311125,2.0123620064655006
14/04/2022,21:37:09,43.983792,-3.5022669608006254,14.643767967820168,1.7306976318359375,2.2826766967773438,-0.05202107131481171,0.09338212758302689,0.007202242501080036,6.370122264343081e-06,4.500921726226807,1.4254320859909058,47.6416000955644,-122.14020946089792,123.73069763183594,-0.09278691111163875,0.9051528107073226,-34.9812168149452,0.0,0.0,0.0,4.459498145165689,0.07192738943815544,2.390170147547173,3.439819357000598,3.007230320757543,0.048503714850925306,1.6693023681640637,0.0,0.0,0.0,0.698069049584975,0.011259178219111848,0.38749553353821314,3.7614290955807146,0.06066821121904358,2.00267461400896
14/04/2022,21:37:09,44.153794,-3.5103412105236202,14.657848852686584,1.7317352294921875,2.2826766967773438,-0.04051746800541878,0.07273560017347336,0.0049698068760335445,6.370122264343081e-06,4.500921726226807,1.4254320859909058,47.64160022305199,-122.14020956630509,123.73173522949219,-0.07214891597181565,0.7046490282451785,-34.96743428235158,0.0,0.0,0.0,4.423943810831625,0.071353932432767,2.3834798073120274,3.4461793373598066,3.015075418565989,0.04863024868654797,1.6682647705078137,0.0,0.0,0.0,0.7020743994869559,0.011323780636886332,0.38846324696467405,3.7218694113446698,0.06003015179588067,1.9950165603473535
14/04/2022,21:37:09,44.320798,-3.5165326037677005,14.668646209873259,1.7324295043945312,2.2826766967773438,-0.031699810177087784,0.056906115263700485,0.003334041917696595,6.370122264343081e-06,4.500921726226807,1.4254320859909058,47.64160032233494,-122.14020964840337,123.73243713378906,-0.05638968935834238,0.551079491370906,-34.960514027178796,0.0,0.0,0.0,4.397113406561764,0.07092118397680103,2.37842828165191,3.4511095484139642,3.021091095935214,0.048727275740890974,1.66757049560547,0.0,0.0,0.0,0.7051873665242304,0.011373989782648976,0.38924666914934525,3.6919260400375338,0.05954719419415205,1.9891816125025645
14/04/2022,21:37:09,44.493792,-3.5213769268011674,14.677093875594437,1.732879638671875,2.2826766967773438,-0.02480243146419525,0.04452269524335861,0.002085453597828746,6.370122264343081e-06,4.500921726226807,1.4254320859909058,47.641600398493964,-122.14020971136924,123.7328872680664,-0.044088528555693646,0.431035806980592,-34.956969119469846,0.0,0.0,0.0,4.376440243723933,0.07058774586651514,2.3746374122045992,3.455014505837449,3.0257979418301257,0.04880319261016375,1.6671203613281262,0.0,0.0,0.0,0.7076539683715615,0.01141377368341238,0.38989528122070255,3.668786275352372,0.05917397218310276,1.9847421309838968
14/04/2022,21:37:09,44.665799,-3.525286302785389,14.68391129001975,1.733154296875,2.2826766967773438,-0.019237199798226357,0.034530866891145706,0.0010853089625015855,6.370122264343081e-06,4.500921726226807,1.4254320859909058,47.64160045994492,-122.14020976217795,123.73316192626953,-0.03417425947125473,0.33422886218399706,-34.95510723624066,0.0,0.0,0.0,4.360012155457508,0.07032277670092439,2.37178122667408,3.4582100148305375,3.0295963713721226,0.048864457602775246,1.6668457031250012,0.0,0.0,0.0,0.7096694999537957,0.01144628225731907,0.39045120591463667,3.650342655503713,0.05887649444360532,1.981330020759443
14/04/2022,21:37:10,44.841793,-3.5282711253967136,14.689118611626327,1.7332763671875,2.2826766967773438,-0.014986639842391014,0.0268995501101017,0.0003152551071252674,6.370122264343081e-06,4.500921726226807,1.4254320859909058,47.64160050688318,-122.14020980097453,123.7332763671875,-0.026609656216961812,0.2603223967028254,-34.95421653403397,0.0,0.0,0.0,4.347665769508298,0.07012364144368084,2.3698237070182735,3.4606928062287783,3.0324964504822196,0.048911233072292504,1.6667236328125012,0.0,0.0,0.0,0.7112294104954577,0.011471442104765129,0.39090659665424515,3.6364363590128406,0.05865219933891572,1.9789171103640282
14/04/2022,21:37:10,45.010791,-3.5305612738011405,14.69311149790883,1.7332763671875,2.2826766967773438,-0.01172658335417509,0.021047191694378853,-0.0002874294586945325,6.370122264343081e-06,4.500921726226807,1.4254320859909058,47.64160054287829,-122.14020983074144,123.7332763671875,-0.019765563479128393,0.20376453462001318,-34.66640235148329,0.0,0.0,0.0,4.338377948052142,0.06997383787180612,2.368567226202588,3.462643324337172,3.0347216186271098,0.048947122881081384,1.6667236328125012,0.0,0.0,0.0,0.7124460309959613,0.01149106501606365,0.3912881595714971,3.625931917056181,0.05848277285574248,1.9772790666310907
14/04/2022,21:37:10,45.183794,-3.5324374336050823,14.69638061709702,1.733184814453125,2.2826766967773438,-0.0090549411252141,0.016253894194960594,-0.0007963933749124408,6.370122264343081e-06,4.500921726226807,1.4254320859909058,47.6416005719167,-122.14020985476573,123.73318481445312,-0.012406301555039027,0.15758818243848643,-33.644482988701014,0.0,0.0,0.0,4.330924417968666,0.06985361964465513,2.3677800910202067,3.4642855724791732,3.0365445764676,0.04897652542689457,1.6668151855468762,0.0,0.0,0.0,0.713460949498601,0.011507434669331754,0.3916318417108045,3.6174634684700657,0.05834618497532337,1.9761482493094022
14/04/2022,21:37:10,45.354305,-3.533843010198325,14.69883247371763,1.7330093383789062,2.2826766967773438,-0.007052638567984104,0.012663358822464943,-0.0011927419109269977,6.370122264343081e-06,4.500921726226807,1.4254320859909058,47.64160059411564,-122.14020987311505,123.7330093383789,-0.007425078772607851,0.12291232673983243,-32.603538152903084,-1.6848382500047518,-1.077645614903585,0.0,2.6406581641211018,-1.00787954370801,2.367458126683234,3.465567402537351,3.037910251711799,0.04899855244696383,1.666990661621095,-1.6848382500047518,-1.077645614903585,0.0,0.7142412244472279,0.01152001974914868,0.3919251566524878,3.6112551896786256,0.058246051446426264,1.9755329700307462
14/04/2022,21:37:10,45.524306,-3.539039245224558,14.698018972761929,1.74078369140625,2.2826766967773438,-0.10198943316936493,-0.05183457210659981,0.17115435004234314,6.370122264343081e-06,4.500921726226807,1.4254320859909058,47.64160058594734,-122.14020994641564,123.74128723144531,-7.573291493220857,0.2672402697504183,-31.19353218315711,-1.7108454640672863,-1.0358608970708334,0.0,2.903706527600774,-0.9614326391407083,1.9706830353093103,3.466406865427758,3.0431182528821745,0.04908255246584048,1.6592163085937512,-1.7108454640672863,-1.0358608970708334,0.0,0.7157675503120532,0.011544637908258678,0.39026192673096227,3.898784441356007,0.06288362002186643,1.5804211085783482
14/04/2022,21:37:10,45.697307,-3.577163443551399,14.675361660309136,1.7845611572265625,2.2826766967773438,-0.35392114520072937,-0.2124803364276886,0.2926763594150543,6.370122264343081e-06,4.500921726226807,1.4254320859909058,47.641600387276966,-122.14021045326945,123.78456115722656,-10.221831352762257,0.7151811546759815,-27.92549298348942,-1.767114687127606,-0.9366459750289342,0.0,4.864577007883996,-0.8296832057545547,1.984052274535184,3.4797066779819623,3.081597881423254,0.049703191635858346,1.6154388427734387,-1.767114687127606,-0.9366459750289342,0.0,0.7297152485032672,0.011769600782310622,0.3825321803673521,5.901976446508335,0.09519316849206892,1.601520094167832
14/04/2022,21:37:11,45.874844,-3.658220314886421,14.625538114458323,1.832122802734375,2.2826766967773438,-0.6053317189216614,-0.3608531951904297,0.2498568594455719,6.370122264343081e-06,4.500921726226807,1.4254320859909058,47.641599937422114,-122.14021156379427,123.83287811279297,-9.706742325799107,0.8838296692750351,-23.698703024690346,-1.8313433835831532,-0.8038540983326562,0.0,9.086433943860634,-0.6277609156319505,2.8532050937475018,3.531030494781208,3.163437068225484,0.051023178519763235,1.5678771972656262,-1.8313433835831532,-0.8038540983326562,0.0,0.7694690710286088,0.012410791468202727,0.3813677921981434,10.148308256415179,0.16368239123250303,2.471837301549358
14/04/2022,21:37:11,46.050845,-3.78284740797244,14.551127447746694,1.869293212890625,2.2826766967773438,-0.8382992148399353,-0.4764721691608429,0.17552462220191956,6.370122264343081e-06,4.500921726226807,1.4254320859909058,47.641599277276285,-122.14021324316703,123.86981964111328,-8.298728148796096,0.5947888981720614,-19.16414101706989,-1.8891640177337223,-0.6565510750125844,0.0,16.15133083219905,-0.36557535162657595,4.465793123564904,3.628349813599342,3.2892316084488336,0.05305212271691495,1.5307067871093762,-1.8891640177337223,-0.6565510750125844,0.0,0.8446751166720645,0.013623792204387695,0.39308570751637484,17.19581973326071,0.2773519311816207,4.072707416048529
14/04/2022,21:37:11,46.218845,-3.945583879831247,14.459730120375752,1.8944854736328125,2.2826766967773438,-1.0435479879379272,-0.5495671629905701,0.11572049558162689,6.370122264343081e-06,4.500921726226807,1.4254320859909058,47.64159848405379,-122.14021538958197,123.89448547363281,-6.842322673104967,-0.02529453005562779,-15.078280012980072,-1.9311426298626857,-0.520276986928146,0.0,26.204054311212673,-0.06648348787855118,6.649258733229704,3.767710809617883,3.4533995231750367,0.05569999230927358,1.5055145263671887,-1.9311426298626857,-0.520276986928146,0.0,0.9645829838245006,0.015557790061685157,0.42051134955252834,27.170613957250858,0.43823570898790964,6.228747383677176
14/04/2022,21:37:11,46.393845,-4.141639643232338,14.35888846963644,1.9110946655273438,2.2826766967773438,-1.2209230661392212,-0.5801847577095032,0.07698233425617218,6.370122264343081e-06,4.500921726226807,1.4254320859909058,47.64159759636824,-122.14021801439858,123.91109466552734,-5.591493151442621,-0.7079215561268397,-11.257966967286176,-1.9615162872986696,-0.3904533962741813,0.0,39.271670392252055,0.27459800178308114,9.223745108257527,3.9433906063338187,3.651030352007191,0.05888758632269386,1.4889053344726575,-1.9615162872986696,-0.3904533962741813,0.0,1.1424874283286393,0.01842721658594493,0.4659111162062201,40.090699251222084,0.6466241814713175,8.757833992051307
14/04/2022,21:37:11,46.57485,-4.370368837262504,14.253721203655005,1.92254638671875,2.2826766967773438,-1.3734261989593506,-0.575170636177063,0.05360706150531769,6.370122264343081e-06,4.500921726226807,1.4254320859909058,47.64159665752321,-122.14022112970154,123.9227066040039,-4.566123591259017,-1.2832110467084765,-7.528400079882079,0.0,0.0,0.0,57.55050177450477,0.9282338995887718,12.109698439688769,4.153555366844077,3.881395863669819,0.06260315909144687,1.4774536132812512,0.0,0.0,0.0,1.400569559434911,0.02258983160378823,0.5331269030318284,56.14993221506985,0.9056440679849835,11.57657153665694
14/04/2022,21:37:12,46.749844,-4.622658332926221,14.150676112622023,1.9251708984375,2.2826766967773438,-1.38556969165802,-0.5253748893737793,0.05309605225920677,6.370122264343081e-06,4.500921726226807,1.4254320859909058,47.6415957711269,-122.1402244485436,123.9251708984375,4.176440525076055,-2.1851097314290575,-4.53368698124771,0.0,0.0,0.0,67.65613691465664,1.0912280147525064,13.65534650203777,4.3909134800681695,4.135281329723233,0.06669808596327798,1.4748291015625012,0.0,0.0,0.0,1.7580781270714678,0.028356098823733362,0.6270104928505635,65.89805878758517,1.062871915928773,13.028336009187205
14/04/2022,21:37:12,46.92385,-4.852007296285592,14.062986944802105,1.9466094970703125,2.2826766967773438,-1.1926993131637573,-0.43410736322402954,0.1636398285627365,6.370122264343081e-06,4.500921726226807,1.4254320859909058,47.641595005092185,-122.1402275146234,123.94660949707031,7.2408793610516415,-2.570048573555382,-3.0971435242598018,0.0,0.0,0.0,61.176195565498595,0.9867128317015796,10.540933992101133,4.602078279377452,4.365984618034872,0.07041910674249507,1.4533905029296887,0.0,0.0,0.0,2.1457833881460777,0.03460940948622566,0.7143087918343395,59.03041217735252,0.9521034222153539,9.826625200266793
14/04/2022,21:37:12,47.106843,-5.043659908580594,13.99167747888714,1.975372314453125,2.2826766967773438,-0.9724895358085632,-0.3477748930454254,0.14982923865318298,6.370122264343081e-06,4.500921726226807,1.4254320859909058,47.64159437326751,-122.14023011543986,123.97582244873047,7.206135433199157,-2.356976131362545,-2.7015246591678244,0.0,0.0,0.0,53.30198608453896,0.8597094529764185,9.557052342882077,4.776720174829072,4.558737239243901,0.073528019987803,1.4246276855468762,0.0,0.0,0.0,2.520383851117848,0.040651352437383624,0.7876322815006707,50.78160223342111,0.8190581005390349,8.769420061381407
14/04/2022,21:37:12,47.290846,-5.197979940101504,13.934972737915814,1.9981689453125,2.2826766967773438,-0.7738707065582275,-0.2743602395057678,0.10564672201871872,6.370122264343081e-06,4.500921726226807,1.4254320859909058,47.64159388048615,-122.1402321701903,123.99848937988281,6.232502811737902,-1.912822034308798,-3.0296137994285965,1.997204702187996,0.105704198394191,0.0,48.66928218498437,0.8584796416650894,9.169508317559028,4.9185425826015505,4.713931490246918,0.07603115306849695,1.4018310546875012,1.997204702187996,0.105704198394191,0.0,2.8617659922311085,0.04615751600372651,0.8510332505804031,43.81031149056526,0.7066179272671719,8.318475066978625
14/04/2022,21:37:12,47.466847,-5.313089627074078,13.891096538864076,2.0391464233398438,2.2826766967773438,-0.43148401379585266,-0.19245924055576324,0.46930620074272156,6.370122264343081e-06,4.500921726226807,1.4254320859909058,47.64159349944237,-122.14023369542102,124.0405502319336,12.751233331814035,-1.293407682184755,-4.056648209994495,2.9924837838880025,0.21222818655245235,0.0,34.17608747427093,0.7151895363973302,2.9600876695345626,5.018383577870865,4.829718736297316,0.07789868929511634,1.3608535766601575,2.9924837838880025,0.21222818655245235,0.0,3.127759765753786,0.05044773815731805,0.8812983315510718,28.055843924629144,0.4525136116875597,2.0787893379834905
14/04/2022,21:37:12,47.642845,-5.341722812852822,13.863994768820703,2.1576766967773438,2.2826766967773438,0.16636961698532104,-0.10566440224647522,0.8946759104728699,0.16636961698532104,4.500921726226807,1.4254320859909058,47.641593260803454,-122.14023405673687,124.16035461425781,17.975781211810908,0.06619091495686147,-7.576217882416467,2.9738110540491185,0.3955348465246422,0.0,16.953294945359374,0.6210103931586801,-0.5057809552012491,5.0157019631218365,4.85878148685029,0.07836744333629575,1.2423233032226575,2.9738110540491185,0.3955348465246422,0.0,3.141169551566728,0.05066402502527029,0.8031536597902269,10.838314339743526,0.17481152160876756,-1.308934614991476
14/04/2022,21:37:13,47.825846,-5.261525198118761,13.852601974271238,2.3183822631835938,2.3183822631835938,0.7175413370132446,-0.028133271262049675,0.8247137665748596,0.7175413370132446,4.500921726226807,1.4254320859909058,47.641593152388815,-122.1402329687181,124.32086181640625,17.64083800606925,1.524295219460435,-13.855204565988137,2.9127120055401328,0.718407107970388,0.0,9.576906480082584,0.8258941156242949,0.004221571291404991,4.900271089571175,4.778788436713576,0.0770772328502165,1.0816177368164075,2.9127120055401328,0.718407107970388,0.0,2.86670877605181,0.04623723832341481,0.6488429231651162,3.7974856984906418,0.06124976933049212,-0.6446213518737112
14/04/2022,21:37:13,48.005846,-5.09902941796463,13.85637629404664,2.4429244995117188,2.4429244995117188,1.1494569778442383,0.05986304581165314,0.5980327129364014,1.1494569778442383,4.500921726226807,1.4254320859909058,47.64159317251765,-122.14023078768261,124.4447250366211,15.20387775206442,1.8303209286588256,-21.57188417341929,2.7898710531422273,1.1030047628360817,0.0,7.742961111504755,1.1828933121645069,0.24933576480955316,4.715031642701128,4.6162740578478925,0.07445603319109395,0.9570755004882825,2.7898710531422273,1.1030047628360817,0.0,2.448965966227553,0.03949945106818577,0.5077353074004247,2.5041240921349743,0.04038909826023924,-0.25839954259087156
14/04/2022,21:37:13,48.183845,-4.8589868247509,13.880294042639434,2.5322341918945312,2.5322341918945312,1.5145766735076904,0.19075912237167358,0.4013306796550751,1.5145766735076904,4.500921726226807,1.4254320859909058,47.6415933672553,-122.14022757403437,124.53343963623047,12.585039492908745,1.0167070706080372,-30.41784369702609,2.5870680979432414,1.5189070598967995,0.0,6.895739918969355,1.5884017666875387,0.5016908169029848,4.4616781267381045,4.375908224629081,0.07057916491337046,0.86776580810547,2.5870680979432414,1.5189070598967995,0.0,1.9534536547901633,0.031507317012743764,0.3873802196775406,2.3552181662359497,0.037987389777995414,0.11431059722544418
14/04/2022,21:37:13,48.353844,-4.571581219090149,13.930529376491904,2.5912322998046875,2.5912322998046875,1.7845637798309326,0.3672671616077423,0.2864898145198822,1.7845637798309326,4.500921726226807,1.4254320859909058,47.64159379529057,-122.14022372978573,124.59209442138672,10.640120118263296,-0.4895872263172582,-39.32061551756321,2.3208367911533436,1.90097779808946,0.0,3.8101215075507406,1.9249985193216754,0.29465605004012857,4.167528516083585,4.087767330257486,0.06593173113318329,0.8087677001953137,2.3208367911533436,1.90097779808946,0.0,1.4892847163973968,0.02402072123221536,0.29465605004012857,0.0,0.0,0.0
14/04/2022,21:37:13,48.52985,-4.239099206984974,14.018122790381312,2.63702392578125,2.63702392578125,1.9665284156799316,0.5992411375045776,0.23751360177993774,1.9665284156799316,4.500921726226807,1.4254320859909058,47.64159454031236,-122.14021936210337,124.63702392578125,9.35386987248972,-2.2362141273528016,-48.48165134632666,1.9885795893719589,2.2462304460436044,0.0,3.080166585880641,2.2638366879227765,0.22186035634023585,3.8311890312387957,3.753959359856073,0.06054773161058158,0.7629760742187512,1.9885795893719589,2.2462304460436044,0.0,1.0915869965086822,0.017606241879172223,0.22186035634023585,-0.0,-0.0,0.0
14/04/2022,21:37:13,48.70785,-3.876894812681712,14.153229909017682,2.679046630859375,2.679046630859375,2.0529115200042725,0.8699599504470825,0.23245447874069214,2.0529115200042725,4.500921726226807,1.4254320859909058,47.64159571969882,-122.14021452042789,124.67904663085938,8.58787250314813,-3.8867027652677324,-57.31131026151108,1.620222583885063,2.524852229075755,0.0,2.417308767781726,2.5377084578482814,0.16953327914592461,3.4659240449748565,3.3896705866292343,0.05467210623595342,0.7209533691406262,1.620222583885063,2.524852229075755,0.0,0.797086183896663,0.012856228772526358,0.16953327914592461,-0.0,-0.0,0.0
14/04/2022,21:37:14,48.890848,-3.52620749885682,14.32937681581825,2.7200698852539062,2.7200698852539062,2.0494346618652344,1.1551440954208374,0.24832767248153687,2.0529115200042725,4.500921726226807,1.4254320859909058,47.641597300529064,-122.14020974402412,124.72080993652344,8.118016464765235,-5.290305739488514,-65.26415849281511,1.25530593418041,2.7247398062221366,0.0,-0.24555753806457692,2.7005323308633384,0.4933483685802132,3.1118195505395354,3.0362341386280587,0.048971518364966826,0.679930114746095,1.25530593418041,2.7247398062221366,0.0,0.621953564878158,0.01003150911093765,0.13927942952562677,-2.122817037123145,-0.0342389844697359,0.3540689390545864
14/04/2022,21:37:14,49.065852,-3.165492903906852,14.56666652392596,2.766448974609375,2.766448974609375,1.965038776397705,1.4493783712387085,0.26528939604759216,2.0529115200042725,4.500921726226807,1.4254320859909058,47.64159940729444,-122.14020491044319,124.76725006103516,7.779885100156072,-6.298938780290842,-73.06563761751836,0.8738279325520706,2.869917201643938,0.0,-0.9262362656484411,2.8408839081245674,0.30868453762268444,2.7462138015059807,2.671787099644871,0.04309334031685097,0.6335510253906262,0.8738279325520706,2.869917201643938,0.0,0.526874895761724,0.008497982189704873,0.12493590170668459,-2.3269390939622356,-0.03753127570907565,0.18374863591599985
14/04/2022,21:37:14,49.247844,-2.8321122023044154,14.85020728688687,2.815185546875,2.815185546875,1.8156219720840454,1.722886085510254,0.2807013690471649,2.0529115200042725,4.500921726226807,1.4254320859909058,47.64160188598307,-122.1402005091998,124.815185546875,7.537259445360785,-7.023722085450105,-80.52778917876681,0.49370767637343316,2.959096607123523,0.0,-1.378327681807976,2.9289024884431765,0.1640735669667262,2.4063691517921537,2.3339210543228055,0.03764388797294593,0.5848144531250012,0.49370767637343316,2.959096607123523,0.0,0.4914551731915374,0.007926696341798455,0.12314473440013363,-2.3634905313729466,-0.03812081502214504,0.040928832566592584
14/04/2022,21:37:14,49.424843,-2.525545190437697,15.185479872860014,2.8668136596679688,2.8668136596679688,1.6109833717346191,1.9729496240615845,0.2887721359729767,2.0529115200042725,4.500921726226807,1.4254320859909058,47.641604924882245,-122.14019631411786,124.86768341064453,7.251915889605401,-7.546357391179411,-87.31586132290374,0.14048977175469357,2.9967086318213045,0.0,-1.6746931235071676,2.9674314883493347,0.04674149157322155,2.0913982759536003,2.0220275578479026,0.03261334770721902,0.5331863403320325,0.14048977175469357,2.9967086318213045,0.0,0.48348904850922153,0.007798210459824906,0.12749072353871418,-2.2986719437710827,-0.03707535393179458,-0.08074923196549263
14/04/2022,21:37:14,49.576845,-2.3010569603648037,15.496837328188121,2.9103164672851562,2.9103164672851562,1.4098416566848755,2.15486741065979,0.29365864396095276,2.0529115200042725,4.500921726226807,1.4254320859909058,47.64160770859731,-122.14019328775792,124.91120147705078,6.817675096555766,-8.064563525788262,-91.31593570379263,-0.06889617480988626,2.9992087818450663,0.0,-1.714123426122617,2.9726728584367925,-0.05785196151512248,1.8584828871648915,1.792577123873769,0.028912534256029687,0.489683532714845,-0.06889617480988626,2.9992087818450663,0.0,0.48199556753698675,0.007774122057048483,0.1316681380795245,-2.1272228188497175,-0.03431004546532243,-0.18952009959464697
14/04/2022,21:37:15,49.750844,-2.0740678140427917,15.902954139746726,2.9616622924804688,2.9616622924804688,1.1479007005691528,2.3350586891174316,0.2684578597545624,2.0529115200042725,4.500921726226807,1.4254320859909058,47.641611281638646,-122.14019026255815,124.96166229248047,5.973824952793184,-8.235853005321054,-93.81614018865133,-0.19966493362630672,2.993348278146063,0.0,0.2763227171678186,3.0010254983201605,0.1338230670061462,1.6197408019844126,1.5590984448676708,0.025146749110763977,0.4383377075195325,-0.19966493362630672,2.993348278146063,0.0,0.4759876507941253,0.007677220174097298,0.1338230670061462,-0.0,-0.0,-0.0
14/04/2022,21:37:15,49.903844,-1.9211629999335855,16.26329088676721,2.9990158081054688,2.9990158081054688,0.9333553314208984,2.4546258449554443,0.22730028629302979,2.0529115200042725,4.500921726226807,1.4254320859909058,47.64161450823801,-122.1401881738645,124.99901580810547,5.02203019680341,-7.990234438301333,-93.91406583883084,-0.20478064594332684,2.9930026540327415,-1.0,0.2604445921057995,3.000506286904501,-0.8667917032193394,1.4568744520123316,1.4004230264668753,0.022587468168818958,0.4009841918945325,-0.20478064594332684,2.9930026540327415,-1.0,0.46522523804912636,0.007503632871759567,0.1332082967806606,-0.0,-0.0,-0.0
14/04/2022,21:37:15,50.081842,-1.7749099608045071,16.70555294957012,2.9897918701171875,2.9990158081054688,0.7864527702331543,2.5226361751556396,-0.4818953573703766,2.0529115200042725,4.500921726226807,1.4254320859909058,47.641618472561554,-122.14018616162559,124.98979187011719,3.854208317824253,-7.759299899798,-90.24797824470834,-0.012984069994284596,2.9999719021894826,-1.0,-0.25267290441848195,2.996105953247152,1.455803504892839,1.3129643507049586,1.2470766206655859,0.020114139042991752,0.41020812988281374,-0.012984069994284596,2.9999719021894826,-1.0,0.4441068529431676,0.007163013757147305,0.14608263726147636,-0.683795687367365,-0.011028962699477817,2.3097208676313628
14/04/2022,21:37:15,50.260846,-1.6519147942308336,17.157733839936554,2.8462753295898438,2.9990158081054688,0.6402946710586548,2.588895320892334,-0.9923487305641174,2.0529115200042725,4.500921726226807,1.4254320859909058,47.64162259819215,-122.14018443186622,124.84329986572266,2.544784917689474,-6.1670670021539715,-83.82894388925314,0.3224913915490658,2.9826161842209515,0.0,0.4819946584383832,2.985188817557875,2.774323875411918,1.2466864437897174,1.11682209907601,0.0180132596625171,0.5537246704101575,0.3224913915490658,2.9826161842209515,0.0,0.4096201346628055,0.0066067763655294175,0.203091230239069,-0.2501168677734882,-0.004034143028605609,2.571232645172849
14/04/2022,21:37:15,50.438846,-1.55943592695985,17.624984794296324,2.7077713012695312,2.9990158081054688,0.46540409326553345,2.6925604343414307,-0.38895779848098755,2.0529115200042725,4.500921726226807,1.4254320859909058,47.641626795500265,-122.14018313879859,124.70658874511719,1.711082612385676,-3.1767366765978764,-77.59562598460799,0.6444296599514368,2.9299676471549776,0.0,1.019066890891102,2.9360101831378733,2.6813009651331883,1.23020273623655,1.0168329378380472,0.01640053125544938,0.69222869873047,0.6444296599514368,2.9299676471549776,0.0,0.37557333778964264,0.006057634480477001,0.25567881725856473,-0.0009361068499772494,-1.5098497581173425e-05,2.4256221478746234
14/04/2022,21:37:15,50.617846,-1.4880632701097056,18.116518288850784,2.6885528564453125,2.9990158081054688,0.40875399112701416,2.7593181133270264,0.01607411541044712,2.0529115200042725,4.500921726226807,1.4254320859909058,47.64163121238768,-122.14018211841604,124.6885986328125,1.5571289889048652,-0.3792843293981435,-74.22862349033342,0.81539854154255,2.887061692872233,0.0,1.1692719797495172,2.892769328972345,0.26853123115295413,1.177026437103527,0.9375529457458933,0.015121821705577077,0.7114471435546887,0.81539854154255,2.887061692872233,0.0,0.35387343820696726,0.005707636100111678,0.26853123115295413,0.0,0.0,0.0
14/04/2022,21:37:16,50.793846,-1.419575403793715,18.60784892272204,2.6932220458984375,2.9990158081054688,0.43546128273010254,2.789750337600708,0.0318615660071373,2.0529115200042725,4.500921726226807,1.4254320859909058,47.641635551565756,-122.14018115050725,124.69322204589844,1.4816013664384593,1.3646470929184333,-72.61194097833885,0.89652573936117,2.8629078921025224,0.0,1.22926064927212,2.8682745841978603,0.2730847072716828,1.1141476570448317,0.861160265012815,0.013889681693754596,0.7067779541015637,0.89652573936117,2.8629078921025224,0.0,0.33273490991095,0.005366692095337716,0.2730847072716828,-0.0,-0.0,0.0
14/04/2022,21:37:16,50.971845,-1.3428716452326626,19.103210764937103,2.699188232421875,2.9990158081054688,0.4977952241897583,2.8046250343322754,0.03450686112046242,2.0529115200042725,4.500921726226807,1.4254320859909058,47.64164007612591,-122.14018003639345,124.69928741455078,1.3443355750492738,2.137163683237467,-71.82512899754245,0.9357547385581108,2.850326835516594,0.0,1.2424666014878503,2.855273801047717,0.27681954399913167,1.0460539573766525,0.7764888262284148,0.012524013326260075,0.7008117675781262,0.9357547385581108,2.850326835516594,0.0,0.30671186292973956,0.0049469655311229835,0.27681954399913167,-0.0,-0.0,0.0
14/04/2022,21:37:16,51.146841,-1.2538910054136068,19.60043480899185,2.7050704956054688,2.9990158081054688,0.5713511109352112,2.8099026679992676,0.031136522069573402,2.0529115200042725,4.500921726226807,1.4254320859909058,47.64164454081143,-122.14017877551979,124.70516204833984,1.1752507041208171,2.2920270651823436,-71.44661775469174,0.9545642035797408,2.8440828365650983,0.0,0.9545642035797408,2.8440828365650983,0.0,0.9720010108545661,0.6795136714310559,0.010959897926305473,0.6949295043945325,0.9545642035797408,2.8440828365650983,0.0,0.0,0.0,0.0,-0.0,-0.0,0.0
14/04/2022,21:37:16,51.327847,-1.1519353358307853,20.098213992081583,2.7100677490234375,2.9990158081054688,0.642575740814209,2.8099961280822754,0.02490200661122799,2.0529115200042725,4.500921726226807,1.4254320859909058,47.64164900901439,-122.14017734192606,124.71014404296875,1.0110518362948036,2.127681941953375,-71.26652510837725,0.9634990220074465,2.8410683966759223,0.0,-0.6358118202506066,2.8152730605104597,1.2703665840641534,0.8946994545093445,0.569557909863324,0.00918641790102015,0.6899322509765637,0.9634990220074465,2.8410683966759223,0.0,0.0,0.0,0.0,-1.599310842258053,-0.025795336165462507,1.2703665840641534
14/04/2022,21:37:16,51.509844,-1.03599756967742,20.604368710890412,2.7139739990234375,2.9990158081054688,0.7063294649124146,2.8076748847961426,0.018408844247460365,2.0529115200042725,4.500921726226807,1.4254320859909058,47.64165347545864,-122.14017574949506,124.71397399902344,0.866980207204053,1.8269538898301347,-71.18100035556908,0.96773877724182,2.839627028153963,0.0,-0.9761374318398106,2.808274186071996,1.193532126795007,0.8180118737470247,0.4454886340090499,0.007185300548531615,0.6860260009765637,0.96773877724182,2.839627028153963,0.0,0.0,0.0,0.0,-1.9438762090816306,-0.03135284208196706,1.193532126795007
14/04/2022,21:37:16,51.688844,-0.9138445182470605,21.093282597139478,2.7167205810546875,2.9990158081054688,0.7578936219215393,2.804642677307129,0.013188153505325317,2.0529115200042725,4.500921726226807,1.4254320859909058,47.64165793747351,-122.14017402089087,124.71675872802734,0.7535884035722463,1.5130834234397386,-71.14285768048768,0.9696289457240097,2.838982160495931,0.0,-1.183154207093643,2.8042598515795154,1.0959515099156258,0.752613193100715,0.3154836949594416,0.005088446692891324,0.6832794189453137,0.9696289457240097,2.838982160495931,0.0,0.0,0.0,0.0,-2.1527831528176526,-0.034722308916415374,1.0959515099156258
14/04/2022,21:37:17,51.862845,-0.7788942295592278,21.59858676046133,2.718719482421875,2.9990158081054688,0.8012555837631226,2.801440477371216,0.009074120782315731,2.0529115200042725,4.500921726226807,1.4254320859909058,47.641662470019504,-122.14017214806933,124.71874237060547,0.6241397092795344,1.232226102807556,-72.81509561903833,0.8863690627819025,2.866068715949276,0.0,-1.3865701694834,2.8294084057514475,0.9916053625910524,0.7027657687487636,0.1724205563789517,0.002780976715790473,0.6812805175781262,0.8863690627819025,2.866068715949276,0.0,0.0,0.0,0.0,-2.2729392322653026,-0.03666031019782888,0.9916053625910524
14/04/2022,21:37:17,52.016852,-0.6658787374617532,22.00250126887113,2.7197265625,2.9990158081054688,0.8269268274307251,2.7998502254486084,0.004945789463818073,2.0529115200042725,4.500921726226807,1.4254320859909058,47.64166609263006,-122.1401705829215,124.71974182128906,0.5342845896335847,0.7478715203140297,-75.89796389321764,0.7309484332448473,2.9095900721470893,0.0,-1.5900317567707614,2.872154907791996,0.9202426915387736,0.6823293582066942,0.052921401334972584,0.0008535709892711907,0.6802734375000012,0.7309484332448473,2.9095900721470893,0.0,0.0,0.0,0.0,-2.3209801900156086,-0.03743516435509341,0.9202426915387736
14/04/2022,21:37:17,52.192847,-0.521073421696201,22.507493352517486,2.7203292846679688,2.9990158081054688,0.8362833857536316,2.8031039237976074,0.0027111538220196962,2.0529115200042725,4.500921726226807,1.4254320859909058,47.64167062154134,-122.14016858030656,124.7203369140625,0.5318536569172178,-0.24655299305802203,-78.00960930550414,0.6232429164849201,2.9345473700472735,0.0,-1.7271935908941023,2.8966371037992213,0.8508783580163165,0.6869881484372444,-0.09998916901323474,-0.001612728532471408,0.6796707153320325,0.6232429164849201,2.9345473700472735,0.0,-0.0,-0.0,0.0,-2.3504365073790225,-0.03791026624805227,0.8508783580163165
14/04/2022,21:37:17,52.368844,-0.377167331520468,23.01365850213915,2.7210006713867188,2.9990158081054688,0.8173065185546875,2.8128926753997803,0.005126140546053648,2.0529115200042725,4.500921726226807,1.4254320859909058,47.64167516127848,-122.14016659062351,124.72101593017578,0.5487382291281464,-1.04855560534775,-79.0317701861248,0.5707939780264422,2.945198505134883,0.0,-1.7974165525348598,2.907001561093571,0.8011107376083965,0.7242724085144698,-0.252019663138608,-0.004064833276434143,0.6789993286132825,0.5707939780264422,2.945198505134883,0.0,-0.0,-0.0,0.0,-2.368210530561302,-0.038196944041311756,0.8011107376083965
14/04/2022,21:37:17,52.546843,-0.24301526183262467,23.504899229854345,2.7220687866210938,2.9990158081054688,0.7815608382225037,2.8256025314331055,0.006813267711549997,2.0529115200042725,4.500921726226807,1.4254320859909058,47.641679567795826,-122.14016473366621,124.72209167480469,0.5661457570395144,-1.4064583335805545,-80.48898089735768,0.49571185464303924,2.9587615242135277,0.0,-1.8837339012907932,2.920383366859754,0.7718533852943382,0.7841637895471797,-0.3940580197051651,-0.0063557745113769215,0.6779312133789075,0.49571185464303924,2.9587615242135277,0.0,-0.0,-0.0,0.0,-2.3794457559338325,-0.03837815735377368,0.7718533852943382
14/04/2022,21:37:18,52.721846,-0.11374258960131556,24.00688815396279,2.7234115600585938,2.9990158081054688,0.736621081829071,2.8393986225128174,0.00821828655898571,2.0529115200042725,4.500921726226807,1.4254320859909058,47.64168407153777,-122.14016294044627,124.72343444824219,0.6080171685653678,-1.637039324126083,-82.90192036029248,0.0,0.0,0.0,-2.387903333985873,-0.03851456990300053,0.7521536469912051,0.8603617652260863,-0.531391560758969,-0.008570831625146269,0.6765884399414075,0.0,0.0,0.0,-0.0,-0.0,0.0,-2.387903333985873,-0.03851456990300053,0.7521536469912051
14/04/2022,21:37:18,52.901844,0.0032839231425896287,24.49347902368754,2.7413253784179688,2.9990158081054688,0.6455165147781372,2.6460680961608887,0.3729315996170044,2.0529115200042725,4.500921726226807,1.4254320859909058,47.641688432484706,-122.14016131434238,124.742431640625,-11.01497046967857,-2.246491515510408,-84.07163091819325,0.0,0.0,-4.0,-2.4973985363365414,-0.04028062155381783,-4.107143766352666,0.9298425322130824,-0.6562338361583204,-0.010584416712230649,0.6586746215820325,0.0,0.0,-4.0,-0.0,-0.0,0.0,-2.4973985363365414,-0.04028062155381783,-0.1071437663526665
14/04/2022,21:37:18,53.084844,0.10662176110781729,24.94202891178429,2.7766799926757812,2.9990158081054688,0.562839686870575,2.3469667434692383,-0.2338920682668686,2.0529115200042725,4.500921726226807,1.4254320859909058,47.64169244955635,-122.1401598757937,124.7760009765625,-19.10267120924821,-3.1769575993025123,-84.46868969766248,0.0,0.0,0.0,-2.1930464063635893,-0.03537171623167668,1.215965766032846,0.9882452426495179,-0.7667775922572369,-0.012367380520281301,0.62332000732422,0.0,0.0,0.0,-0.0,-0.0,0.0,-2.1930464063635893,-0.03537171623167668,1.215965766032846
14/04/2022,21:37:18,53.258845,0.19030537141952664,25.311373649165034,2.7420883178710938,2.9990158081054688,0.39964526891708374,1.7046594619750977,0.02849944680929184,2.0529115200042725,4.500921726226807,1.4254320859909058,47.64169574682972,-122.14015871376492,124.74217224121094,-15.134717503336878,-2.4576400010647492,-85.02597423640849,0.0,0.0,0.0,-2.6900546799092564,-0.04338797870822077,1.084618919447067,1.0800236469911257,-0.8563950621547185,-0.013812823583140954,0.6579116821289075,0.0,0.0,0.0,-0.3347299092132082,-0.0053988695034389725,0.25715084936995153,-2.3553247706960483,-0.037989109204781796,0.8274680700771155
14/04/2022,21:37:18,53.436846,0.24969232734292746,25.57877400610596,2.7405242919921875,2.9990158081054688,0.30678877234458923,1.3238292932510376,-0.06426708400249481,2.0529115200042725,4.500921726226807,1.4254320859909058,47.64169813634323,-122.14015788744322,124.7403335571289,-11.29306533770489,-1.7845681801937276,-85.34809974220612,0.0,0.0,0.0,-2.5831104169562984,-0.04166307124123585,1.3680007722103558,1.1321098105041238,-0.9200783601260812,-0.014839973550426322,0.6594757080078137,0.0,0.0,0.0,-0.3532267439779456,-0.005697205548033553,0.25317893254247315,-2.2298836729783527,-0.035965865693202294,1.1148218396678826
14/04/2022,21:37:18,53.616844,0.29562562715727836,25.787521817721426,2.7225418090820312,2.9990158081054688,0.23816291987895966,1.034139633178711,-0.13118673861026764,2.0529115200042725,4.500921726226807,1.4254320859909058,47.64169997406178,-122.14015725744895,124.72254180908203,-8.650938546857896,-1.3400318083440188,-85.50765179769644,0.0,0.0,0.0,-2.46845391719673,-0.03981377285801657,1.5918055333767496,1.182735805651485,-0.9693657382292085,-0.01563493126176496,0.67745819091797,0.0,0.0,0.0,-0.3650589760385828,-0.005888048000623634,0.25512784672712185,-2.103394941158147,-0.03392572485739294,1.3366776866496277
