date,fly_time,fly_time_s,x,y,z,z_max,vx,vy,vz,vx_max,vy_max,vz_max,latitude,longitude,altitude,pitch,roll,yaw,cx,cy,cz,scx,scy,scz,d,dx,dy,dz,gc_pow_x,gc_pow_y,gc_pow_z,gpc_pow_x,gpc_pow_y,gpc_pow_z,gfc_pow_x,gfc_pow_y,gfc_pow_z
22/04/2022,13:06:36,30.425516,0.0,0.0,2.61651611328125,2.61651611328125,0.0,0.0,0.5455836057662964,0,0,0.5455836057662964,47.641468,-122.140165,124.61817169189453,0.0,0.0,0.0,0.0,0.0,0.0,0.0,0.0,0.0,0.8248799759602112,-0.25799739921976594,-0.004161248374512427,0.7834838867187512,0.0,0.0,0.0,-0.0,-0.0,0.0,-0.0,-0.0,-0.0
22/04/2022,13:06:36,30.611513,0.0,0.0,2.6477508544921875,2.6477508544921875,0.0,0.0,-0.057008951902389526,0,0,0.5455836057662964,47.641468,-122.140165,124.6475830078125,0.0,0.0,0.0,0.0,0.0,0.0,0.0,0.0,0.0,0.7952727525254677,-0.25799739921976594,-0.004161248374512427,0.7522491455078137,0.0,0.0,0.0,-0.0,-0.0,0.0,-0.0,-0.0,0.0
22/04/2022,13:06:36,30.775518,0.0,0.0,2.63677978515625,2.6477508544921875,0.0,0.0,-0.07179006934165955,0,0,0.5455836057662964,47.641468,-122.140165,124.63656616210938,0.0,0.0,0.0,0.0,0.0,0.0,0.0,0.0,0.0,0.805658159729261,-0.25799739921976594,-0.004161248374512427,0.7632202148437512,0.0,0.0,0.0,-0.0,-0.0,0.0,-0.0,-0.0,0.0
22/04/2022,13:06:36,30.938516,0.0,0.0,2.6257553100585938,2.6477508544921875,0.0,0.0,-0.06130317226052284,0,0,0.5455836057662964,47.641468,-122.140165,124.62557220458984,0.0,0.0,0.0,0.0,0.0,0.0,0.0,0.0,0.0,0.8161095599823984,-0.25799739921976594,-0.004161248374512427,0.7742446899414075,0.0,0.0,0.0,-0.0,-0.0,0.0,-0.0,-0.0,0.0
22/04/2022,13:06:37,31.128522,0.0,0.0,2.615203857421875,2.6477508544921875,0.0,0.0,-0.05037592351436615,0,0,0.5455836057662964,47.641468,-122.140165,124.61505126953125,0.0,0.0,0.0,0.0,0.0,0.0,0.0,0.0,0.0,0.8261264790561457,-0.25799739921976594,-0.004161248374512427,0.7847961425781262,0.0,0.0,0.0,-0.0,-0.0,0.0,-0.0,-0.0,0.0
22/04/2022,13:06:37,31.323514,0.0,0.0,2.6062774658203125,2.6477508544921875,0.0,0.0,-0.041218794882297516,0,0,0.5455836057662964,47.641468,-122.140165,124.60615539550781,0.0,0.0,0.0,0.0,0.0,0.0,0.0,0.0,0.0,0.8346109484405442,-0.25799739921976594,-0.004161248374512427,0.7937225341796887,0.0,0.0,0.0,-0.0,-0.0,0.0,-0.0,-0.0,0.0
22/04/2022,13:06:37,31.481515,0.0,0.0,2.600311279296875,2.6477508544921875,0.0,0.0,-0.03518519178032875,0,0,0.5455836057662964,47.641468,-122.140165,124.60031127929688,0.0,0.0,0.0,0.0,0.0,0.0,0.0,0.0,0.0,0.8402868700699782,-0.25799739921976594,-0.004161248374512427,0.7996887207031262,0.0,0.0,0.0,-0.0,-0.0,0.0,-0.0,-0.0,0.0
22/04/2022,13:06:37,31.673515,0.0,0.0,2.5940628051757812,2.6477508544921875,0.0,0.0,-0.028965385630726814,0,0,0.5455836057662964,47.641468,-122.140165,124.5939712524414,0.0,0.0,0.0,0.0,0.0,0.0,0.0,0.0,0.0,0.8462356267573059,-0.25799739921976594,-0.004161248374512427,0.80593719482422,0.0,0.0,0.0,-0.0,-0.0,0.0,-0.0,-0.0,0.0
22/04/2022,13:06:37,31.867515,0.0,0.0,2.58905029296875,2.6477508544921875,0.0,0.0,-0.02408701740205288,0,0,0.5455836057662964,47.641468,-122.140165,124.58905029296875,0.0,0.0,0.0,0.0,0.0,0.0,0.0,0.0,0.0,0.8510108115213754,-0.25799739921976594,-0.004161248374512427,0.8109497070312512,0.0,0.0,0.0,-0.0,-0.0,0.0,-0.0,-0.0,0.0
22/04/2022,13:06:37,32.022513,0.0,0.0,2.5855484008789062,2.6477508544921875,0.0,0.0,-0.020759426057338715,0,0,0.5455836057662964,47.641468,-122.140165,124.58548736572266,0.0,0.0,0.0,0.0,0.0,0.0,0.0,0.0,0.0,0.8543485127880228,-0.25799739921976594,-0.004161248374512427,0.814451599121095,0.0,0.0,0.0,-0.0,-0.0,0.0,-0.0,-0.0,0.0
22/04/2022,13:06:38,32.179514,0.0,0.0,2.5825271606445312,2.6477508544921875,0.0,0.0,-0.017957670614123344,0,0,0.5455836057662964,47.641468,-122.140165,124.58247375488281,0.0,0.0,0.0,0.0,0.0,0.0,0.0,0.0,0.0,0.8572291508552959,-0.25799739921976594,-0.004161248374512427,0.81747283935547,0.0,0.0,0.0,-0.0,-0.0,0.0,-0.0,-0.0,0.0
22/04/2022,13:06:38,32.339517,0.0,0.0,2.5798568725585938,2.6477508544921875,0.0,0.0,-0.015556760132312775,0,0,0.5455836057662964,47.641468,-122.140165,124.5798568725586,0.0,0.0,0.0,0.0,0.0,0.0,0.0,0.0,0.0,0.8597759728450025,-0.25799739921976594,-0.004161248374512427,0.8201431274414075,0.0,0.0,0.0,-0.0,-0.0,0.0,-0.0,-0.0,0.0
22/04/2022,13:06:38,32.500514,0.0,0.0,2.577545166015625,2.6477508544921875,0.0,0.0,-0.01354201603680849,0,0,0.5455836057662964,47.641468,-122.140165,124.57750701904297,0.0,0.0,0.0,0.0,0.0,0.0,0.0,0.0,0.0,0.8619813965141391,-0.25799739921976594,-0.004161248374512427,0.8224548339843762,0.0,0.0,0.0,-0.0,-0.0,0.0,-0.0,-0.0,0.0
22/04/2022,13:06:38,32.654518,0.0,0.0,2.5755996704101562,2.6477508544921875,0.0,0.0,-0.011909405700862408,0,0,0.5455836057662964,47.641468,-122.140165,124.5755615234375,0.0,0.0,0.0,0.0,0.0,0.0,0.0,0.0,0.0,0.8638378768148817,-0.25799739921976594,-0.004161248374512427,0.824400329589845,0.0,0.0,0.0,-0.0,-0.0,0.0,-0.0,-0.0,0.0
22/04/2022,13:06:38,32.815516,0.0,0.0,2.5738143920898438,2.6477508544921875,0.0,0.0,-0.010480944067239761,0,0,0.5455836057662964,47.641468,-122.140165,124.57378387451172,0.0,0.0,0.0,0.0,0.0,0.0,0.0,0.0,0.0,0.8655418145358861,-0.25799739921976594,-0.004161248374512427,0.8261856079101575,0.0,0.0,0.0,-0.0,-0.0,0.0,-0.0,-0.0,0.0
22/04/2022,13:06:38,32.966515,0.0,0.0,2.5722732543945312,2.6477508544921875,0.0,0.0,-0.009302533231675625,0,0,0.5455836057662964,47.641468,-122.140165,124.5722427368164,0.0,0.0,0.0,0.0,0.0,0.0,0.0,0.0,0.0,0.8670129983932306,-0.25799739921976594,-0.004161248374512427,0.82772674560547,0.0,0.0,0.0,-0.0,-0.0,0.0,-0.0,-0.0,0.0
22/04/2022,13:06:39,33.130522,0.0,0.0,2.5708694458007812,2.6477508544921875,0.0,0.0,-0.008292978629469872,0,0,0.5455836057662964,47.641468,-122.140165,124.57084655761719,0.0,0.0,0.0,0.0,2.0,0.0,0.0,2.0,0.0,0.8683532978568708,-0.25799739921976594,-0.004161248374512427,0.82913055419922,0.0,2.0,0.0,-0.0,-0.0,0.0,-0.0,-0.0,0.0
22/04/2022,13:06:39,33.294513,-4.2868778109550476e-05,0.0038654999807476997,2.5763626098632812,2.6477508544921875,-7.439222848848459e-12,0.09994105249643326,0.15016546845436096,0,0.09994105249643326,0.5455836057662964,47.64146803741548,-122.140165,124.5768051147461,-1.0199118403447624e-09,-7.370571663860511,3.3538972401539535e-09,-0.9999999997073172,5.000000000058536,0.0,-0.9999999997073172,5.000000000058536,0.0,0.8631156210770501,-0.2580168721497408,-0.004161562454028156,0.82363739013672,-0.9999999997073172,5.000000000058536,0.0,-0.0,-0.0,0.0,-0.0,-0.0,0.0
22/04/2022,13:06:39,33.449513,-0.0005393048049882054,0.048629303462803364,2.6320877075195312,2.6477508544921875,2.0859130395178838e-11,0.6138418912887573,0.715225875377655,2.0859130395178838e-11,0.6138418912887573,0.715225875377655,47.641468437558885,-122.140165,124.63208770751953,-3.811163901219955e-09,-20.31090305641398,1.8566053996969326e-08,-0.9999999983798061,5.000000000324039,0.0,-0.9999999983798061,5.000000000324039,0.0,0.8101825483858774,-0.2582423742898099,-0.004165199585319579,0.76791229248047,-0.9999999983798061,5.000000000324039,0.0,-0.0,-0.0,0.0,-0.0,-0.0,-0.0
22/04/2022,13:06:39,33.607516,-0.00232788547873497,0.20990623719990253,2.79693603515625,2.79693603515625,2.3244828284418872e-10,1.559037208557129,1.4542292356491089,2.3244828284418872e-10,1.559037208557129,1.4542292356491089,47.64146993046989,-122.140165,124.80127716064453,-2.0072274347652448e-08,-24.270941318778313,6.765399169916611e-08,-0.9999999964576453,3.000000001180785,0.0,-1.3347698052734593,2.9946004881353674,-2.494967600255218,0.6563634704184647,-0.25905482312773387,-0.004178303598834421,0.6030639648437512,-0.9999999964576453,3.000000001180785,0.0,-0.0,-0.0,0.0,-0.33476980881581403,-0.005399513045417473,-2.494967600255218
22/04/2022,13:06:39,33.794514,-0.007725676870904863,0.5585741121321917,3.031280517578125,3.031280517578125,-0.03141268342733383,2.0030534267425537,0.7554056644439697,2.3244828284418872e-10,2.0030534267425537,1.4542292356491089,47.641473080054006,-122.14016502161446,125.0335693359375,-4.623675125338941,-13.350255276941521,-0.4514244090483928,-1.0236052443248003,2.99202812550129,0.0,-1.5173537512220867,2.9840644399061733,-2.159985242853313,0.4507748884077004,-0.25928064839023085,-0.004181945941778009,0.36871948242187624,-1.0236052443248003,2.99202812550129,0.0,-0.0,-0.0,0.0,-0.49374850689728644,-0.007963685595116773,-2.159985242853313
22/04/2022,13:06:39,33.957515,-0.022029772750101984,0.8869885299354792,3.0897979736328125,3.0897979736328125,-0.11020349711179733,2.124584913253784,-0.04219711199402809,2.3244828284418872e-10,2.124584913253784,1.4542292356491089,47.64147598220093,-122.14016516231455,125.08979797363281,-6.48169160244591,-5.964841332606217,-1.1264900303770347,-1.0981051964370676,4.979373954379999,0.0,-1.0981051964370676,4.979373954379999,0.0,0.3985970637049542,-0.2502759017957367,-0.004036708093479557,0.31020202636718874,-1.0981051964370676,4.979373954379999,0.0,-0.0,-0.0,0.0,-0.0,-0.0,0.0
22/04/2022,13:06:40,34.119514,-0.05341467587277293,1.2325014248490334,3.0514755249023438,3.0897979736328125,-0.25911933183670044,2.274677276611328,-0.2545849680900574,2.3244828284418872e-10,2.274677276611328,1.4542292356491089,47.64147915506123,-122.14016553940556,125.05071258544922,-5.6077371791366435,-8.532451414369653,-0.8095105954798012,-2.070441161124075,4.971244652833251,0.0,-2.070441161124075,4.971244652833251,0.0,0.41457137296580754,-0.22447050046442157,-0.0036204919429745352,0.3485244750976575,-2.070441161124075,4.971244652833251,0.0,-0.0,-0.0,0.0,0.0,0.0,0.0
22/04/2022,13:06:40,34.315515,-0.13258909760043025,1.7067404361441731,3.0272369384765625,3.0897979736328125,-0.5210614800453186,2.6134936809539795,-0.010042782872915268,2.3244828284418872e-10,2.6134936809539795,1.4542292356491089,47.6414833683246,-122.14016651307433,125.02723693847656,-8.348895652930583,-9.55900285415604,-0.6723577880908903,0.0,0.0,0.0,0.0,0.0,0.0,0.40293458472631843,-0.1529636972340403,-0.0024671564070004592,0.37276306152343874,0.0,0.0,0.0,-0.0,-0.0,0.0,0.0,0.0,0.0
22/04/2022,13:06:40,34.516518,-0.2613742067478597,2.237998883239925,2.992340087890625,3.0897979736328125,-0.6670042276382446,2.6488895416259766,-0.23650428652763367,2.3244828284418872e-10,2.6488895416259766,1.4542292356491089,47.64148823222624,-122.14016817572386,124.99161529541016,-0.6148097185988022,7.728055722299599,-2.1210188276448916,-0.03701030760271165,0.999314883873523,0.0,1.936994759162852,1.0311536752729644,1.4302800064617152,0.4089759357560213,-0.03277853836725686,-0.0005286861026974066,0.40765991210937624,-0.03701030760271165,0.999314883873523,0.0,-0.0,-0.0,0.0,1.9740050667655638,0.03183879139944142,1.4302800064617152
22/04/2022,13:06:40,34.704555,-0.38345748372375965,2.6962658371776342,3.0195159912109375,3.0897979736328125,-0.49344757199287415,2.186917781829834,0.6832415461540222,2.3244828284418872e-10,2.6488895416259766,1.4542292356491089,47.64149235489433,-122.14016972643579,125.02153778076172,6.24683276565243,9.054107260410895,-2.356218187777642,-1.2047154125254025,4.954660510552035,0.0,0.49791903037602214,4.9821223564052834,-1.6821694328839993,0.38919755133264783,0.0818835072897578,0.001320701730480156,0.38048400878906374,-1.2047154125254025,4.954660510552035,0.0,0.0,0.0,0.0,1.7026344429014246,0.02746184585324865,-1.6821694328839993
22/04/2022,13:06:40,34.896567,-0.4618528642458841,3.087797719053924,3.14056396484375,3.14056396484375,-0.3345088064670563,2.065805196762085,0.2241804003715515,2.3244828284418872e-10,2.6488895416259766,1.4542292356491089,47.64149588184344,-122.14017070579963,125.1412582397461,5.1472976350430155,-4.560952280939364,-3.890020882315384,-1.3369037323221025,4.920639024608819,0.0,-1.3369037323221025,4.920639024608819,0.0,0.30168248000001296,0.1539451109440404,0.0024829856603871825,0.25943603515625124,-1.3369037323221025,4.920639024608819,0.0,0.0,0.0,0.0,0.0,0.0,-0.0
22/04/2022,13:06:40,35.081554,-0.5244594402611256,3.491871066391468,3.1278305053710938,3.14056396484375,-0.30055996775627136,2.285491466522217,-0.12833423912525177,2.3244828284418872e-10,2.6488895416259766,1.4542292356491089,47.6414995292974,-122.14017147817681,125.12744903564453,-0.6056166512633877,-10.033479952450428,-4.289875175049788,-2.3684092928441456,4.836386814717108,0.0,-2.3684092928441456,4.836386814717108,0.0,0.34379647970764277,0.21001978732054505,0.0033874159245246283,0.2721694946289075,-2.3684092928441456,4.836386814717108,0.0,0.0,0.0,0.0,0.0,0.0,0.0
22/04/2022,13:06:41,35.245587,-0.5834773208480328,3.8771026143804193,3.119842529296875,3.14056396484375,-0.42408841848373413,2.589442491531372,0.048069946467876434,2.3244828284418872e-10,2.6488895416259766,1.4542292356491089,47.64150293949033,-122.14017219495155,125.11984252929688,-6.035187873210982,-10.468135704847473,-4.329348346236097,-2.2207616946014164,2.8404607893422935,0.0,-0.19055429730184636,2.8732060699438975,0.3636806092588194,0.38415562895558236,0.262810522561314,0.00423887939615053,0.28015747070312624,-2.2207616946014164,2.8404607893422935,0.0,0.0,0.0,0.0,2.03020739729957,0.03274528060160409,0.3636806092588194
22/04/2022,13:06:41,35.408585,-0.6652833689004183,4.293698103167117,3.107086181640625,3.14056396484375,-0.5332300662994385,2.7273507118225098,-0.3236421048641205,2.3244828284418872e-10,2.7273507118225098,1.4542292356491089,47.64150676914436,-122.14017324377667,125.10611724853516,-1.4604970240452875,-2.078845808722821,-5.000975718005055,-0.08717270742442132,0.9961932137292927,0.0,1.9241430085096527,1.0286337897927464,1.436842801451731,0.4472019503076789,0.33787776011881576,0.005449641292238461,0.29291381835937624,-0.08717270742442132,0.9961932137292927,0.0,0.0,0.0,0.0,2.011315715934074,0.03244057606345367,1.436842801451731
22/04/2022,13:06:41,35.591587,-0.7657685065641999,4.793310195207596,3.0950088500976562,3.14056396484375,-0.41498538851737976,2.5840134620666504,0.45517390966415405,2.3244828284418872e-10,2.7273507118225098,1.4542292356491089,47.64151127027093,-122.14017450307448,125.09634399414062,5.128823278581479,6.9789069522447225,-4.858686108073055,-0.08469847282647343,0.996406628189949,0.0,2.000455031994076,1.0300381363322124,-1.0727114090909076,0.5274553630578812,0.43028060003378765,0.006940009677963488,0.304991149902345,-0.08469847282647343,0.996406628189949,0.0,0.0,0.0,0.0,2.0851535048205494,0.033631508142263525,-1.0727114090909076
22/04/2022,13:06:41,35.749587,-0.8218923598760739,5.187153058126569,3.1691970825195312,3.1691970825195312,-0.24876458942890167,2.413234233856201,0.12455955892801285,2.3244828284418872e-10,2.7273507118225098,1.4542292356491089,47.64151481452712,-122.14017518537457,125.16959381103516,10.998164554767298,10.189377469863146,-4.530438183593658,-0.39494346748880704,4.984377559684651,0.0,-0.39494346748880704,4.984377559684651,0.0,0.5326983874999646,0.4800392046189287,0.0077425678164342315,0.23080291748047,-0.39494346748880704,4.984377559684651,0.0,0.0,0.0,0.0,0.0,0.0,-0.0
22/04/2022,13:06:41,35.904586,-0.8498874038923532,5.5462159384042025,3.1482391357421875,3.1691970825195312,-0.052154865115880966,2.3161962032318115,-0.24751047790050507,2.3244828284418872e-10,2.7273507118225098,1.4542292356491089,47.64151804506035,-122.14017549719226,125.14749145507812,6.500794033533836,-0.4806408489872,-6.365112438568354,-1.5481546261572658,4.858314239888961,0.0,-1.5481546261572658,4.858314239888961,0.0,0.5618641245165064,0.5022371371602458,0.008100598986455765,0.25176086425781374,-1.5481546261572658,4.858314239888961,0.0,0.0,0.0,0.0,0.0,0.0,0.0
22/04/2022,13:06:41,36.067585,-0.8529598315944895,5.929538580588996,3.1236648559570312,3.1691970825195312,0.023129893466830254,2.464348316192627,-0.024421842768788338,0.023129893466830254,2.7273507118225098,1.4542292356491089,47.641521497960895,-122.14017547839653,125.12358093261719,-0.7118928604762258,-7.54210535067264,-6.974711398913071,-1.5997561048398428,4.841567969679621,0.0,-1.5997561048398428,4.841567969679621,0.0,0.5705737751191128,0.4991277504948504,0.008050447588626497,0.27633514404297,-1.5997561048398428,4.841567969679621,0.0,0.0,0.0,0.0,0.0,0.0,0.0
22/04/2022,13:06:42,36.248513,-0.8633705712854862,6.403993470594287,3.1369781494140625,3.1691970825195312,-0.09931492805480957,2.7390642166137695,0.12975938618183136,0.023129893466830254,2.7390642166137695,1.4542292356491089,47.64152577494528,-122.14017555180544,125.13736724853516,-3.810313418961952,-9.120655739394106,-7.049190684044081,-1.483326909669745,3.8470431865329515,0.0,-1.483326909669745,3.8470431865329515,0.0,0.5666876128335707,0.5018852746019671,0.00809492378390253,0.26302185058593874,-1.483326909669745,3.8470431865329515,0.0,0.0,0.0,0.0,0.0,0.0,0.0
22/04/2022,13:06:42,36.400509,-0.8916007207008079,6.826624097302556,3.1469039916992188,3.1691970825195312,-0.21948502957820892,2.894082546234131,-0.011774259619414806,0.023129893466830254,2.894082546234131,1.4542292356491089,47.6415295063032,-122.1401758612958,125.14690399169922,-4.642700029799379,-5.136731765914144,-7.40858921913075,0.0,0.0,0.0,0.0,0.0,0.0,0.5813472568844603,0.5232932318182437,0.008440213416421649,0.2530960083007825,0.0,0.0,0.0,0.0,0.0,0.0,0.0,0.0,0.0
22/04/2022,13:06:42,36.582512,-0.9485041446750984,7.353273868560791,3.1439056396484375,3.1691970825195312,-0.32114920020103455,2.7588236331939697,0.20255205035209656,0.023129893466830254,2.894082546234131,1.4542292356491089,47.64153432456277,-122.1401765538884,125.14450073242188,-2.2035723323460887,10.174759026585722,-8.420065504113923,0.0,0.0,0.0,2.157070074676704,0.034791452817363636,-0.2857487485213164,0.6264969866359593,0.5716897145072326,0.009220801846889337,0.25609436035156374,0.0,0.0,0.0,0.0,0.0,0.0,2.157070074676704,0.034791452817363636,-0.2857487485213164
22/04/2022,13:06:42,36.73551,-0.9963744708802551,7.728551113978028,3.2050018310546875,3.2050018310546875,-0.20898860692977905,2.3133671283721924,0.6746464371681213,0.023129893466830254,2.894082546234131,1.4542292356491089,47.64153769364398,-122.14017713137834,125.2070083618164,5.766020312822555,15.498411134558914,-8.449431167739425,0.0,0.0,0.0,1.555259681206116,0.025084833567836848,-1.876362932967595,0.6438166792976342,0.6134963061110696,0.009895101711467902,0.19499816894531374,0.0,0.0,0.0,0.0,0.0,0.0,1.555259681206116,0.025084833567836848,-1.876362932967595
22/04/2022,13:06:42,36.915509,-1.0186268286779523,8.11112093552947,3.2954940795898438,3.2954940795898438,-0.022078298032283783,1.9964390993118286,0.07040736824274063,0.023129893466830254,2.894082546234131,1.4542292356491089,47.64154112912015,-122.14017736358402,125.29573059082031,6.129836097881798,16.36827662122251,-8.427003325562506,-1.135752627956717,0.8426541212676832,0.0,-1.135752627956717,0.8426541212676832,0.0,0.6382695524457767,0.6295740003732696,0.010154419360857148,0.1045059204101575,-1.135752627956717,0.8426541212676832,0.0,0.0,0.0,0.0,0.0,0.0,-0.0
22/04/2022,13:06:42,37.09351,-1.011584596009925,8.431112459860742,3.3037109375,3.3037109375,0.10301119089126587,1.514601707458496,0.21442008018493652,0.10301119089126587,2.894082546234131,1.4542292356491089,47.64154395343481,-122.14017722166766,125.3037109375,-3.0339892640661312,12.28920712691587,-8.592279389048684,-3.5639379942446423,3.5068997666285635,0.0,-3.5639379942446423,3.5068997666285635,0.0,0.6249169002326108,0.6173737879195802,0.009957641740637513,0.09628906250000124,-3.5639379942446423,3.5068997666285635,0.0,0.0,0.0,0.0,0.0,0.0,-0.0
22/04/2022,13:06:43,37.239512,-1.0048951340140775,8.636261102743447,3.3276519775390625,3.3276519775390625,-0.05315390229225159,1.3273066282272339,0.20293916761875153,0.10301119089126587,2.894082546234131,1.4542292356491089,47.641545834209474,-122.14017710428891,125.32823944091797,-11.457175965394455,-0.866309564094699,-6.919864193441853,-3.4600709588230636,3.6094194768562495,0.0,-3.4600709588230636,3.6094194768562495,0.0,0.6117502226045295,0.607378077185961,0.00979642059977337,0.07234802246093874,-3.4600709588230636,3.6094194768562495,0.0,0.0,0.0,0.0,0.0,0.0,-0.0
22/04/2022,13:06:43,37.428513,-1.069569098064676,8.888462694361806,3.4239501953125,3.4239501953125,-0.6415018439292908,1.4933393001556396,0.7454268336296082,0.10301119089126587,2.894082546234131,1.4542292356491089,47.64154811407007,-122.14017795152698,125.42618560791016,-14.83101268415068,-9.074158886824481,-5.196271982948445,-3.3499420073499424,3.711857829630903,0.0,-1.362780979478357,3.74390881395141,-1.582230079489762,0.6684845669373084,0.6679685112900344,0.010773685665967037,-0.023950195312498757,-3.3499420073499424,3.711857829630903,0.0,0.0,0.0,-0.0,1.9871610278715854,0.032050984320507105,-1.582230079489762
22/04/2022,13:06:43,37.610511,-1.2216716579860076,9.180665276013315,3.5123519897460938,3.5123519897460938,-0.8913140892982483,1.6591107845306396,0.0148912463337183,0.10301119089126587,2.894082546234131,1.4542292356491089,47.641550717925725,-122.14017990772443,125.5123519897461,-6.428272886601771,-10.304400305728462,-5.008763970007206,-0.08730811980017009,0.9961813550839823,0.0,2.4907443283542694,1.0377628461832482,-0.14403822233695784,0.8231295561724329,0.8153197935462647,0.013150319250746278,-0.1123519897460925,-0.08730811980017009,0.9961813550839823,0.0,0.0,0.0,-0.0,2.5780524481544393,0.04158149109926583,-0.14403822233695784
22/04/2022,13:06:43,37.77051,-1.3676818899111822,9.44815744459629,3.4799575805664062,3.5123519897460938,-0.8710759282112122,1.7944430112838745,-0.15036530792713165,0.10301119089126587,2.894082546234131,1.4542292356491089,47.64155318739564,-122.14018184689962,125.47948455810547,7.546822000280256,-1.2075997447844693,-4.927245911076107,0.0,0.0,0.0,2.6280336274597667,0.04238763915257493,0.21970514538358393,0.960437322631793,0.956978783681044,0.015435141672274,-0.079957580566405,0.0,0.0,0.0,0.0,0.0,-0.0,2.6280336274597667,0.04238763915257493,0.21970514538358393
22/04/2022,13:06:43,37.950512,-1.488170594559051,9.765010751783848,3.5173187255859375,3.5173187255859375,-0.3723739981651306,1.6757313013076782,0.5275468230247498,0.10301119089126587,2.894082546234131,1.4542292356491089,47.64155600171793,-122.14018336913607,125.51731872558594,13.637975640329609,7.990152287431674,-3.3467968956133882,0.0,0.0,0.0,2.5014286153029124,0.040345622827465066,-1.4306435633085703,1.0788641691096026,1.0723269437904794,0.01729559586758711,-0.11731872558593626,0.0,0.0,0.0,0.4192863388538374,0.006762682884738818,-0.04587233326064446,2.082142276449075,0.03358293994272625,-1.3847712300479258
22/04/2022,13:06:44,38.136511,-1.528753085876815,10.053510870784521,3.5733261108398438,3.5733261108398438,-0.07453445345163345,1.5000827312469482,-0.1407451331615448,0.10301119089126587,2.894082546234131,1.4542292356491089,47.64155864179033,-122.14018386985155,125.57292938232422,14.439841085904806,10.922930425523983,-2.751982850477653,-1.14288481321824,2.9485274805765522,0.0,1.531982986972667,2.9916705096118887,0.1343331715728991,1.121861205229561,1.1082468629705686,0.017874949402751028,-0.1733261108398425,-1.14288481321824,2.9485274805765522,0.0,0.4270382971235445,0.006887714469734559,-0.0667873645242691,2.2478295030673627,0.03625531456560195,0.2011205360971682
22/04/2022,13:06:44,38.325046,-1.5081134305801243,10.310258408077061,3.5399703979492188,3.5733261108398438,0.33153465390205383,1.294115662574768,-0.08271072804927826,0.33153465390205383,2.894082546234131,1.4542292356491089,47.64156090915763,-122.14018355412325,125.53997039794922,8.628170847112107,1.90622692585089,-4.6967809542407295,-2.3208140354839686,3.8228029262179626,0.0,-1.899082120514735,3.8296050538787565,-0.0544822139167922,1.092616078981119,1.0834725632897841,0.01747536392402793,-0.1399703979492175,-2.3208140354839686,3.8228029262179626,0.0,0.4217319149692337,0.0068021276607937615,-0.0544822139167922,0.0,0.0,0.0
22/04/2022,13:06:44,38.515025,-1.4342866949737072,10.555762491188943,3.52178955078125,3.5733261108398438,0.42130938172340393,1.403266191482544,0.014835739508271217,0.42130938172340393,2.894082546234131,1.4542292356491089,47.64156314828783,-122.14018251819563,125.52182006835938,-2.304820010494389,-7.137093764140081,-5.442006480014578,0.0,0.0,-5.0,0.400922365407674,0.006466489764639775,-5.048551106873628,1.0131836011951953,1.0057063149610443,0.016221069596145554,-0.12178955078124876,0.0,0.0,-5.0,0.400922365407674,0.006466489764639775,-0.04855110687362804,0.0,0.0,-0.0
22/04/2022,13:06:44,38.691028,-1.369641710887663,10.827626060694456,3.4995651245117188,3.5733261108398438,0.32696589827537537,1.5073151588439941,-0.5258802771568298,0.42130938172340393,2.894082546234131,1.4542292356491089,47.641565590595704,-122.14018162128234,125.49800872802734,-4.939932430140554,1.529279634637766,-6.271682152311546,0.0,0.0,0.0,0.0,0.0,0.0,0.9420922677397109,0.9366943877474956,0.015107973995926116,-0.0995651245117175,0.0,0.0,0.0,0.0,0.0,-0.0,0.0,0.0,0.0
22/04/2022,13:06:44,38.87003,-1.3245343521703035,11.0859286300838,3.4040298461914062,3.5733261108398438,0.20255956053733826,1.3202942609786987,-0.3773677349090576,0.42130938172340393,2.894082546234131,1.4542292356491089,47.64156790497948,-122.14018098764109,125.40289306640625,-3.431646289678193,6.706384191614844,-6.751618111884559,0.0,0.0,0.0,0.0,0.0,0.0,0.8875582455820299,0.8874336735181927,0.01431344634706555,-0.0040298461914050066,0.0,0.0,0.0,0.0,0.0,-0.0,0.0,0.0,0.0
22/04/2022,13:06:44,39.022026,-1.301036543562077,11.26594630908221,3.3559112548828125,3.5733261108398438,0.1466159075498581,1.1213351488113403,-0.28987598419189453,0.42130938172340393,2.894082546234131,1.4542292356491089,47.64156951684597,-122.14018065050813,125.35504150390625,-2.4746154944317897,7.190296646819232,-6.8075963114392595,0.0,0.0,-5.0,0.0,0.0,-5.0,0.8622790879253341,0.8610392203613855,0.013887729360666512,0.04408874511718874,0.0,0.0,-5.0,0.0,0.0,0.0,0.0,0.0,0.0
22/04/2022,13:06:45,39.177025,-1.2825589588610455,11.426324422471225,3.284332275390625,3.5733261108398438,0.12089730054140091,0.9850852489471436,-0.8191215991973877,0.42130938172340393,2.894082546234131,1.4542292356491089,47.64157095419535,-122.14018038189255,125.28189849853516,-2.6041620588090932,9.004882392723388,-6.902366541678507,-0.24035568705197752,1.9855047579146647,-4.0,0.5274114941040499,1.9978880995462143,-1.6228722932466564,0.8480150913519555,0.8399803702649267,0.013548070488143438,0.11566772460937624,-0.24035568705197752,1.9855047579146647,-4.0,0.0,0.0,0.0,0.7677671811560274,0.012383341631549492,2.3771277067533436
22/04/2022,13:06:45,39.359023,-1.2643774062162265,11.594250007532537,3.0636367797851562,3.5733261108398438,0.0968882218003273,0.8611786365509033,-1.509056806564331,0.42130938172340393,2.894082546234131,1.4542292356491089,47.64157243657448,-122.1401801199102,125.06363677978516,-1.3389688474894925,2.9321900460647186,-7.048547171395533,-2.598436528171749,4.716792088810227,0.0,-1.9155515295407315,4.727806362981692,3.833221926819075,0.8855691042690188,0.8190957734793647,0.013211222152893498,0.336363220214845,-2.598436528171749,4.716792088810227,0.0,0.0,0.0,0.0,0.6828849986310176,0.01101427417146535,3.833221926819075
22/04/2022,13:06:45,39.532029,-1.2544560987735167,11.747139586135745,2.833526611328125,3.5733261108398438,0.0015900775324553251,1.0146366357803345,-0.8833584785461426,0.42130938172340393,2.894082546234131,1.4542292356491089,47.64157383832606,-122.14017996514029,124.83085632324219,-2.3811428344929735,-10.130913552034968,-7.414637563060584,0.0,0.0,0.0,0.7992151359867203,0.012890566709460718,2.419168605770874,0.985822097918037,0.8067117267477197,0.013011479463671094,0.5664733886718762,0.0,0.0,0.0,0.0,0.0,0.0,0.7992151359867203,0.012890566709460718,2.419168605770874
22/04/2022,13:06:45,39.687024,-1.2657938062911853,11.929315124638379,2.7453536987304688,3.5733261108398438,-0.10606208443641663,1.2571406364440918,-0.15668465197086334,0.42130938172340393,2.894082546234131,1.4542292356491089,47.64157545120863,-122.14018008929948,124.74535369873047,-1.1419532896975146,-0.12244259286305885,-8.137608512240082,0.0,0.0,0.0,2.0223125470813237,0.03261794430775992,1.92683202232902,1.0455320160290498,0.8151089346308809,0.013146918300497745,0.6546463012695325,0.0,0.0,0.0,0.3220163250821379,0.00519381169487306,0.25862407735585924,1.700296221999186,0.027424132612886856,1.6682079449731608
22/04/2022,13:06:45,39.86203,-1.282252786681056,12.1388045437634,2.7936248779296875,3.5733261108398438,0.031911421567201614,1.1081503629684448,0.7738195061683655,0.42130938172340393,2.894082546234131,1.4542292356491089,47.64157736749636,-122.1401802763279,124.79591369628906,6.769901647190358,6.339115908673299,-8.255781982447273,-4.948184506377541,-0.7179624578243969,0.0,-3.251375656670708,-0.6905945731517076,-1.5261290856441463,1.0265284671347066,0.8281856515705198,0.013357833089845172,0.6063751220703137,-4.948184506377541,-0.7179624578243969,0.0,0.32896516103849865,0.00530588969416857,0.2408593885964163,1.367843688668335,0.022061994978520835,-1.7669884742405626
22/04/2022,13:06:45,40.013028,-1.2648111059097573,12.293741781264544,2.9166488647460938,3.5733261108398438,0.14611418545246124,0.9819555282592773,0.5207761526107788,0.42130938172340393,2.894082546234131,1.4542292356491089,47.641578756259484,-122.1401800165449,124.9182357788086,-6.713174920788178,5.8980319170103686,-8.36000298888254,-4.8014779451644545,-1.7163360807543873,0.0,-4.8014779451644545,-1.7163360807543873,0.0,0.9418421316460782,0.8082501692272316,0.013036293052051562,0.4833511352539075,-4.8014779451644545,-1.7163360807543873,0.0,0.0,0.0,0.0,0.0,0.0,-0.0
22/04/2022,13:06:46,40.199027,-1.278530053095892,12.44810464605689,3.0274581909179688,3.5733261108398438,-0.4601910412311554,0.6231376528739929,1.0303301811218262,0.42130938172340393,2.894082546234131,1.4542292356491089,47.641580136789145,-122.14018020035017,125.03052520751953,-20.49238256051978,7.214408386131978,-8.899714287939409,0.0,0.0,0.0,1.80842299602137,0.029168112839053635,-1.7753947239877896,0.9002798380835062,0.8194764723134154,0.013217362456664716,0.3725418090820325,0.0,0.0,0.0,0.0,0.0,0.0,1.80842299602137,0.029168112839053635,-1.7753947239877896
22/04/2022,13:06:46,40.378028,-1.4088411600096151,12.533311085775495,3.1999282836914062,3.5733261108398438,-0.8173852562904358,0.40349075198173523,0.5490033030509949,0.42130938172340393,2.894082546234131,1.4542292356491089,47.641580910364944,-122.1401819370829,125.20159912109375,-3.7221126384834378,6.647159126318666,-8.853928758104532,0.0,0.0,0.0,2.5377118120216875,0.04093083567776857,-0.8867528354378652,0.9693744476391266,0.9483797481817633,0.015296447551317982,0.200071716308595,0.0,0.0,0.0,0.0,0.0,0.0,2.5377118120216875,0.04093083567776857,-0.8867528354378652
22/04/2022,13:06:46,40.526025,-1.5269452928332612,12.584560465998948,3.2424468994140625,3.5733261108398438,-0.7141422033309937,0.295696496963501,0.24474811553955078,0.42130938172340393,2.894082546234131,1.4542292356491089,47.64158138033364,-122.14018349774726,125.24317169189453,9.036092950251017,5.7711315353616275,-8.899377071187958,0.0,0.0,0.0,2.958878906850781,0.04772385333630308,-0.2780600602434389,1.077348048709573,1.0656267767904086,0.017187528657908402,0.15755310058593874,0.0,0.0,0.0,0.4168705412140619,0.006723718406677865,0.06163438057462765,2.542008365636719,0.04100013492962521,-0.33969444081806655
22/04/2022,13:06:46,40.708025,-1.6178762166528031,12.625248074531555,3.3140792846679688,3.5733261108398438,-0.2614573538303375,0.17938989400863647,0.4924620985984802,0.42130938172340393,2.894082546234131,1.4542292356491089,47.641581747462894,-122.14018467354133,125.31407928466797,13.819048582458628,4.699107137920253,-9.118671935463944,0.0,0.0,-1.0,2.640774632018375,0.04259313922610146,-2.1504240358948925,1.15921689964809,1.1558779704011493,0.01864319307098583,0.0859207153320325,0.0,0.0,-1.0,0.4392947091775203,0.007085398535121124,0.03265441216170114,2.201479922840855,0.03550774069098034,-1.1830784480565935
22/04/2022,13:06:46,40.880028,-1.63727154082153,12.653240616433322,3.3551483154296875,3.5733261108398438,0.024283360689878464,0.14095397293567657,-0.21526648104190826,0.42130938172340393,2.894082546234131,1.4542292356491089,47.64158200123956,-122.14018492760277,125.35514831542969,15.539535016381803,3.8819931468782554,-7.573328025944573,0.0,0.0,0.0,2.5254360656812977,0.04073283976905077,0.8992056103151866,1.1758254187080461,1.17481687508429,0.018948659275553226,0.04485168457031374,0.0,0.0,0.0,0.44363596148495327,0.00715541873362834,0.0169369547123192,2.0818001041963443,0.033577421035422425,0.8822686556028675
22/04/2022,13:06:46,41.026024,-1.6080771059496328,12.670842287130654,3.3269729614257812,3.5733261108398438,0.4495048224925995,0.1001279354095459,0.02537432499229908,0.4495048224925995,2.894082546234131,1.4542292356491089,47.64158215939411,-122.14018451854517,125.32704162597656,13.025346210996869,2.2903747352938955,-4.840386103282376,0.0,0.0,-5.0,0.4371694461609208,0.0070511200993694486,-4.972126166081146,1.1478206090342855,1.1453462089644442,0.018473325951038788,0.07302703857422,0.0,0.0,-5.0,0.4371694461609208,0.0070511200993694486,0.02787383391885399,0.0,0.0,0.0
22/04/2022,13:06:47,41.180028,-1.5238418501103297,12.68525184225291,3.304656982421875,3.5733261108398438,0.6267732381820679,0.08244095742702484,-0.5027030110359192,0.6267732381820679,2.894082546234131,1.4542292356491089,47.64158228014667,-122.14018338784145,125.30316925048828,5.768783156431366,1.3343531682569985,-3.0879537532347685,0.0,0.0,-5.0,0.04042591175689503,0.0006520308347886233,-2.8388222162921632,1.0653135584467581,1.06090050912989,0.01711129853435267,0.09534301757812624,0.0,0.0,-5.0,0.4166091934219275,0.006719503119708354,0.037440624554147206,-0.37618328166503245,-0.006067472284919731,2.1237371591536895
22/04/2022,13:06:47,41.364026,-1.4045209279283881,12.700298113748431,3.1352157592773438,3.5733261108398438,0.6593531370162964,0.0680522471666336,-1.3698047399520874,0.6593531370162964,2.894082546234131,1.4542292356491089,47.641582403218194,-122.1401817958599,125.1311264038086,-1.0531309244814666,0.6892295171210387,-1.9318890002187494,0.0,0.0,0.0,-0.3811088467005501,-0.006146916882267885,3.019597348223462,0.9780158187552556,0.9413680010154282,0.01518335485508615,0.2647842407226575,0.0,0.0,0.0,0.0,0.0,0.0,-0.3811088467005501,-0.006146916882267885,3.019597348223462
22/04/2022,13:06:47,41.516025,-1.309599196887575,12.7103126719594,2.9427871704101562,3.5733261108398438,0.5855153799057007,0.04956464841961861,-0.8430872559547424,0.6593531370162964,2.894082546234131,1.4542292356491089,47.64158248335085,-122.14018053368258,124.94023132324219,-2.4452947329345074,0.31935350826947373,-1.429679594996135,0.0,0.0,0.0,-0.3762888494233758,-0.006069174990701002,2.473911737813874,0.9620133179113212,0.8463094739075048,0.013650152804958182,0.457212829589845,0.0,0.0,0.0,0.0,0.0,0.0,-0.3762888494233758,-0.006069174990701002,2.473911737813874
22/04/2022,13:06:47,41.662082,-1.2295297543751076,12.717606742866337,2.88690185546875,3.5733261108398438,0.4755711555480957,0.036327656358480453,0.13760533928871155,0.6593531370162964,2.894082546234131,1.4542292356491089,47.64158254063314,-122.14017947110112,124.88729095458984,-2.6322373356608,0.20466644001977644,-1.1555395690257098,-4.998983166920295,-0.10083301467046994,0.0,-4.998983166920295,-0.10083301467046994,0.0,0.9221701953736365,0.7661432399896491,0.01235714903208951,0.5130981445312512,-4.998983166920295,-0.10083301467046994,0.0,0.0,0.0,0.0,-0.0,-0.0,0.0
22/04/2022,13:06:47,41.822079,-1.1717641026480123,12.723122890107334,2.9585952758789062,3.5733261108398438,0.1516847461462021,0.02735493704676628,0.8436990976333618,0.6593531370162964,2.894082546234131,1.4542292356491089,47.64158258424946,-122.14017871403857,124.96110534667969,-16.504181271486715,-0.06866953195570946,-0.961673229891907,-0.9998591458661424,-0.01678357613347511,0.0,-0.27925929350993617,-0.005160997869667682,-2.221712682264076,0.8346632408830582,0.7083036648614577,0.01142425265905267,0.441404724121095,-0.9998591458661424,-0.01678357613347511,0.0,0.0,0.0,0.0,0.7205998523562063,0.011622578263807429,-2.221712682264076
22/04/2022,13:06:47,42.006083,-1.1915266256546602,12.727409993298352,3.1069793701171875,3.5733261108398438,-0.23619648814201355,0.022301746532320976,0.38314300775527954,0.6593531370162964,2.894082546234131,1.4542292356491089,47.641582624647874,-122.14017899221724,125.10814666748047,-9.226659793772152,0.068397546126495,-0.9012736991826135,0.0,0.0,0.0,2.1586053551391564,0.03481621540546677,-0.8516521338406391,0.7848383234695385,0.7279919192280926,0.011741805148837159,0.29302062988281374,0.0,0.0,0.0,0.0,0.0,0.0,2.1586053551391564,0.03481621540546677,-0.8516521338406391
22/04/2022,13:06:48,42.156083,-1.2322936954442412,12.73008128348738,3.1197280883789062,3.5733261108398438,-0.2645338177680969,0.0188429094851017,-0.05940259248018265,0.6593531370162964,2.894082546234131,1.4542292356491089,47.64158265265705,-122.14017953575515,125.11954498291016,4.532389494462635,0.24133954941997116,-0.8760110468546289,0.0,0.0,0.0,2.2622531246779807,0.03648795362383593,0.696063336769319,0.8182994095662162,0.7687053122786595,0.012398472778684777,0.280271911621095,0.0,0.0,0.0,0.0,0.0,0.0,2.2622531246779807,0.03648795362383593,0.696063336769319
22/04/2022,13:06:48,42.340082,-1.2564019047422335,12.7326998449862,3.139007568359375,3.5733261108398438,0.041430696845054626,0.013465474359691143,0.24462637305259705,0.6593531370162964,2.894082546234131,1.4542292356491089,47.64158267847762,-122.14017984413331,125.13973999023438,11.009069507135738,0.29170437849280356,-0.8512606539709979,-1.99977926466138,-0.02971350922376702,0.0,-1.99977926466138,-0.02971350922376702,0.0,0.8347196738480841,0.7927650276827051,0.012786532704557985,0.26099243164062624,-1.99977926466138,-0.02971350922376702,0.0,0.0,0.0,0.0,0.0,0.0,-0.0
22/04/2022,13:06:48,42.528079,-1.2280762082664296,12.735246843658388,3.1518173217773438,3.5733261108398438,0.19562380015850067,0.010668336413800716,-0.11987544596195221,0.6593531370162964,2.894082546234131,1.4542292356491089,47.641582698487994,-122.14017946038572,125.15145874023438,-0.6471189544014414,0.08301787301761282,-0.8639525756638398,-4.999431583962929,-0.07539122809663769,0.0,-4.999431583962929,-0.07539122809663769,0.0,0.80378020217279,0.7644056281584748,0.012329123034811929,0.2481826782226575,-4.999431583962929,-0.07539122809663769,0.0,0.0,0.0,0.0,0.0,0.0,0.0
22/04/2022,13:06:48,42.711085,-1.213380586123094,12.737073608674109,3.1699981689453125,3.5733261108398438,-0.21387532353401184,0.007342060562223196,0.5505053400993347,0.6593531370162964,2.894082546234131,1.4542292356491089,47.64158271336547,-122.14017928058689,125.17162322998047,-16.924259815485097,-0.18664887700092989,-0.8251592871046299,0.0,0.0,0.0,1.947725381957571,0.03141492551544283,-1.4412580005384232,0.7842663503678836,0.7496843717345588,0.012091683415071941,0.23000183105468874,0.0,0.0,0.0,0.0,0.0,0.0,1.947725381957571,0.03141492551544283,-1.4412580005384232
22/04/2022,13:06:48,42.892079,-1.2984324102289975,12.737309069372714,3.2663345336914062,3.5733261108398438,-0.5633255839347839,0.005945444572716951,0.13414345681667328,0.6593531370162964,2.894082546234131,1.4542292356491089,47.64158272393066,-122.14018042702246,125.26676177978516,-2.682723302952069,0.0126353197073728,-0.8658464750918898,0.0,0.0,0.0,2.4937862034293974,0.04022235811982734,-0.1712076590894417,0.8454519270307981,0.8347102789646705,0.013463069015557494,0.133665466308595,0.0,0.0,0.0,0.0,0.0,0.0,2.4937862034293974,0.04022235811982734,-0.1712076590894417
22/04/2022,13:06:48,43.069082,-1.3921176673611626,12.737225786782801,3.2552032470703125,3.5733261108398438,-0.40813860297203064,0.004635252989828587,0.029301581904292107,0.6593531370162964,2.894082546234131,1.4542292356491089,47.641582732372356,-122.14018165167218,125.25520324707031,9.902036656257604,0.1927017382817047,-0.8633069742942406,0.0,0.0,0.0,2.4885088576095846,0.04013723963886294,0.12296909546013501,0.9397158276566874,0.9283725135385632,0.014973750218363335,0.14479675292968874,0.0,0.0,0.0,0.0,0.0,0.0,2.4885088576095846,0.04013723963886294,0.12296909546013501
22/04/2022,13:06:49,43.25608,-1.4298743250546977,12.73753107432276,3.2854461669921875,3.5733261108398438,0.014116201549768448,0.0033409458119422197,0.24005597829818726,0.6593531370162964,2.894082546234131,1.4542292356491089,47.64158273899027,-122.14018215382264,125.28616333007812,12.937776903721735,0.2300878809473183,-0.8615760911777394,0.0,0.0,0.0,1.8724156133013898,0.030200251827440773,-0.729889262800516,0.9730069292122374,0.9661144288432372,0.015582490787792835,0.11455383300781374,0.0,0.0,0.0,0.0,0.0,0.0,1.8724156133013898,0.030200251827440773,-0.729889262800516
22/04/2022,13:06:49,43.44508,-1.3985762672964483,12.73842553049326,3.3031158447265625,3.5733261108398438,0.30535468459129333,0.002579496940597892,-0.046287644654512405,0.6593531370162964,2.894082546234131,1.4542292356491089,47.64158274387567,-122.1401817253365,125.302978515625,7.9611524847757,0.1470956169163201,-0.8800464550359072,-3.0150052302754276,0.9538047291829788,0.0,-3.0150052302754276,0.9538047291829788,0.0,0.9399381755018685,0.9348100880616295,0.015077582065508466,0.09688415527343874,-3.0150052302754276,0.9538047291829788,0.0,0.0,0.0,0.0,0.0,0.0,0.0
22/04/2022,13:06:49,43.62808,-1.335151742445305,12.739554638043046,3.2836380004882812,3.5733261108398438,0.25216227769851685,0.002204017946496606,0.11596079915761948,0.6593531370162964,2.894082546234131,1.4542292356491089,47.641582747640754,-122.14018089298789,125.28363800048828,-10.115245875556726,-0.14897631981135548,-0.8828900188709408,-2.0151712849590635,0.969063822602225,0.0,-2.0151712849590635,0.969063822602225,0.0,0.8792311774399296,0.8713838518598397,0.014054578255802141,0.11636199951172,-2.0151712849590635,0.969063822602225,0.0,0.0,0.0,0.0,0.0,0.0,-0.0
22/04/2022,13:06:49,43.80708,-1.3301450414583087,12.739982306957245,3.3384246826171875,3.5733261108398438,-0.18740563094615936,0.001895215711556375,0.31589609384536743,0.6593531370162964,2.894082546234131,1.4542292356491089,47.64158275104094,-122.14018083364144,125.3393783569336,-12.860597512739359,-0.1914614364520973,-0.8817788122653711,0.0,0.0,0.0,2.1556125072992884,0.03476794366611344,-0.9904453105284865,0.8686693614974347,0.8663715569140155,0.013973734788933712,0.06157531738281374,0.0,0.0,0.0,0.0,0.0,0.0,2.1556125072992884,0.03476794366611344,-0.9904453105284865
22/04/2022,13:06:49,43.994131,-1.3839759374968708,12.73970967438072,3.3557510375976562,3.5733261108398438,-0.306470662355423,0.0015606849920004606,-0.08775009214878082,0.6593531370162964,2.894082546234131,1.4542292356491089,47.64158275394599,-122.14018155523077,125.35547637939453,4.44193690413645,0.08560444524522422,-0.91094287159028,0.0,0.0,0.0,2.4289266596260477,0.039176236445580964,0.34819365560399096,0.921375672253445,0.920192848875518,0.014841820143150386,0.04424896240234499,0.0,0.0,0.0,0.0,0.0,0.0,2.4289266596260477,0.039176236445580964,0.34819365560399096
22/04/2022,13:06:50,44.181129,-1.4151516627753153,12.739604303613305,3.3731536865234375,3.5733261108398438,0.011815138161182404,0.0010551612358540297,0.24289214611053467,0.6593531370162964,2.894082546234131,1.4542292356491089,47.641582756095474,-122.14018195760684,125.3738784790039,11.20139165713859,0.1910349841716376,-0.9046374673305756,0.0,0.0,-5.0,1.8380291735759808,0.02964563183186697,-5.9092785936293915,0.9518645644286724,0.9513621651194506,0.01534455105031185,0.026846313476563743,0.0,0.0,-5.0,0.0,0.0,0.0,1.8380291735759808,0.02964563183186697,-0.909278593629391
22/04/2022,13:06:50,44.360134,-1.3894090711837634,12.740063555538654,3.373870849609375,3.5733261108398438,0.2427002191543579,0.0008183429017663002,-0.4344836473464966,0.6593531370162964,2.894082546234131,1.4542292356491089,47.641582757632776,-122.14018161519593,125.37387084960938,11.796350681928221,0.27210422008956836,-1.2371537995129187,0.0,0.0,0.0,0.0,0.0,0.0,0.9261079297729554,0.9256188632475917,0.014929336503993085,0.026129150390626243,0.0,0.0,0.0,0.0,0.0,0.0,0.0,0.0,0.0
22/04/2022,13:06:50,44.54613,-1.3251198845682666,12.740882237441838,3.26513671875,3.5733261108398438,0.44116342067718506,0.00025778732378967106,-0.56879723072052,0.6593531370162964,2.894082546234131,1.4542292356491089,47.641582758583915,-122.14018074162661,125.263427734375,2.3938457727499785,0.09997929413275813,-2.0013868171980476,0.0,0.0,0.0,-0.0376655883510622,-0.000607509489533573,2.3072766057612077,0.8719380594018233,0.8613331957240632,0.013892470898772658,0.13486328125000124,0.0,0.0,0.0,0.0,0.0,0.0,-0.0376655883510622,-0.000607509489533573,2.3072766057612077
22/04/2022,13:06:50,44.718131,-1.2443944892147556,12.741784735582769,3.228790283203125,3.5733261108398438,0.4440537393093109,-0.00017222411406692117,0.360077440738678,0.6593531370162964,2.894082546234131,1.4542292356491089,47.6415827586492,-122.14017966669826,125.22984313964844,-1.3071171230915049,-0.05015253082947153,-2.364130527700457,0.0,0.0,0.0,0.0,0.0,0.0,0.7992683435111535,0.7806142426359919,0.01259055230057804,0.17120971679687624,0.0,0.0,0.0,0.0,0.0,0.0,-0.0,-0.0,-0.0
22/04/2022,13:06:50,44.873145,-1.180544474394992,12.742446503601968,3.28179931640625,3.5733261108398438,0.4098856747150421,-0.00022950755374040455,0.035371292382478714,0.6593531370162964,2.894082546234131,1.4542292356491089,47.64158275823242,-122.1401788344016,125.28179931640625,-2.2487065942030315,-0.09872789853086344,-2.521153540277647,0.0,0.0,-3.0,0.0,0.0,-3.0,0.7265428551245144,0.7167701629001371,0.011560809079034229,0.11820068359375124,0.0,0.0,-3.0,0.0,0.0,0.0,-0.0,-0.0,0.0
22/04/2022,13:06:50,45.058161,-1.109429182833992,12.743175814859569,3.2222442626953125,3.5733261108398438,0.36493298411369324,-0.00023392739240080118,-0.7697793841362,0.6593531370162964,2.894082546234131,1.4542292356491089,47.6415827576984,-122.14017787298182,125.21995544433594,-2.935375679698549,-0.15325080618483797,-2.9695899166235136,0.0,0.0,-4.0,-0.12160812049462871,-0.0019614212983021582,-1.5140238166719122,0.6697644824397881,0.6456616068381201,0.01041389688448291,0.17775573730468874,0.0,0.0,-4.0,0.0,0.0,0.0,-0.12160812049462871,-0.0019614212983021582,2.485976183328088
22/04/2022,13:06:51,45.238165,-1.047761291381903,12.743803245946765,3.01239013671875,3.5733261108398438,0.31461337208747864,-0.0002018215018324554,-1.482804536819458,0.6593531370162964,2.894082546234131,1.4542292356491089,47.64158275717739,-122.14017705396012,125.00794219970703,-2.438465067531805,-0.19233194183853894,-4.441692706574029,0.0,0.0,0.0,-0.05024741360433505,-0.0008104421549095705,3.7395024684825007,0.7009890910893496,0.5839996366250548,0.00941934897782204,0.38760986328125124,0.0,0.0,0.0,0.0,0.0,0.0,-0.05024741360433505,-0.0008104421549095705,3.7395024684825007
22/04/2022,13:06:51,45.390167,-1.0057111396454275,12.74424931500107,2.822509765625,3.5733261108398438,0.24145159125328064,-5.688396777259186e-05,-0.8328740000724792,0.6593531370162964,2.894082546234131,1.4542292356491089,47.64158275700808,-122.14017650672312,124.822509765625,-1.5270031446821923,-0.16707026332656424,-6.106617308856153,0.0,0.0,0.0,0.06611959174682257,0.0010664450281746085,2.5063928717066633,0.7920130559771094,0.5419532284179341,0.008741181103513185,0.5774902343750012,0.0,0.0,0.0,0.0,0.0,0.0,0.06611959174682257,0.0010664450281746085,2.5063928717066633
22/04/2022,13:06:51,45.569162,-0.968240984948352,12.744664864614606,2.7698822021484375,3.5733261108398438,0.1749894618988037,2.5523298972984776e-05,0.2931708097457886,0.6593531370162964,2.894082546234131,1.4542292356491089,47.64158275700812,-122.14017600083368,124.77073669433594,-1.1408311004636755,-0.145244437957745,-7.208101043819787,0.0,0.0,0.0,0.0,0.0,0.0,0.8072303830634551,0.5044861182146578,0.008136872874427326,0.6301177978515637,0.0,0.0,0.0,0.0,0.0,0.0,0.0,0.0,0.0
22/04/2022,13:06:51,45.746163,-0.9405719197820872,12.744971718639135,2.8445816040039062,3.5733261108398438,0.13991232216358185,3.306661528768018e-05,0.3685491681098938,0.6593531370162964,2.894082546234131,1.4542292356491089,47.64158275700816,-122.14017563386558,124.84569549560547,-1.0603402077207777,-0.1443056819056293,-7.740444908495394,0.0,0.0,-3.0,0.0,0.0,-3.0,0.7320555897270355,0.4768193011929043,0.007690633890208076,0.555418395996095,0.0,0.0,-3.0,0.0,0.0,0.0,0.0,0.0,-0.0
22/04/2022,13:06:51,45.901165,-0.920954491593875,12.74518927745521,2.8686752319335938,3.5733261108398438,0.12262771278619766,2.646307802933734e-05,-0.19293448328971863,0.6593531370162964,2.894082546234131,1.4542292356491089,47.64158275700819,-122.14017537337762,124.86811828613281,-1.132370490447333,-0.17584243937305755,-8.84304649547344,0.0,0.0,0.0,0.0,0.0,0.0,0.7009960049257361,0.45720346696609426,0.007374249467194005,0.5313247680664075,0.0,0.0,0.0,0.0,0.0,0.0,0.0,0.0,0.0
22/04/2022,13:06:51,46.076171,-0.9021755737485364,12.745397538878024,2.8300323486328125,3.5733261108398438,0.09102742373943329,5.451900506159291e-05,-0.11828997731208801,0.6593531370162964,2.894082546234131,1.4542292356491089,47.6415827570082,-122.14017512461962,124.82967376708984,-0.8340542490693381,-0.17071528760215096,-11.512392891442866,0.0,0.0,0.0,0.0,0.0,0.0,0.7191178980598248,0.43842607492300045,0.007071388305206483,0.5699676513671887,0.0,0.0,0.0,0.0,0.0,0.0,0.0,0.0,0.0
22/04/2022,13:06:52,46.223181,-0.8901993728941306,12.745530357584357,2.815399169921875,3.5733261108398438,0.0718870460987091,7.4534495070111e-05,-0.08735620230436325,0.6593531370162964,2.894082546234131,1.4542292356491089,47.641582757008216,-122.1401749659387,124.81513214111328,-0.627603656333995,-0.1423588194817034,-12.740143239599385,0.0,0.0,0.0,0.0,0.0,0.0,0.7236475424739321,0.42645084713519066,0.00687823946992161,0.5846008300781262,0.0,0.0,0.0,0.0,0.0,0.0,0.0,0.0,0.0
22/04/2022,13:06:52,46.405163,-0.8789922912837937,12.745654644444585,2.8013229370117188,3.5733261108398438,0.054847352206707,7.773102697683498e-05,-0.07201207429170609,0.6593531370162964,2.894082546234131,1.4542292356491089,47.64158275700822,-122.14017481741249,124.80110168457031,-0.463396646582304,-0.11119884551833889,-13.512607068806767,0.0,0.0,0.0,0.0,0.0,0.0,0.7286200815535305,0.41524467613506866,0.00669749477637005,0.5986770629882825,0.0,0.0,0.0,0.0,0.0,0.0,0.0,0.0,0.0
22/04/2022,13:06:52,46.582162,-0.8702860405901447,12.745751198381186,2.7894668579101562,3.5733261108398438,0.04193142056465149,6.865993782412261e-05,-0.05972493067383766,0.6593531370162964,2.894082546234131,1.4542292356491089,47.641582757008244,-122.14017470201752,124.7892837524414,-0.3483594556085715,-0.08577526657964038,-13.894322326287295,-0.7203955470651329,2.9122208459814183,0.0,-0.7203955470651329,2.9122208459814183,0.0,0.733531035094241,0.40653913282935833,0.0065570827875696125,0.610533142089845,-0.7203955470651329,2.9122208459814183,0.0,0.0,0.0,0.0,0.0,0.0,0.0
22/04/2022,13:06:52,46.754163,-0.8638780625769868,12.750949740409851,2.7883758544921875,3.5733261108398438,0.03190188109874725,0.11802738159894943,0.12569069862365723,0.6593531370162964,2.894082546234131,1.4542292356491089,47.64158280626543,-122.14017461634711,124.78874969482422,1.601560071561944,-7.551987343707259,-14.14564384609594,-1.221937843902096,4.848388176047777,0.0,-1.221937843902096,4.848388176047777,0.0,0.7308658754323242,0.40004899574526054,0.006452403157179987,0.6116241455078137,-1.221937843902096,4.848388176047777,0.0,0.0,0.0,0.0,0.0,0.0,0.0
22/04/2022,13:06:52,46.911164,-0.8619109992869198,12.793099113740027,2.8364791870117188,3.5733261108398438,-0.030108483508229256,0.5551068186759949,0.6818664073944092,0.6593531370162964,2.894082546234131,1.4542292356491089,47.64158318214939,-122.14017458521836,124.83647918701172,0.6460361397107075,-17.133370600106115,-14.449707270209357,-0.7485902794380753,2.9051011330986096,0.0,-0.7485902794380753,2.9051011330986096,0.0,0.6895837661243387,0.39740279225150543,0.0064097224556682875,0.5635208129882825,-0.7485902794380753,2.9051011330986096,0.0,0.0,0.0,0.0,0.0,0.0,-0.0
22/04/2022,13:06:52,47.087161,-0.8775935790035874,12.930362132377923,2.9465866088867188,3.5733261108398438,-0.10741639137268066,0.9424958825111389,0.3300463855266571,0.6593531370162964,2.894082546234131,1.4542292356491089,47.64158444395897,-122.14017477800842,124.94758605957031,1.654466603629348,-12.191541973786737,-14.408056407743212,0.0,0.0,0.0,0.0,0.0,0.0,0.6119151010793642,0.4108679494102363,0.006626902409841762,0.4534133911132825,0.0,0.0,0.0,0.0,0.0,0.0,0.0,0.0,-0.0
22/04/2022,13:06:53,47.266165,-0.900583837996237,13.116294956766069,2.9621734619140625,3.5733261108398438,-0.11924826353788376,1.0828509330749512,-0.06592821329832077,0.6593531370162964,2.894082546234131,1.4542292356491089,47.64158609371602,-122.14017505232393,124.96217346191406,0.1036498380159774,0.024649151740402463,-14.212902862934772,0.0,0.0,0.0,0.0,0.0,0.0,0.6143090580045738,0.43085409257166163,0.0069492595576043925,0.43782653808593874,0.0,0.0,0.0,0.0,0.0,0.0,0.0,0.0,0.0
22/04/2022,13:06:53,47.443163,-0.9232855744194239,13.304725938476622,2.9605636596679688,3.5733261108398438,-0.10657265037298203,0.9879727959632874,0.04319559037685394,0.6593531370162964,2.894082546234131,1.4542292356491089,47.641587817912495,-122.14017533098452,124.96068572998047,-0.6386906948252623,4.8035692765156135,-14.229343637855452,0.0,0.0,0.0,0.0,0.0,0.0,0.6293788313962855,0.4505115058212523,0.007266314610019364,0.4394363403320325,0.0,0.0,0.0,0.0,0.0,0.0,0.0,0.0,0.0
22/04/2022,13:06:53,47.591163,-0.9390840898267925,13.437545113265514,2.9689712524414062,3.5733261108398438,-0.09128963947296143,0.8538365960121155,0.06620700657367706,0.6593531370162964,2.894082546234131,1.4542292356491089,47.641589010806335,-122.14017552107731,124.96916961669922,-0.7709590125420563,5.5623268921807485,-14.235077490660693,0.0,0.0,0.0,0.0,0.0,0.0,0.6334747483237227,0.46416422477808283,0.007486519754483112,0.431028747558595,0.0,0.0,0.0,0.0,0.0,0.0,0.0,0.0,0.0
22/04/2022,13:06:53,47.740168,-0.9527089552721009,13.552859982475638,2.9782638549804688,3.5733261108398438,-0.07601208984851837,0.7152839303016663,0.057059384882450104,0.6593531370162964,2.894082546234131,1.4542292356491089,47.64159004589742,-122.1401756848171,124.97843933105469,-0.7440886071347728,5.285955403503085,-14.229317348898856,0.0,0.0,0.0,0.0,0.0,0.0,0.6359449391945153,0.47592611317359335,0.007676227631829846,0.4217361450195325,0.0,0.0,0.0,0.0,0.0,0.0,0.0,0.0,0.0
22/04/2022,13:06:53,47.919165,-0.9660162992076948,13.666072934865952,2.9866409301757812,3.5733261108398438,-0.05988753214478493,0.5665469765663147,0.036824118345975876,0.6593531370162964,2.894082546234131,1.4542292356491089,47.64159106174683,-122.14017584460764,124.98675537109375,-0.6379287258196138,4.489198367267836,-14.218301516740418,0.0,0.0,0.0,0.0,0.0,0.0,0.639132713185815,0.48740445570681146,0.007861362188819498,0.41335906982422,0.0,0.0,0.0,0.0,0.0,0.0,0.0,0.0,0.0
22/04/2022,13:06:54,48.102163,-0.9766046741278842,13.75652548391372,2.9916915893554688,3.5733261108398438,-0.04650026932358742,0.44157546758651733,0.01970033533871174,0.6593531370162964,2.894082546234131,1.4542292356491089,47.64159187320698,-122.14017597167174,124.99175262451172,-0.5167082577274889,3.6148907154753913,-14.20867418035381,0.0,0.0,-1.0,0.0,0.0,-1.0,0.642902379687628,0.4965315441729353,0.008008573293110999,0.4083084106445325,0.0,0.0,-1.0,0.0,0.0,0.0,0.0,0.0,0.0
22/04/2022,13:06:54,48.252163,-0.9836354851722717,13.8167377198115,2.96697998046875,3.5733261108398438,-0.040678124874830246,0.38686230778694153,-0.5108418464660645,0.6593531370162964,2.894082546234131,1.4542292356491089,47.641592414136994,-122.14017605614347,124.96546936035156,-0.45545844381015993,3.174874623907456,-14.204524270126935,0.0,0.0,-5.0,0.8987946724489505,0.014496688265303086,-2.7119899726573418,0.6634518591424684,0.5025896141414563,0.00810628409905334,0.43302001953125124,0.0,0.0,-5.0,0.0,0.0,0.0,0.8987946724489505,0.014496688265303086,2.2880100273426582
22/04/2022,13:06:54,48.434163,-0.9913616651901975,13.882974738255143,2.7963027954101562,3.5733261108398438,-0.035506486892700195,0.3380250930786133,-1.3760876655578613,0.6593531370162964,2.894082546234131,1.4542292356491089,47.64159300950913,-122.1401761490104,124.79219818115234,-0.4025030402320013,2.800824950993673,-14.201429709939855,0.0,0.0,0.0,0.6495380797400396,0.01047642064096704,3.8285922644741484,0.7898411142261893,0.5092457235940964,0.00821364070313102,0.603697204589845,0.0,0.0,0.0,0.0,0.0,0.0,0.6495380797400396,0.01047642064096704,3.8285922644741484
22/04/2022,13:06:54,48.611164,-0.9974538283422589,13.935288241133094,2.582305908203125,3.5733261108398438,-0.025804689154028893,0.24628514051437378,-0.6588881611824036,0.6593531370162964,2.894082546234131,1.4542292356491089,47.64159347830558,-122.14017622200052,124.5802993774414,-0.2314497759863655,1.597502072881006,-14.194471327155675,0.0,0.0,0.0,0.6333059174074634,0.01021461157108366,2.423032356835472,0.9661238453691742,0.5144927555779952,0.008298270251255957,0.8176940917968762,0.0,0.0,0.0,0.0,0.0,0.0,0.6333059174074634,0.01021461157108366,2.423032356835472
22/04/2022,13:06:54,48.760162,-1.0011490199249238,13.96705180592835,2.554840087890625,3.5733261108398438,-0.01961296983063221,0.18711711466312408,0.3247082233428955,0.6593531370162964,2.894082546234131,1.4542292356491089,47.641593762840344,-122.1401762662533,124.5557861328125,-0.1789239467690354,1.2377117319412183,-14.192899357119856,0.0,0.0,0.0,0.0,0.0,0.0,0.9911368196384416,0.5176748038033419,0.008349593609729311,0.8451599121093762,0.0,0.0,0.0,0.0,0.0,0.0,0.0,0.0,0.0
22/04/2022,13:06:54,48.939164,-1.0046268277801573,13.996935344301164,2.6367721557617188,3.5733261108398438,-0.015675313770771027,0.14949513971805573,0.3708922863006592,0.6593531370162964,2.894082546234131,1.4542292356491089,47.64159403102553,-122.14017630798043,124.63789367675781,-0.16427850807888475,1.1383768875795857,-14.192411678358537,0.0,0.0,0.0,0.0,0.0,0.0,0.9239504040792514,0.5206698399584533,0.008397900644487422,0.7632278442382825,0.0,0.0,0.0,0.0,0.0,0.0,0.0,0.0,0.0
22/04/2022,13:06:55,49.109165,-1.007300544064492,14.019904762506485,2.6934661865234375,3.5733261108398438,-0.012523728422820568,0.11945434659719467,0.2971280813217163,0.6593531370162964,2.894082546234131,1.4542292356491089,47.64159423712139,-122.14017634005552,124.6943588256836,-0.1414851512764692,0.9812897329427548,-14.191903792462583,0.0,0.0,0.0,0.0,0.0,0.0,0.8790684826463929,0.5229724827330312,0.008435040044082243,0.7065338134765637,0.0,0.0,0.0,0.0,0.0,0.0,0.0,0.0,0.0
22/04/2022,13:06:55,49.397164,-1.0104865879984573,14.047283549793065,2.764190673828125,3.5733261108398438,-0.008471392095088959,0.08082233369350433,0.2178376019001007,0.6593531370162964,2.894082546234131,1.4542292356491089,47.64159448272982,-122.14017637826478,124.76483917236328,-0.10016529859203646,0.694434471964275,-14.191219862197734,0.0,0.0,0.0,0.0,0.0,0.0,0.8250472357216942,0.5257162195523797,0.008479293863748794,0.6358093261718762,0.0,0.0,0.0,0.0,0.0,0.0,0.0,0.0,0.0
22/04/2022,13:06:55,49.648164,-1.0125126661732793,14.064701160416007,2.813140869140625,3.5733261108398438,-0.005812541116029024,0.0554456003010273,0.16299597918987274,0.6593531370162964,2.894082546234131,1.4542292356491089,47.64159463744503,-122.14017640232532,124.81314086914062,-0.06937065581389353,0.4807452304717035,-14.190862474420989,0.0,0.0,0.0,0.0,0.0,0.0,0.7891077444748379,0.5274609146487108,0.008507434107237088,0.5868591308593762,0.0,0.0,0.0,0.0,0.0,0.0,0.0,0.0,0.0
22/04/2022,13:06:55,49.804175,-1.013413620996289,14.072442478500307,2.8365402221679688,3.5733261108398438,-0.004620724823325872,0.04406682401895523,0.13671264052391052,0.6593531370162964,2.894082546234131,1.4542292356491089,47.641594708367016,-122.14017641336103,124.83695220947266,-0.05513233947067456,0.38204406510263955,-14.190756089405328,0.0,0.0,0.0,0.0,0.0,0.0,0.7723947408684444,0.5282368076574033,0.008519948510603115,0.5634597778320325,0.0,0.0,0.0,0.0,0.0,0.0,0.0,0.0,0.0
22/04/2022,13:06:55,49.953164,-1.0141049402300268,14.078380425460637,2.85546875,3.5733261108398438,-0.0037046591751277447,0.03532049432396889,0.11538822948932648,0.6593531370162964,2.894082546234131,1.4542292356491089,47.641594761623644,-122.14017642165112,124.8558120727539,-0.04411130164990832,0.3056910937998048,-14.19068672763982,0.0,0.0,0.0,0.0,0.0,0.0,0.7591116715091559,0.528832198664672,0.008529551591363926,0.5445312500000012,0.0,0.0,0.0,0.0,0.0,0.0,0.0,0.0,0.0
