date,fly_time,fly_time_s,x,y,z,z_max,vx,vy,vz,vx_max,vy_max,vz_max,latitude,longitude,altitude,pitch,roll,yaw,cx,cy,cz,scx,scy,scz,d,dx,dy,dz,gc_pow_x,gc_pow_y,gc_pow_z,gpc_pow_x,gpc_pow_y,gpc_pow_z,gfc_pow_x,gfc_pow_y,gfc_pow_z
22/04/2022,12:06:37,13.101998,0.0,0.0,2.5303192138671875,2.5303192138671875,0.0,0.0,0.021787283942103386,0,0,0.021787283942103386,47.641468,-122.140165,124.53031921386719,0.0,0.0,0.0,0.0,0.0,0.0,0.0,0.0,0.0,0.9071519408350437,-0.25799739921976594,-0.004161248374512427,0.8696807861328137,0.0,0.0,0.0,-0.0,-0.0,0.0,-0.0,-0.0,0.0
22/04/2022,12:06:37,13.259998,0.0,0.0,2.533416748046875,2.533416748046875,0.0,0.0,0.017868278548121452,0,0,0.021787283942103386,47.641468,-122.140165,124.53341674804688,0.0,0.0,0.0,0.0,0.0,0.0,0.0,0.0,0.0,0.9041827838207567,-0.25799739921976594,-0.004161248374512427,0.8665832519531262,0.0,0.0,0.0,-0.0,-0.0,0.0,-0.0,-0.0,0.0
22/04/2022,12:06:37,13.413998,0.0,0.0,2.5359039306640625,2.5359039306640625,0.0,0.0,0.014626643620431423,0,0,0.021787283942103386,47.641468,-122.140165,124.53594970703125,0.0,0.0,0.0,0.0,0.0,0.0,0.0,0.0,0.0,0.9017993075147137,-0.25799739921976594,-0.004161248374512427,0.8640960693359387,0.0,0.0,0.0,-0.0,-0.0,0.0,-0.0,-0.0,0.0
22/04/2022,12:06:37,13.569997,0.0,0.0,2.5379714965820312,2.5379714965820312,0.0,0.0,0.011838859878480434,0,0,0.021787283942103386,47.641468,-122.140165,124.53800964355469,0.0,0.0,0.0,0.0,0.0,0.0,0.0,0.0,0.0,0.899818378728298,-0.25799739921976594,-0.004161248374512427,0.86202850341797,0.0,0.0,0.0,-0.0,-0.0,0.0,-0.0,-0.0,0.0
22/04/2022,12:06:37,13.730998,0.0,0.0,2.5396652221679688,2.5396652221679688,0.0,0.0,0.009450238198041916,0,0,0.021787283942103386,47.641468,-122.140165,124.53966522216797,0.0,0.0,0.0,0.0,0.0,0.0,0.0,0.0,0.0,0.898195916234031,-0.25799739921976594,-0.004161248374512427,0.8603347778320325,0.0,0.0,0.0,-0.0,-0.0,0.0,-0.0,-0.0,0.0
22/04/2022,12:06:37,13.920003,0.0,0.0,2.541229248046875,2.541229248046875,0.0,0.0,0.007104857824742794,0,0,0.021787283942103386,47.641468,-122.140165,124.54125213623047,0.0,0.0,0.0,0.0,0.0,0.0,0.0,0.0,0.0,0.8966979304104229,-0.25799739921976594,-0.004161248374512427,0.8587707519531262,0.0,0.0,0.0,-0.0,-0.0,0.0,-0.0,-0.0,0.0
22/04/2022,12:06:38,14.070998,0.0,0.0,2.5422134399414062,2.5422134399414062,0.0,0.0,0.005505286622792482,0,0,0.021787283942103386,47.641468,-122.140165,124.5422134399414,0.0,0.0,0.0,0.0,0.0,0.0,0.0,0.0,0.0,0.8957554111527071,-0.25799739921976594,-0.004161248374512427,0.857786560058595,0.0,0.0,0.0,-0.0,-0.0,0.0,-0.0,-0.0,0.0
22/04/2022,12:06:38,14.237999,0.0,0.0,2.54296875,2.54296875,0.0,0.0,0.004158399533480406,0,0,0.021787283942103386,47.641468,-122.140165,124.54298400878906,0.0,0.0,0.0,0.0,1.0,5.0,0.0,1.0,5.0,0.8950321432600967,-0.25799739921976594,-0.004161248374512427,0.8570312500000012,0.0,1.0,5.0,-0.0,-0.0,0.0,-0.0,-0.0,0.0
22/04/2022,12:06:38,14.387,-2.3403670638799667e-05,0.002110322006046772,2.58013916015625,2.58013916015625,-7.690620709710494e-12,0.05700662359595299,0.6977517604827881,0,0.05700662359595299,0.6977517604827881,47.64146801898835,-122.140165,124.58013916015625,6.352089759025182e-11,-3.0505286165031236,-1.4272692040785916e-08,0.0,0.0,5.0,0.0,0.0,5.0,0.8595098939455366,-0.2580080302352248,-0.0041614198425036775,0.8198608398437512,0.0,0.0,5.0,-0.0,-0.0,0.0,-0.0,-0.0,-0.0
22/04/2022,12:06:38,14.579011,-0.0002687183441594243,0.024230428971350193,2.813262939453125,2.813262939453125,-3.851703331281264e-11,0.149199977517128,1.824933648109436,0,0.149199977517128,1.824933648109436,47.64146822203973,-122.140165,124.8187026977539,-1.3372652717281856e-10,-0.22266435601033324,-2.2087515257951225e-08,0.0,0.0,5.0,-0.26684009124518604,-0.004303872439438564,1.8913304261305597,0.6410174471207588,-0.258119462491879,-0.00416321713696588,0.5867370605468762,0.0,0.0,5.0,-0.0,-0.0,0.0,-0.26684009124518604,-0.004303872439438564,-3.1086695738694403
22/04/2022,12:06:38,14.736999,-0.0005313372239470482,0.047910863533616066,3.0947952270507812,3.0947952270507812,-4.485262855569161e-11,0.14639976620674133,1.4284573793411255,0,0.149199977517128,1.824933648109436,47.64146843504274,-122.140165,125.09909057617188,-6.90823253176692e-10,0.5878091101605548,-9.848330033409546e-09,-1.7188578490603973e-10,1.0,5.0,-0.26552927188655057,0.9957172698110536,2.4233593061048926,0.39981815423166,-0.2582387550715817,-0.004165141210832002,0.30520477294922,-1.7188578490603973e-10,1.0,5.0,-0.0,-0.0,0.0,-0.2655292717146648,-0.004282730188946373,-2.5766406938951074
22/04/2022,12:06:38,14.928999,-0.0008069287287071347,0.07276104297488928,3.4220352172851562,3.4220352172851562,-9.01335742153897e-11,0.11317148804664612,2.1989808082580566,0,0.149199977517128,2.1989808082580566,47.6414686577489,-122.140165,125.42862701416016,-1.3672401716016713e-09,0.7692615976428594,1.7219370087690118e-09,3.0053470314961725e-11,1.0,0.0,-0.5713141756463578,0.9907852552310253,-9.63769071278211,0.2593353845838244,-0.25836394034624005,-0.00416716032816522,-0.022035217285155007,3.0053470314961725e-11,1.0,0.0,-0.0,-0.0,-0.0,-0.5713141756764113,-0.009214744768974674,-9.63769071278211
22/04/2022,12:06:39,15.113999,-0.0010206272127106786,0.09203030448406935,3.7801666259765625,3.7801666259765625,-1.2292458717588772e-10,0.09370191395282745,1.4451401233673096,0,0.149199977517128,2.1989808082580566,47.64146883060498,-122.140165,125.7845230102539,-2.087395782680301e-09,1.6613286250665813,9.029947977277981e-09,-0.9999999992119883,5.000000000157602,0.0,-1.2829911274971817,4.995435627120744,-3.5394573286283935,0.45972397812982607,-0.2584610111501567,-0.0041687259862929205,-0.38016662597656126,-0.9999999992119883,5.000000000157602,0.0,-0.0,-0.0,-0.0,-0.2829911282851934,-0.004564373036858006,-3.5394573286283935
22/04/2022,12:06:39,15.272005,-0.002004152745939791,0.10760457906872034,3.9564208984375,3.9564208984375,-0.021501125767827034,0.1454988569021225,0.7152129411697388,0,0.149199977517128,2.1989808082580566,47.64146896829012,-122.14016501079355,125.9564208984375,-4.167078945261731,-14.093058324200051,0.5714526004773446,-0.9500824425649997,5.0097248779079395,0.0,-1.2245168494942362,5.005298516505855,-2.4848875549122633,0.6132256262600322,-0.2577288740564026,-0.004156917323490439,-0.5564208984374988,-0.9500824425649997,5.0097248779079395,0.0,-0.0,-0.0,-0.0,-0.27443440692923654,-0.004426361402084472,-2.4848875549122633
22/04/2022,12:06:39,15.428998,-0.010656274040229619,0.14841165859252214,4.007499694824219,4.007499694824219,-0.08970704674720764,0.4165748357772827,-0.09913323819637299,0,0.4165748357772827,2.1989808082580566,47.641469336283954,-122.1401651199474,126.00749969482422,-6.326967058711758,-25.994966822903056,1.6578912389388387,-0.8549232775276524,5.026838587973695,-3.0,-0.8549232775276524,5.026838587973695,-3.0,0.6568414409480713,-0.24973701051289826,-0.004028016298595283,-0.6074996948242175,-0.8549232775276524,5.026838587973695,-3.0,-0.0,-0.0,-0.0,-0.0,-0.0,-0.0
22/04/2022,12:06:39,15.584999,-0.030500082182697952,0.23925557918846607,3.941680908203125,4.007499694824219,-0.14948898553848267,0.8004451990127563,-0.8563426733016968,0,0.8004451990127563,2.1989808082580566,47.64147015556277,-122.14016537069952,125.94168090820312,-3.0299306093988494,-30.026730325077978,2.018629514074589,-0.8232572110458635,5.032121576875999,-5.0,-0.7443544255690582,5.033394202448205,-2.785496898173528,0.5890340101180679,-0.231363206761871,-0.0037316646251914776,-0.5416809082031238,-0.8232572110458635,5.032121576875999,-5.0,-0.0,-0.0,-0.0,0.07890278547680528,0.0012726255722062692,2.214503101826472
22/04/2022,12:06:39,15.770999,-0.06280451000202447,0.4678830560296774,3.785675048828125,4.007499694824219,-0.17230352759361267,1.789380669593811,-0.8192878365516663,0,1.789380669593811,2.1989808082580566,47.641472263753286,-122.1401657738819,125.7832260131836,-0.5988925238111457,-26.527504919447676,1.8981116169173589,-0.8338401182026847,5.030378778707995,0.0,-0.6802916625785167,5.032855366701932,2.288703943863653,0.43573504041885064,-0.2027537615152296,-0.003270221959923103,-0.38567504882812376,-0.8338401182026847,5.030378778707995,0.0,-0.0,-0.0,-0.0,0.15354845562416802,0.002476587993936437,2.288703943863653
22/04/2022,12:06:39,15.945998,-0.09761363710276783,0.8793150493875146,3.6586380004882812,4.007499694824219,-0.14619320631027222,2.7004363536834717,-0.23559081554412842,0,2.7004363536834717,2.1989808082580566,47.64147599329959,-122.14016617549052,125.65790557861328,0.1805905669459706,-16.10990129886576,1.8510268019346465,-0.8379737262503653,5.029691842858176,0.0,-0.8379737262503653,5.029691842858176,0.0,0.312061694369794,-0.17458796151859202,-0.0028159348632033065,-0.25863800048828,-0.8379737262503653,5.029691842858176,0.0,-0.0,-0.0,-0.0,0.0,0.0,0.0
22/04/2022,12:06:40,16.107997,-0.1233277372084558,1.3468386391177773,3.6856460571289062,4.007499694824219,-0.11607283353805542,3.2902112007141113,0.5186811685562134,0,3.2902112007141113,2.1989808082580566,47.64148021802232,-122.14016644757112,125.68719482421875,0.33716892640250673,-13.695424062278384,1.8471066435998038,-0.8383178541455207,5.029634497199657,0.0,-0.8922640483492359,5.0287643972931395,-2.344481362983923,0.3256793354285176,-0.15641929097425178,-0.002522891789907389,-0.285646057128905,-0.8383178541455207,5.029634497199657,0.0,-0.0,-0.0,-0.0,-0.05394619420371516,-0.0008700999065177132,-2.344481362983923
22/04/2022,12:06:40,16.303405,-0.15129304770380259,2.0043813353404403,3.7287445068359375,4.007499694824219,-0.10051167756319046,3.540409803390503,-0.2559840977191925,0,3.540409803390503,2.1989808082580566,47.64148614335927,-122.14016672214713,125.72799682617188,0.412199850889904,-13.130669507718663,1.8416054271023612,-0.8388007673210949,5.029553983480199,0.0,-0.8388007673210949,5.029553983480199,0.0,0.3569548768403322,-0.13906402273542007,-0.002242968108636223,-0.32874450683593626,-0.8388007673210949,5.029553983480199,0.0,-0.0,-0.0,-0.0,-0.0,-0.0,0.0
22/04/2022,12:06:40,16.461404,-0.17203408223576844,2.593283331952989,3.6996231079101562,4.007499694824219,-0.07591654360294342,3.9099512100219727,0.05039769783616066,0,3.9099512100219727,2.1989808082580566,47.64149145355556,-122.14016691033272,125.69976806640625,0.33722450363709877,-9.984839844364618,1.8591996844844996,-0.8372562638235902,5.029811323368717,0.0,-0.8372562638235902,5.029811323368717,0.0,0.3257565303151534,-0.12782433146080402,-0.0020616827654968972,-0.299623107910155,-0.8372562638235902,5.029811323368717,0.0,-0.0,-0.0,-0.0,-0.0,-0.0,-0.0
22/04/2022,12:06:40,16.652682,-0.1934139576042071,3.36866522859782,3.7101669311523438,4.007499694824219,-0.05768688768148422,4.169532299041748,0.033370982855558395,0,4.169532299041748,2.1989808082580566,47.64149843862114,-122.14016707974132,125.71026611328125,0.2544786814907619,-7.1923885245964705,1.872084433801009,-0.8361251321589741,5.029999479460424,0.0,-0.8361251321589741,5.029999479460424,0.0,0.33220024716448426,-0.11895292357412035,-0.0019185955415181866,-0.3101669311523425,-0.8361251321589741,5.029999479460424,0.0,-0.0,-0.0,-0.0,-0.0,-0.0,-0.0
22/04/2022,12:06:40,16.841686,-0.21171875821892172,4.159426553174853,3.71282958984375,4.007499694824219,-0.044856034219264984,4.344851016998291,-0.0015256021870300174,0,4.344851016998291,2.1989808082580566,47.641505559454984,-122.14016720616058,125.71282958984375,0.19504503298900439,-5.464402750513717,1.8783169676273999,-0.835577972742723,5.030090401917958,0.0,-0.835577972742723,5.030090401917958,0.0,0.3327553388192849,-0.11340378145729668,-0.0018290932493121304,-0.31282958984374876,-0.835577972742723,5.030090401917958,0.0,-0.0,-0.0,-0.0,-0.0,-0.0,-0.0
22/04/2022,12:06:41,16.99771,-0.22567516611889005,4.844759374856949,3.7114410400390625,4.007499694824219,-0.036501120775938034,4.456239700317383,-0.015139773488044739,0,4.456239700317383,2.1989808082580566,47.641511729613015,-122.14016729043777,125.71139526367188,0.15603911424470263,-4.4372830972207975,1.8812984510138189,-0.8353162222978436,5.030133875829355,-1.0,-0.8353162222978436,5.030133875829355,-1.0,0.3304684013117623,-0.11050188366192915,-0.0017822884461606847,-0.31144104003906126,-0.8353162222978436,5.030133875829355,-1.0,-0.0,-0.0,-0.0,-0.0,-0.0,-0.0
22/04/2022,12:06:41,17.188711,-0.24147481413092464,5.691729904152453,3.6529464721679688,4.007499694824219,-0.031869884580373764,4.511294841766357,-0.7633779048919678,0,4.511294841766357,2.1989808082580566,47.64151935266224,-122.14016737553742,125.65068054199219,0.1291690148538309,-3.817093724588646,1.8827785299382787,-0.8351862823412202,5.030155452248872,-1.0,-1.1775952196622448,5.024632727453369,1.294050463721458,0.2751865619688941,-0.10836360690199681,-0.001747800111322917,-0.2529464721679675,-0.8351862823412202,5.030155452248872,-1.0,-0.0,-0.0,-0.0,-0.34240893732102456,-0.005522724795503008,2.294050463721458
22/04/2022,12:06:41,17.38071,-0.2618237774586305,6.5665459325537086,3.5438613891601562,4.007499694824219,-0.1237216666340828,4.633093357086182,0.0019398853182792664,0,4.633093357086182,2.1989808082580566,47.64152722844925,-122.14016752088436,125.54383850097656,-3.777259735782177,-2.6067640016633424,1.8488956700766817,-0.838160806405281,5.029660670721838,-4.0,-0.838160806405281,5.029660670721838,-4.0,0.176432915619596,-0.10212620215015711,-0.001647196808875151,-0.143861389160155,-0.838160806405281,5.029660670721838,-4.0,-0.0,-0.0,-0.0,-0.0,-0.0,-0.0
22/04/2022,12:06:41,17.57272,-0.30339085578452796,7.431063195690513,3.5236587524414062,4.007499694824219,-0.19423611462116241,4.670440673828125,-0.5362931489944458,0,4.670440673828125,2.1989808082580566,47.641535011454025,-122.14016794947652,125.5220718383789,-1.442516979038185,-3.143241260095322,1.8801439185859121,-0.8354175812986078,5.030117042858663,0.0,-0.8354175812986078,5.030117042858663,0.0,0.14437690783890877,-0.07451013484969732,-0.0012017763685454597,-0.123658752441405,-0.8354175812986078,5.030117042858663,0.0,-0.0,-0.0,-0.0,0.0,0.0,0.0
22/04/2022,12:06:41,17.762712,-0.3521647247252986,8.331704926677048,3.4081802368164062,4.007499694824219,-0.2009720355272293,4.734593391418457,-0.5143620371818542,0,4.734593391418457,2.1989808082580566,47.64154312088364,-122.14016846607997,125.40663146972656,0.4772627431433779,-2.269252893256289,1.881706763356569,0.0,0.0,0.0,0.41306031451067315,0.006662263137269439,2.0181377455875764,0.041099199140458856,-0.040271652434311855,-0.0006495427812005516,-0.008180236816405007,0.0,0.0,0.0,-0.0,-0.0,-0.0,0.41306031451067315,0.006662263137269439,2.0181377455875764
22/04/2022,12:06:41,17.944712,-0.39638386259321123,9.200474608689547,3.3598556518554688,4.007499694824219,-0.16375425457954407,4.448325157165527,0.21922597289085388,0,4.734593391418457,2.1989808082580566,47.64155093386481,-122.14016892499396,125.36048889160156,1.4651485637319146,15.318540378985103,2.2180298751100613,0.0,0.0,0.0,0.0,0.0,0.0,0.04138908163004202,-0.010072784897385667,-0.00016246427253818752,0.04014434814453249,0.0,0.0,0.0,-0.0,-0.0,0.0,0.0,0.0,-0.0
22/04/2022,12:06:42,18.13173,-0.43063367309514433,9.929210097528994,3.485931396484375,4.007499694824219,-0.12044315785169601,3.432809352874756,1.1834096908569336,0,4.734593391418457,2.1989808082580566,47.641557466237614,-122.14016927161455,125.48946380615234,1.7493094196944705,22.57856727411372,2.4160832516893054,0.0,0.0,0.0,0.147801595048741,0.0023838966943337528,-2.543395477541451,0.08682416862562031,0.01241737667904741,0.00020028026901641738,-0.08593139648437376,0.0,0.0,0.0,0.0,0.0,-0.0,0.147801595048741,0.0023838966943337528,-2.543395477541451
22/04/2022,12:06:42,18.309721,-0.45672408409882337,10.491996185854077,3.6685562133789062,4.007499694824219,-0.10325191169977188,2.9197614192962646,0.5587257146835327,0,4.734593391418457,2.1989808082580566,47.641562518074736,-122.14016953515147,125.67025756835938,1.8330364285645742,24.93990027354026,2.486803406215021,0.0,0.0,0.0,0.242929904038239,0.00391822425868427,-2.375915573426139,0.2701639583001216,0.029426167946144166,0.00047461561203121505,-0.268556213378905,0.0,0.0,0.0,0.0,0.0,-0.0,0.242929904038239,0.00391822425868427,-2.375915573426139
22/04/2022,12:06:42,18.457721,-0.47500947467051446,10.88235624320805,3.69757080078125,4.007499694824219,-0.09412451833486557,2.6177237033843994,-0.1742400825023651,0,4.734593391418457,2.1989808082580566,47.64156602373035,-122.14016972057384,125.69707489013672,1.6703532399147392,23.387386635648962,2.4305702149834993,0.0,0.0,0.0,0.0,0.0,0.0,0.3004393567364175,0.041412310417310416,0.0006679404906009268,-0.29757080078124876,0.0,0.0,0.0,0.0,0.0,-0.0,0.0,0.0,0.0
22/04/2022,12:06:42,18.637723,-0.49470825970638543,11.291916717775166,3.68389892578125,4.007499694824219,-0.06846808642148972,1.7831734418869019,0.3195625841617584,0,4.734593391418457,2.1989808082580566,47.641569639768385,-122.14016991857454,125.68389892578125,1.1768183267811214,16.689070448700594,2.248890420831083,0.0,0.0,-5.0,0.0,0.0,-5.0,0.28908446398048426,0.05450187615326019,0.0008790625186012591,-0.28389892578124876,0.0,0.0,-5.0,0.0,0.0,-0.0,0.0,0.0,-0.0
22/04/2022,12:06:42,18.808778,-0.5087576080113649,11.571353919804096,3.697845458984375,4.007499694824219,-0.05813496187329292,1.4675590991973877,-0.3494938910007477,0,4.734593391418457,2.1989808082580566,47.64157215519326,-122.14017006434776,125.69784545898438,1.3055419976013398,17.965399551481127,2.2732061207980454,0.0,0.0,-5.0,0.0,0.0,-5.0,0.30465443141083715,0.0640416910709578,0.0010329305011449463,-0.29784545898437376,0.0,0.0,-5.0,0.0,0.0,-0.0,0.0,0.0,0.0
22/04/2022,12:06:42,18.957781,-0.518774346797727,11.766564801335335,3.5980987548828125,4.007499694824219,-0.050404369831085205,1.239713191986084,-1.0611933469772339,0,4.734593391418457,2.1989808082580566,47.64157394592798,-122.14017017089212,125.59494018554688,1.2675338099029343,17.40618901981691,2.2572536935560357,0.0,0.0,-5.0,0.1707037178774344,0.0027532857722158506,-2.506017240535207,0.21041002979153212,0.07090808099029189,0.0011436787256471348,-0.19809875488281126,0.0,0.0,-5.0,0.0,0.0,-0.0,0.1707037178774344,0.0027532857722158506,2.493982759464793
22/04/2022,12:06:43,19.110779,-0.5278455797815695,11.939347485080361,3.38250732421875,4.007499694824219,-0.043079689145088196,1.0276780128479004,-1.775090217590332,0,4.734593391418457,2.1989808082580566,47.641575495574834,-122.14017026584789,125.37720489501953,0.8705426148380901,11.926245816560419,2.1488042972259285,0.0,0.0,-5.0,0.1617314720465251,0.0026085721297823463,-0.5678259039368454,0.0791578988513459,0.07719086205601322,0.0012450139041284558,0.017492675781251243,0.0,0.0,-5.0,0.0,0.0,0.0,0.1617314720465251,0.0026085721297823463,4.432174096063155
22/04/2022,12:06:43,19.288778,-0.5360268473159522,12.090236401185393,3.1010513305664062,4.007499694824219,-0.029186367988586426,0.6547641754150391,-1.073861837387085,0,4.734593391418457,2.1989808082580566,47.64157682616338,-122.14017035075648,125.1010513305664,0.4512850746947512,6.466081042206839,1.756519808453619,0.0,0.0,-5.0,0.12487975090420018,0.0020141895307116344,-2.4576179026395453,0.3102428610326253,0.08293694257711987,0.0013376926222097296,0.298948669433595,0.0,0.0,-5.0,0.0,0.0,0.0,0.12487975090420018,0.0020141895307116344,2.5423820973604547
22/04/2022,12:06:43,19.470783,-0.5419317586347461,12.194694116711617,2.8908920288085938,4.007499694824219,-0.023867400363087654,0.522521436214447,-1.5426586866378784,0,4.734593391418457,2.1989808082580566,47.64157778064001,-122.1401704148982,124.88629150390625,0.2555495877035007,4.749134643138838,0.6620699378952967,0.0,0.0,-5.0,0.14880118540817255,0.0024000191194856473,-0.46837695553181025,0.5165162754835321,0.0871559544748618,0.001405741201207178,0.5091079711914075,0.0,0.0,-5.0,0.0,0.0,0.0,0.14880118540817255,0.0024000191194856473,4.53162304446819
22/04/2022,12:06:43,19.646777,-0.5465217251330614,12.274581748992205,2.6546478271484375,4.007499694824219,-0.016500528901815414,0.3510555624961853,-0.7395231127738953,0,4.734593391418457,2.1989808082580566,47.641578485717176,-122.14017046325068,124.65464782714844,0.09281897636093411,3.0943325512205027,-0.7904730100510133,0.0,0.0,-5.0,0.12615560634415385,0.002034767844257715,-2.497312611887712,0.7508224677060868,0.09045655213887427,0.001458976647398913,0.7453521728515637,0.0,0.0,-5.0,0.0,0.0,0.0,0.12615560634415385,0.002034767844257715,2.502687388112288
22/04/2022,12:06:43,19.799779,-0.5492930309846997,12.321882795542479,2.5399017333984375,4.007499694824219,-0.01399320550262928,0.2945154905319214,-1.0879710912704468,0,4.734593391418457,2.1989808082580566,47.64157891154876,-122.1401704931596,124.53990173339844,0.02089878046275082,2.630169875935884,-2.140722070986442,0.0,0.0,-5.0,0.11172098811698092,0.0018019514212393054,-1.9427387265730216,0.8650554436062868,0.09246441554786788,0.0014913615410936387,0.8600982666015637,0.0,0.0,-5.0,0.0,0.0,0.0,0.11172098811698092,0.0018019514212393054,3.0572612734269784
22/04/2022,12:06:44,20.081779,-0.5533711286261678,12.390902842395008,2.1811065673828125,4.007499694824219,-0.00981003325432539,0.2034730315208435,-1.3086023330688477,0,4.734593391418457,2.1989808082580566,47.641579538395476,-122.14017053765167,124.17718505859375,-0.06223047017576753,1.6820535965589059,-4.779826807835796,0.0,0.0,-5.0,0.1937367543999966,0.0031247863612896545,1.052142437049131,1.2226242966244905,0.09542851552938847,0.0015391696053104198,1.2188934326171887,0.0,0.0,-5.0,0.03535937733396964,0.0005703125376438204,0.4516397700908978,0.15837737706602695,0.002554473823645834,5.600502666958233
22/04/2022,12:06:44,20.245782,-0.5550606320612133,12.419181521981955,2.022613525390625,4.007499694824219,-0.00702277896925807,0.14369136095046997,-0.4405158758163452,0,4.734593391418457,2.1989808082580566,47.641579791377495,-122.140170555856,124.0212631225586,-0.07355899675422076,1.136827515668174,-6.37101373954967,0.0,0.0,-5.0,0.1510434795837116,0.002436185154576242,-2.018795093539936,1.3807749252382686,0.09666159045004485,0.0015590579104838298,1.3773864746093762,0.0,0.0,-5.0,0.03334048536191722,0.000537749763901627,0.4750877094056274,0.11770299422179437,0.0018984353906746152,2.506117197054436
22/04/2022,12:06:44,20.420775,-0.5564342075958848,12.441929331049323,1.93487548828125,4.007499694824219,-0.005882535595446825,0.1194903552532196,-0.8865566849708557,0,4.734593391418457,2.1989808082580566,47.641579995519244,-122.14017057073704,123.93223571777344,-0.09602983553042861,1.0189594137471074,-8.125329480149409,0.0,0.0,-5.0,0.144783430331916,0.002335216618255507,-1.0647161985033193,1.4683771162031263,0.0976680040243233,0.0015752903874890478,1.4651245117187512,0.0,0.0,-5.0,0.032257756871256954,0.0005202864011492933,0.4839008512283355,0.11252567346065906,0.0018149302171062134,3.4513829502683455
22/04/2022,12:06:44,20.598778,-0.5576257194625214,12.461590509861708,1.7307205200195312,4.007499694824219,-0.004791546612977982,0.09683603048324585,-1.2202965021133423,0,4.734593391418457,2.1989808082580566,47.6415801719123,-122.14017058365252,123.72705841064453,-0.09980687321905253,0.7950134796484789,-9.917366351404462,0.0,0.0,-5.0,0.2132741523530399,0.003439905683111998,2.6983400537153344,1.672186313854714,0.0985421726924594,0.0015893898821346397,1.66927947998047,0.0,0.0,-5.0,0.029257473862422827,0.0004718947397159621,0.49561420679274903,0.18401667849061706,0.002968010943396036,7.202725846922585
22/04/2022,12:06:44,20.776777,-0.5585113796405494,12.476121814921498,1.5805816650390625,4.007499694824219,-0.0033783004619181156,0.0674886479973793,-0.27835559844970703,0,4.734593391418457,2.1989808082580566,47.641580300116445,-122.14017059310513,123.58058166503906,-0.07668213615503058,0.48841534710967527,-11.653320501279897,0.0,0.0,-5.0,0.13744788340652106,0.0022169013452673176,-1.976620920731464,1.8221210018958782,0.09919328759769547,0.0015998917354469455,1.8194183349609387,0.0,0.0,-5.0,0.027188543023452864,0.0004385248874751132,0.4986963823436549,0.11025934038306819,0.0017783764577922042,2.524682696924881
22/04/2022,12:06:44,20.952777,-0.5591503587784246,12.486500003375113,1.5290756225585938,4.007499694824219,-0.0028689049649983644,0.05689609795808792,-0.6690472960472107,0,4.734593391418457,2.1989808082580566,47.641580395087296,-122.14017060019397,123.52708435058594,-0.08012626907132993,0.4289593048997941,-13.391487725617257,0.0,0.0,-5.0,0.13584963761882116,0.0021911231873969522,-1.1153759010572655,1.873577773493212,0.09966475394928664,0.0016074960314380604,1.8709243774414075,0.0,0.0,-5.0,0.026586694123376022,0.00042881764715068017,0.4990901214316242,0.10926294349544514,0.0017623055402462722,3.38553397751111
22/04/2022,12:06:45,21.128776,-0.5597158750751987,12.495648181065917,1.3863906860351562,4.007499694824219,-0.0023308859672397375,0.04600200802087784,-0.8643060922622681,0,4.734593391418457,2.1989808082580566,47.641580475910224,-122.14017060625685,123.38639068603516,-0.07945777432777457,0.36389712213648895,-15.16055167089979,0.0,0.0,-5.0,0.16688818593721746,0.002691744934470655,0.6480293172587297,2.016095633625811,0.10008261028946086,0.00161423564983032,2.013609313964845,0.0,0.0,-5.0,0.02482091922794704,0.0004003374069024475,0.4993837989837715,0.14206726670927042,0.0022914075275682075,5.148645518274958
22/04/2022,12:06:45,21.306777,-0.5601425842614844,12.502520147711039,1.2968826293945312,4.007499694824219,-0.001593062304891646,0.031172657385468483,0.023328932002186775,0,4.734593391418457,2.1989808082580566,47.64158053861183,-122.14017061098679,123.29693603515625,-0.06768371785006523,0.26966939737724566,-16.93005833255168,0.0,0.0,-5.0,0.14840028118496743,0.0023935529223355484,-2.003454083014741,2.1055130337571906,0.10039839915294196,0.0016193290185952947,2.10311737060547,0.0,0.0,-5.0,0.023847391270832657,0.000384635343077817,0.49954843153337036,0.12455288991413477,0.0020089175792577314,2.4969974854518884
22/04/2022,12:06:45,21.485775,-0.560454256250523,12.507503707893193,1.2648773193359375,4.007499694824219,-0.0013404259225353599,0.026081200689077377,-0.5978601574897766,0,4.734593391418457,2.1989808082580566,47.64158058334844,-122.14017061438983,123.26310729980469,-0.06672435186293049,0.23522550996748623,-18.69981658468713,0.0,0.0,0.0,0.13679238808413163,0.0022063288400639785,4.18071232691733,2.137493349331734,0.10062963098508004,0.001623058564273805,2.1351226806640637,0.0,0.0,0.0,0.02355140496027587,0.00037986137032663703,0.49970509083596587,0.11324098312385578,0.0018264674697373413,3.6810072360813644
22/04/2022,12:06:45,21.655775,-0.5606967584462836,12.511370156891644,1.191314697265625,4.007499694824219,-0.0009708148427307606,0.018762344494462013,0.06917329132556915,0,4.734593391418457,2.1989808082580566,47.64158061796265,-122.14017061703274,123.19149017333984,-0.03818563914460471,0.12186885614559008,-20.10820339941194,0.0,0.0,0.0,0.1460442019124192,0.0023555516437451375,2.9975732207659056,2.2109853031566686,0.10080972424973533,0.0016259632943498303,2.2086853027343762,0.0,0.0,0.0,0.02284028854693417,0.00036839175075683515,0.5004180896165704,0.12320391336548503,0.0019871598929883023,2.497155131149335
22/04/2022,12:06:45,21.832775,-0.5608765425859019,12.514201960526407,1.2992706298828125,4.007499694824219,-0.0007040529744699597,0.01333420630544424,1.1896828413009644,0,4.734593391418457,2.1989808082580566,47.64158064331426,-122.1401706189971,123.30281066894531,-0.029867278832888314,0.09205631012578458,-20.85909968906759,0.0,0.0,0.0,0.02400346466906967,0.00038715265595229144,0.4995332411249214,2.1031538669044716,0.10094379925814562,0.0016281257944843475,2.1007293701171887,0.0,0.0,0.0,0.02400346466906967,0.00038715265595229144,0.4995332411249214,0.0,0.0,-0.0
22/04/2022,12:06:46,22.008776,-0.5610099416226149,12.516276953741908,1.4868087768554688,4.007499694824219,-0.0006055071717128158,0.011392534710466862,0.6973133683204651,0,4.734593391418457,2.1989808082580566,47.64158066193064,-122.14017062046234,123.48892211914062,-0.028469791122211815,0.08637882453095323,-21.220446478934928,0.0,0.0,0.0,0.026367206947408205,0.0004252775314100205,0.49924445143985197,1.9158583305177979,0.10104370467238832,0.0016297371721361031,1.9131912231445325,0.0,0.0,0.0,0.026367206947408205,0.0004252775314100205,0.49924445143985197,0.0,0.0,0.0
22/04/2022,12:06:46,22.180777,-0.5611289424123242,12.518121876753867,1.5527114868164062,4.007499694824219,-0.0005116360844112933,0.009604026563465595,0.20618529617786407,0,4.734593391418457,2.1989808082580566,47.64158067850168,-122.14017062177052,123.55333709716797,-0.024687599407999312,0.07430317375307963,-21.403489852207578,0.0,0.0,0.0,0.19804531137419543,0.003194279215709163,2.9043606782718276,1.8500555073515281,0.10113292542892971,0.0016311762165930332,1.847288513183595,0.0,0.0,0.0,0.02731397411010301,0.00044054796951708636,0.49891556492593975,0.17073133726409243,0.002753731246192077,2.405445113345888
22/04/2022,12:06:46,22.352775,-0.5612206814112142,12.519542822614312,1.6472702026367188,4.007499694824219,-0.00035227881744503975,0.006608967203646898,1.107218861579895,0,4.734593391418457,2.1989808082580566,47.64158069121658,-122.14017062277595,123.65055847167969,-0.01729162339520452,0.051744202613259536,-21.494024117827095,0.39529484402557546,4.454631520820414,0.0,0.42403247537393296,4.455095031003452,0.49771188438865693,1.7556497932908801,0.10120172804749544,0.0016322859362496445,1.7527297973632825,0.39529484402557546,4.454631520820414,0.0,0.028737631348357495,0.00046351018303794405,0.49771188438865693,0.0,0.0,-0.0
22/04/2022,12:06:46,22.529775,-0.5612519154092297,12.527974361553788,1.8480148315429688,4.007499694824219,0.0012805252335965633,0.21958523988723755,1.1258156299591064,0.0012805252335965633,4.734593391418457,2.1989808082580566,47.64158077266483,-122.14017062188111,123.85137939453125,5.99482495086196,-14.87153488478438,-22.273987358899223,-0.04441655030256886,5.384981631357642,0.0,-0.01248697941160308,5.385496624436529,0.49016510937124225,1.5552752890416428,0.10109699672737171,0.0016305967214087502,1.5519851684570325,-0.04441655030256886,5.384981631357642,0.0,0.03192957089096578,0.0005149930788863959,0.49016510937124225,0.0,0.0,-0.0
22/04/2022,12:06:46,22.707774,-0.5624630682868883,12.637699937447906,2.101531982421875,4.007499694824219,-0.0037161430809646845,1.1671602725982666,1.8431715965270996,0.0012805252335965633,4.734593391418457,2.1989808082580566,47.64158178538764,-122.14017062200026,124.10704040527344,9.462078739898377,-23.42934811822572,-23.395370683435704,-0.14979526648695862,5.383081030240777,0.0,-0.039353156567021944,5.384862354594321,-2.0636611183065052,1.3023554882379882,0.100538527535248,0.0016215891537925131,1.2984680175781262,-0.14979526648695862,5.383081030240777,0.0,0.035977494494663316,0.0005802821692681157,0.46465396996723773,0.07446461542527337,0.0012010421842767068,-2.528315088273743
22/04/2022,12:06:46,22.881777,-0.5665762542048469,12.890264730900526,2.381256103515625,4.007499694824219,-0.011075319722294807,1.6564605236053467,1.110734462738037,0.0012805252335965633,4.734593391418457,2.1989808082580566,47.64158407141035,-122.14017063976551,124.38461303710938,10.728640074856866,-26.910117952356785,-24.003875303425723,-0.20695626683107715,5.381186588812856,0.0,-0.03762699845217318,5.383917706044772,-1.8398076944945618,1.0236980550489814,0.1005780774636148,0.0016222270558632346,1.0187438964843762,-0.20695626683107715,5.381186588812856,0.0,0.03998197589329979,0.0006448705789235859,0.4049728821414353,0.12934729248560417,0.002086246652992787,-2.244780576635997
22/04/2022,12:06:47,23.016778,-0.5715173084754497,13.140587477944791,2.4963226318359375,4.007499694824219,-0.022286608815193176,2.1016476154327393,0.6341274380683899,0.0012805252335965633,4.734593391418457,2.1989808082580566,47.64158633595062,-122.14017066903173,124.49823760986328,9.447839946945779,-24.40734633166237,-23.47533987000252,-0.1573084221749088,5.382866713965045,0.0,-0.1573084221749088,5.382866713965045,0.0,0.909359085342485,0.10148143306815383,0.001636797307549287,0.9036773681640637,-0.1573084221749088,5.382866713965045,0.0,0.0,0.0,0.0,0.0,0.0,-0.0
22/04/2022,12:06:47,23.186777,-0.5812719211680815,13.549678300507367,2.6144332885742188,4.007499694824219,-0.04043244197964668,2.8914008140563965,0.8768778443336487,0.0012805252335965633,4.734593391418457,2.1989808082580566,47.64159003868052,-122.1401707392191,124.6170654296875,7.218080088592103,-18.73292552220978,-22.548262190202465,-0.07019384388044903,5.3847073109205565,0.0,-0.07019384388044903,5.3847073109205565,0.0,0.7925066594060732,0.10463698578378372,0.001687693319093242,0.7855667114257825,-0.07019384388044903,5.3847073109205565,0.0,0.0,0.0,0.0,0.0,0.0,-0.0
22/04/2022,12:06:47,23.329777,-0.5925706548150629,14.002321796491742,2.7269439697265625,4.007499694824219,-0.04377380758523941,3.2714223861694336,0.6277452111244202,0.0012805252335965633,4.734593391418457,2.1989808082580566,47.64159412241422,-122.14017082294131,124.72883605957031,5.80913162036438,-14.760251614353075,-22.04811108455929,-0.023187129501955006,5.3851148880061475,0.0,-0.023187129501955006,5.3851148880061475,0.0,0.6817688986374957,0.10863397808234432,0.0017521609368102986,0.6730560302734387,-0.023187129501955006,5.3851148880061475,0.0,0.0,0.0,0.0,0.0,0.0,-0.0
22/04/2022,12:06:47,23.474775,-0.6039916147710755,14.483012289740145,2.8006591796875,4.007499694824219,-0.04173090681433678,3.563079357147217,0.42245954275131226,0.0012805252335965633,4.734593391418457,2.1989808082580566,47.64159845606845,-122.14017090393367,124.80193328857422,4.780809671753654,-11.858927217510963,-21.752745393659584,0.00457388188197938,5.385162864724198,0.0,0.00457388188197938,5.385162864724198,0.0,0.609773887987685,0.11230091162968148,0.001811305026285126,0.5993408203125012,0.00457388188197938,5.385162864724198,0.0,0.0,0.0,0.0,0.0,0.0,-0.0
22/04/2022,12:06:47,23.645776,-0.6179072865052149,15.127718176692724,2.8594741821289062,4.007499694824219,-0.035178400576114655,3.8591442108154297,0.2617691159248352,0.0012805252335965633,4.734593391418457,2.1989808082580566,47.64160416175842,-122.14017099233105,124.8594741821289,3.773710606932039,-9.148277476580983,-21.530286630498203,0.025482432133160815,5.385104515759427,0.0,0.025482432133160815,5.385104515759427,0.0,0.5527976754530326,0.1158171865724571,0.0018680191382607347,0.540525817871095,0.025482432133160815,5.385104515759427,0.0,0.0,0.0,0.0,0.0,0.0,0.0
22/04/2022,12:06:47,23.788776,-0.6288198007969186,15.69656752422452,2.8910140991210938,4.007499694824219,-0.028272708877921104,4.056583404541016,0.17854879796504974,0.0012805252335965633,4.734593391418457,2.1989808082580566,47.64160928063532,-122.1401710536195,124.8910140991211,3.102005221998106,-7.437614109802766,-21.417489504464896,0.03608393011833044,5.385043913468786,0.0,0.03608393011833044,5.385043913468786,0.0,0.5223880226166361,0.11755425949582188,0.0018960364434796873,0.5089859008789075,0.03608393011833044,5.385043913468786,0.0,0.0,0.0,0.0,0.0,0.0,0.0
22/04/2022,12:06:47,23.936774,-0.6389991816831753,16.291217329911888,2.9126510620117188,4.007499694824219,-0.021161599084734917,4.217390060424805,0.1233353540301323,0.0012805252335965633,4.734593391418457,2.1989808082580566,47.641614631559,-122.14017110133935,124.91265106201172,2.5481226453163064,-6.0876251764964495,-21.344244103021417,-0.16050129161428395,3.1582019149177505,0.0,-0.16050129161428395,3.1582019149177505,0.0,0.5014680806901679,0.11814236149170054,0.0019055219595429662,0.4873489379882825,-0.16050129161428395,3.1582019149177505,0.0,0.0,0.0,0.0,0.0,0.0,0.0
22/04/2022,12:06:48,24.110775,-0.6500975566450506,17.018807885237038,2.9182586669921875,4.007499694824219,-0.013862654566764832,4.259848117828369,0.01290279719978571,0.0012805252335965633,4.734593391418457,2.1989808082580566,47.64162129344522,-122.14017114222428,124.91829681396484,-0.770969263852638,2.3813764178642143,-21.188226272374976,0.0,0.0,0.0,0.0,0.0,0.0,0.49586879617602153,0.11750557057448074,0.0018952511382970272,0.48174133300781374,0.0,0.0,0.0,0.0,0.0,0.0,0.0,0.0,0.0
22/04/2022,12:06:48,24.287775,-0.6598730186233297,17.73444803338498,2.9553756713867188,4.007499694824219,-0.006617639679461718,3.813655376434326,0.6269112229347229,0.0012805252335965633,4.734593391418457,2.1989808082580566,47.64162772099185,-122.14017116641547,124.95722961425781,-6.3271697700329925,16.366173355673407,-21.97868838517487,0.0,0.0,0.0,0.0,0.0,0.0,0.45944507120699074,0.11573890910746698,0.001866756598506214,0.4446243286132825,0.0,0.0,0.0,0.0,0.0,0.0,0.0,0.0,-0.0
22/04/2022,12:06:48,24.461774,-0.6666073889937252,18.321349983103573,3.1336593627929688,4.007499694824219,0.00442469259724021,2.956244468688965,1.2518874406814575,0.00442469259724021,4.734593391418457,2.1989808082580566,47.64163297871641,-122.14017116897622,125.13741302490234,-7.658468292026604,19.846629566815004,-22.31504287468203,-1.8984952906217256,4.625550305800071,0.0,-1.888610778352124,4.62570973341732,-2.5066746579735377,0.2893292705750938,0.1130078294771023,0.0018227069270437823,0.2663406372070325,-1.8984952906217256,4.625550305800071,0.0,0.0,0.0,0.0,0.009884512269601634,0.0001594276172494806,-2.5066746579735377
22/04/2022,12:06:48,24.628777,-0.6715635497821495,18.791482185013592,3.3070907592773438,4.007499694824219,-0.015669211745262146,2.6429622173309326,0.6053118109703064,0.00442469259724021,4.734593391418457,2.1989808082580566,47.64163712903392,-122.14017116572052,125.30709075927734,-6.095175630502868,4.443732633751153,-20.351184943257934,-1.7388668607580717,4.687893134506947,0.0,-1.6299499074984718,4.689649859559513,-2.1555141802268403,0.14428949934241686,0.11038189594063463,0.001780353160331316,0.0929092407226575,-1.7388668607580717,4.687893134506947,0.0,0.0,0.0,0.0,0.10891695325959991,0.001756725052565628,-2.1555141802268403
22/04/2022,12:06:48,24.770775,-0.6819023401476443,19.160653010942042,3.34588623046875,4.007499694824219,-0.07984738796949387,2.6206536293029785,-0.08374679088592529,0.00442469259724021,4.734593391418457,2.1989808082580566,47.64164045139837,-122.14017124885062,125.34588623046875,-4.957833337065153,-4.846832381760482,-19.392409767350472,-1.6601808798579498,4.716333262838207,0.0,-1.6601808798579498,4.716333262838207,0.0,0.12689670008129925,0.1147651778541321,0.0018510512557092795,0.05411376953125124,-1.6601808798579498,4.716333262838207,0.0,0.0,0.0,0.0,0.0,0.0,0.0
22/04/2022,12:06:48,24.917778,-0.7052190857939422,19.542481953278184,3.3053665161132812,4.007499694824219,-0.20490965247154236,2.722804069519043,-0.33486971259117126,0.00442469259724021,4.734593391418457,2.1989808082580566,47.641643962271516,-122.14017151101119,125.30435943603516,-3.3876992112083233,-8.061776589077025,-19.102976782798095,-0.6914030548017739,5.051926544973786,0.0,-0.6914030548017739,5.051926544973786,0.0,0.16236572143613398,0.1319189296979626,0.002127724672547515,0.09463348388672,-0.6914030548017739,5.051926544973786,0.0,0.0,0.0,0.0,0.0,0.0,0.0
22/04/2022,12:06:49,25.097835,-0.7596662985160947,20.0449500689283,3.2601699829101562,4.007499694824219,-0.32064297795295715,3.014535665512085,-0.13285361230373383,0.00442469259724021,4.734593391418457,2.1989808082580566,47.64164849610708,-122.14017216632311,125.259765625,2.7123827452643186,-10.634622568004167,-19.028165456202014,-0.6848061467722787,5.052825006008313,0.0,-0.6848061467722787,5.052825006008313,0.0,0.22656936703590694,0.1782497652073637,0.002874996213019898,0.139830017089845,-0.6848061467722787,5.052825006008313,0.0,0.0,0.0,0.0,0.0,0.0,0.0
22/04/2022,12:06:49,25.268835,-0.8216097579570487,20.597800370305777,3.2474899291992188,4.007499694824219,-0.30891746282577515,3.364694595336914,-0.04107028618454933,0.00442469259724021,4.734593391418457,2.1989808082580566,47.64165348558128,-122.14017290886162,125.24736785888672,4.706325138710353,-10.327713368611985,-18.968935375944728,-0.6501109307936677,1.8913899063023973,0.0,-0.6501109307936677,1.8913899063023973,0.0,0.2770479664059832,0.23126249327124504,0.0037300402140516553,0.1525100708007825,-0.6501109307936677,1.8913899063023973,0.0,0.0,0.0,0.0,0.0,0.0,0.0
22/04/2022,12:06:49,25.439836,-0.8773681755410507,21.17656950931996,3.214874267578125,4.007499694824219,-0.2731548249721527,3.458723306655884,-0.3029082715511322,0.00442469259724021,4.734593391418457,2.1989808082580566,47.641658700822944,-122.14017356426208,125.21395874023438,0.0864365402566238,4.778606096403771,-18.26780057880568,0.0,0.0,0.0,1.398945934646114,0.022563644107193546,1.55340092101621,0.33375793968289336,0.2776738510278183,0.004478610500449065,0.18512573242187624,0.0,0.0,0.0,0.0,0.0,0.0,1.398945934646114,0.022563644107193546,1.55340092101621
22/04/2022,12:06:49,25.609835,-0.9221889609470963,21.745772622525692,3.2205047607421875,4.007499694824219,-0.1257883608341217,2.984154462814331,0.5044530034065247,0.00442469259724021,4.734593391418457,2.1989808082580566,47.64166373301448,-122.14017406594405,125.22050476074219,0.26401594930441546,15.44675247654797,-18.21392380960204,0.0,0.0,0.0,0.0,0.0,0.0,0.36111479362558396,0.31330467185540845,0.0050533011589593,0.17949523925781374,0.0,0.0,0.0,0.0,0.0,0.0,0.0,0.0,-0.0
22/04/2022,12:06:49,25.780838,-0.934377892757766,22.19291676674038,3.332733154296875,4.007499694824219,0.011950487270951271,2.45780873298645,0.7001769542694092,0.011950487270951271,4.734593391418457,2.1989808082580566,47.64166782343131,-122.14017416173984,125.3348388671875,-2.941163814150359,16.79392477911807,-18.16395174584313,-0.950168372355357,-0.31173717162951814,0.0,-0.5737349612476681,-0.30566566499875897,-2.3327157298712717,0.32535140339783447,0.3182803069500517,0.005133553337902441,0.06726684570312624,-0.950168372355357,-0.31173717162951814,0.0,0.0,0.0,0.0,0.37643341110768896,0.006071506630759162,-2.3327157298712717
22/04/2022,12:06:49,25.924835,-0.9339341304730624,22.5255039408803,3.402923583984375,4.007499694824219,0.03899886831641197,2.190951108932495,0.1298900842666626,0.03899886831641197,4.734593391418457,2.1989808082580566,47.64167074922406,-122.14017410718417,125.40292358398438,-4.562163362140185,17.45330890836315,-18.18802230789703,0.0,0.0,0.0,0.0,0.0,0.0,0.3125280624820891,0.3124737459567941,0.0050398991283344685,-0.0029235839843737566,0.0,0.0,0.0,0.0,0.0,-0.0,0.0,0.0,-0.0
22/04/2022,12:06:50,26.089883,-0.9292488942155614,22.851406261324883,3.4256591796875,4.007499694824219,0.05759746953845024,1.6686705350875854,0.22907064855098724,0.05759746953845024,4.734593391418457,2.1989808082580566,47.6416736808141,-122.14017399669949,125.4256591796875,-4.212962632537576,13.857651442639437,-17.876916309493186,0.0,0.0,0.0,0.0,0.0,0.0,0.30365999391496007,0.30253460628412887,0.004879590423936264,-0.025659179687498757,0.0,0.0,0.0,0.0,0.0,-0.0,0.0,0.0,-0.0
22/04/2022,12:06:50,26.236883,-0.9234688363503665,23.061304497532547,3.4506988525390625,4.007499694824219,0.05852533504366875,1.3759639263153076,0.12478216737508774,0.05852533504366875,4.734593391418457,2.1989808082580566,47.64167560580425,-122.14017388642431,125.45108032226562,-3.8455830755468665,11.084724361997612,-18.67524847644191,0.0,0.0,-1.0,0.0,0.0,-1.0,0.2977575976001855,0.293371476744809,0.0047317980120133996,-0.05069885253906126,0.0,0.0,-1.0,0.0,0.0,-0.0,0.0,0.0,-0.0
22/04/2022,12:06:50,26.401883,-0.9161196337081492,23.277969408780336,3.4264450073242188,4.007499694824219,0.055106572806835175,1.1835392713546753,-0.5541778802871704,0.05852533504366875,4.734593391418457,2.1989808082580566,47.6416775491242,-122.14017375673994,125.4248046875,-4.102073054353745,8.932226764437077,-23.117939001555648,0.0,0.0,-1.0,0.2613468160089551,0.004215271225944007,1.1073163155525552,0.2838020207965591,0.28253049899343163,0.004556943532147528,-0.026445007324217507,0.0,0.0,-1.0,0.0,0.0,-0.0,0.2613468160089551,0.004215271225944007,2.107316315552555
22/04/2022,12:06:50,26.550883,-0.9104378888150677,23.430822832509875,3.3599014282226562,4.007499694824219,0.04532981291413307,0.9029257297515869,-0.08240397274494171,0.05852533504366875,4.734593391418457,2.1989808082580566,47.641678916209464,-122.14017365892452,125.35962677001953,-3.708077183963807,6.254165837756798,-28.385075571220302,0.0,0.0,-1.0,0.0,0.0,-1.0,0.2773353225229958,0.2743854951858279,0.004425572502992026,0.04009857177734499,0.0,0.0,-1.0,0.0,0.0,0.0,0.0,0.0,0.0
22/04/2022,12:06:50,26.719884,-0.9048803228652105,23.569727448746562,3.3337249755859375,4.007499694824219,0.038898929953575134,0.7574325799942017,-0.5369072556495667,0.05852533504366875,4.734593391418457,2.1989808082580566,47.64168016136986,-122.14017356469462,125.3321304321289,-3.840772078566016,4.849384886884375,-35.72207527990083,0.0,0.0,-1.0,0.3132442736676963,0.005052326994632613,1.1725009170001952,0.2747378042108706,0.26658956027869507,0.0042998316173914475,0.06627502441406374,0.0,0.0,-1.0,0.0,0.0,0.0,0.3132442736676963,0.005052326994632613,2.172500917000195
22/04/2022,12:06:50,26.891885,-0.9002815949497744,23.682752360589802,3.2724151611328125,4.007499694824219,0.02792329527437687,0.540497362613678,0.15791761875152588,0.05852533504366875,4.734593391418457,2.1989808082580566,47.64168117193011,-122.1401734872255,125.27285766601562,-3.2173291147092633,3.0354243552958096,-43.603028511326656,0.0,0.0,-1.0,0.0,0.0,-1.0,0.28979937726723415,0.260169520059913,0.004196282581609978,0.12758483886718874,0.0,0.0,-1.0,0.0,0.0,0.0,0.0,0.0,-0.0
22/04/2022,12:06:51,27.059885,-0.8969949278980494,23.76416379213333,3.2913055419921875,4.007499694824219,0.023040741682052612,0.4513576328754425,-0.2607240378856659,0.05852533504366875,4.734593391418457,2.1989808082580566,47.64168190161632,-122.14017343165247,125.29054260253906,-3.118043434936257,2.2052186202732686,-51.68267766368938,0.0,0.0,-1.0,0.0,0.0,-1.0,0.27775527623146457,0.2555709616977465,0.004122112285443791,0.10869445800781374,0.0,0.0,-1.0,0.0,0.0,0.0,0.0,0.0,0.0
22/04/2022,12:06:51,27.199883,-0.8946276508504525,23.82347676809877,3.2113723754882812,4.007499694824219,0.020666757598519325,0.40794819593429565,-0.9211328625679016,0.05852533504366875,4.734593391418457,2.1989808082580566,47.64168243381788,-122.14017339147713,125.20863342285156,-2.910772650394717,1.579315553771204,-58.432878353197836,0.0,0.0,-1.0,0.24230741288895835,0.003908184078853219,1.4882600248235525,0.3150014772260633,0.25224788823069333,0.004068514326299066,0.18862762451172,0.0,0.0,-1.0,0.0,0.0,0.0,0.24230741288895835,0.003908184078853219,2.4882600248235525
22/04/2022,12:06:51,27.377884,-0.8922023993218318,23.885637218132615,3.0953140258789062,4.007499694824219,0.013831940479576588,0.28483325242996216,-0.08732020109891891,0.05852533504366875,4.734593391418457,2.1989808082580566,47.641682981821866,-122.14017335084255,125.0953140258789,-2.146822674639528,0.764528835855452,-67.1676891077427,0.0,0.0,-1.0,0.0,0.0,-1.0,0.39339739356405795,0.24882094030400492,0.00401324097264677,0.304685974121095,0.0,0.0,-1.0,0.0,0.0,0.0,0.0,0.0,0.0
22/04/2022,12:06:51,27.551882,-0.8905990876955912,23.92933774087578,3.0726318359375,4.007499694824219,0.01121541392058134,0.2382267564535141,-0.5114061236381531,0.05852533504366875,4.734593391418457,2.1989808082580566,47.64168338124661,-122.14017332259836,125.07112121582031,-1.9094135289991192,0.4139893602742477,-74.73093329823789,0.0,0.0,0.0,0.3756162554292091,0.00605832670046077,2.3435141588906685,0.4098226092105579,0.24651338183811555,0.003976022287709213,0.32736816406250124,0.0,0.0,0.0,0.0,0.0,0.0,0.3756162554292091,0.00605832670046077,2.3435141588906685
22/04/2022,12:06:51,27.726884,-0.8892858243780211,23.96648271009326,3.0007476806640625,4.007499694824219,0.00792850274592638,0.17597921192646027,0.004096172749996185,0.05852533504366875,4.734593391418457,2.1989808082580566,47.64168371364459,-122.14017329976322,125.000732421875,-1.2759355241690093,0.15915088969186403,-79.89086008813317,0.0,0.0,0.0,0.0,0.0,0.0,0.4682391210579221,0.2446015034807103,0.003945185540011664,0.39925231933593874,0.0,0.0,0.0,0.0,0.0,0.0,0.0,0.0,0.0
22/04/2022,12:06:51,27.875883,-0.8885098510654643,23.989811851643026,3.0393829345703125,4.007499694824219,0.0060078916139900684,0.1381233185529709,0.3620341718196869,0.05852533504366875,4.734593391418457,2.1989808082580566,47.64168392242414,-122.1401732860665,125.04046630859375,-1.1049658657477621,0.09584161276928657,-82.28527779433709,0.0,0.0,-5.0,0.0,0.0,-5.0,0.43511811171880127,0.24344955336639207,0.003926605699458463,0.36061706542968874,0.0,0.0,-5.0,0.0,0.0,0.0,0.0,0.0,-0.0
22/04/2022,12:06:52,28.051886,-0.8877988478634506,24.01190655026585,3.0551681518554688,4.007499694824219,0.0050156996585428715,0.11694333702325821,-0.3286815881729126,0.05852533504366875,4.734593391418457,2.1989808082580566,47.64168412054715,-122.14017327337945,125.05419921875,-1.3559617694964408,0.08715147263199916,-83.73794157917057,0.0,0.0,-5.0,0.4538002553771209,0.007319358957686095,-3.0103604498558325,0.4215133978645331,0.24238246165685873,0.003909394542851885,0.3448318481445325,0.0,0.0,-5.0,0.0,0.0,0.0,0.4538002553771209,0.007319358957686095,1.9896395501441675
22/04/2022,12:06:52,28.225881,-0.8871982856653631,24.030825938098133,2.9243545532226562,4.007499694824219,0.004124317318201065,0.09689008444547653,-1.1730026006698608,0.05852533504366875,4.734593391418457,2.1989808082580566,47.641684287547335,-122.14017326279212,124.92435455322266,-1.1434816077751697,0.06716337249170769,-84.12634311982387,0.0,0.0,-5.0,0.22652370686177625,0.00365360817518723,-2.222274678581943,0.5334462428749157,0.24147698359832814,0.0038947900580375006,0.475645446777345,0.0,0.0,-5.0,0.0,0.0,0.0,0.22652370686177625,0.00365360817518723,2.777725321418057
22/04/2022,12:06:52,28.37988,-0.8867811488453299,24.04406122211367,2.7043304443359375,4.007499694824219,0.003540073288604617,0.08342594653367996,-1.841225028038025,0.05852533504366875,4.734593391418457,2.1989808082580566,47.64168440882083,-122.14017325514314,124.69882202148438,-0.8399973660983558,0.058023287767294374,-83.59233247691543,0.0,0.0,-5.0,0.48893497567459754,0.007886047994745954,4.263616194287248,0.7361917386471739,0.24084653846304316,0.003884621588110093,0.6956695556640637,0.0,0.0,-5.0,0.0,0.0,0.0,0.48893497567459754,0.007886047994745954,9.263616194287248
22/04/2022,12:06:52,28.548883,-0.8863881601719186,24.056522990576923,2.422698974609375,4.007499694824219,0.002525457413867116,0.05915674939751625,-1.061018705368042,0.05852533504366875,4.734593391418457,2.1989808082580566,47.64168452024546,-122.14017324811292,124.41947937011719,-0.3742513754405417,0.03371440102787837,-82.43669947901506,0.0,0.0,-5.0,0.33466118640561615,0.0053977610710528754,-1.4383616320203392,1.0064063165032007,0.24025270800652432,0.003875043677521006,0.9773010253906262,0.0,0.0,-5.0,0.09594521650635036,0.0015475034920364797,0.3902863749216742,0.2387159698992658,0.0038502575790163958,3.171351993057987
22/04/2022,12:06:52,28.696883,-0.886144345276989,24.06419446412474,2.3107376098632812,4.007499694824219,0.0020654075779020786,0.04827680066227913,-0.6689647436141968,0.05852533504366875,4.734593391418457,2.1989808082580566,47.641684588952785,-122.14017324375278,124.30873107910156,-0.34285682324177136,0.037890853609717404,-81.2512988271183,0.0,0.0,-5.0,0.33680348398857085,0.005432314257873156,-2.0489183089522878,1.1153709967196217,0.23988525525852078,0.0038691170202937997,1.08926239013672,0.0,0.0,-5.0,0.09264700719851783,0.0014943065677161282,0.42068821775358717,0.24415647679005303,0.003938007690157027,2.5303934732941253
22/04/2022,12:06:52,28.867882,-0.8858961493242532,24.07199051603675,2.1503219604492188,4.007499694824219,0.0017993353540077806,0.042025838047266006,-1.324954867362976,0.05852533504366875,4.734593391418457,2.1989808082580566,47.64168465889772,-122.14017323930804,124.14636993408203,-0.32994873179515927,0.04573827367665372,-79.67400003790513,0.0,0.0,-5.0,0.44504470718070643,0.007178140438397225,1.40803667346802,1.2724291113115154,0.23951141378625518,0.0038630873191287662,1.2496780395507825,0.0,0.0,-5.0,0.08686614282278152,0.0014010668197206933,0.4532339789158787,0.35817856435792494,0.005777073618676532,5.954802694552141
22/04/2022,12:06:53,29.021882,-0.8857191071147099,24.077534094452858,1.972686767578125,4.007499694824219,0.001384918810799718,0.032108552753925323,-0.7795137763023376,0.05852533504366875,4.734593391418457,2.1989808082580566,47.6416847084936,-122.14017323614974,123.9703140258789,-0.23907854050882807,0.03837856108437051,-78.48624003986875,0.0,0.0,-5.0,0.31513418134995425,0.005082809376608053,-1.539357578532091,1.447230505928136,0.23924502832064187,0.003858790779361243,1.4273132324218762,0.0,0.0,-5.0,0.07986401710503915,0.0012881293081444746,0.476461179605438,0.2352701642449151,0.0037946800684635776,2.9841812418624714
22/04/2022,12:06:53,29.195885,-0.8855588658479974,24.082501168362796,1.8656082153320312,4.007499694824219,0.001075252308510244,0.02482486516237259,-0.6289469599723816,0.05852533504366875,4.734593391418457,2.1989808082580566,47.641684752956635,-122.14017323329595,123.86372375488281,-0.19960702008272346,0.03463811559578833,-77.71080284880823,0.0,0.0,0.0,0.3079194829955704,0.004966443274121249,3.233568566510473,1.5528993118692092,0.2390047354697551,0.0038549150882225547,1.53439178466797,0.0,0.0,0.0,0.0755787978080798,0.0012190128678724757,0.4852099947888872,0.23234068518749063,0.0037474304062487737,2.748358571721586
22/04/2022,12:06:53,29.370887,-0.8854403017321602,24.086147177033126,1.8136672973632812,4.007499694824219,0.0007700862479396164,0.01764701120555401,0.24744448065757751,0.05852533504366875,4.734593391418457,2.1989808082580566,47.64168478556459,-122.1401732311914,123.81437683105469,-0.1227193623607552,0.02198300279655565,-77.33993048065444,0.0,0.0,-2.0,0.5304002803181106,0.00855484323092663,0.5948700298872112,1.604214703204112,0.238827410892684,0.003852055014395006,1.58633270263672,0.0,0.0,-2.0,0.07351448570622217,0.001185717511389719,0.4882958466007149,0.45688579461188844,0.007369125719536911,2.1065741832864964
22/04/2022,12:06:53,29.518883,-0.8853656151331961,24.08843734115362,1.8735504150390625,4.007499694824219,0.0006333643104881048,0.014520308934152126,0.3862536549568176,0.05852533504366875,4.734593391418457,2.1989808082580566,47.64168480606996,-122.1401732298639,123.87471771240234,-0.10947574618335501,0.018351262864694795,-77.961481907826,0.0,0.0,-2.0,0.07579859508831453,0.0012225579852943847,-1.5153118199596158,1.5450075728990174,0.2387158151938833,0.0038502550837691274,1.5264495849609387,0.0,0.0,-2.0,0.07579859508831453,0.0012225579852943847,0.48468818004038405,0.0,0.0,0.0
22/04/2022,12:06:53,29.659884,-0.8853017761139199,24.090395787730813,1.900787353515625,4.007499694824219,0.0005606454215012491,0.012866497039794922,-0.14921316504478455,0.05852533504366875,4.734593391418457,2.1989808082580566,47.641684823631095,-122.14017322872856,123.90036010742188,-0.10427927235179227,0.011877396938397731,-80.97738942915365,0.0,0.0,-2.0,0.4032921871180213,0.006504712695449063,0.9580311602452247,1.5180886250695842,0.23862041314501892,0.003848716341046554,1.4992126464843762,0.0,0.0,-2.0,0.07683319861510582,0.0012392451389526314,0.4827302975274269,0.32645898850291544,0.005265467556496432,2.475300862717798
22/04/2022,12:06:53,29.800884,-0.8852485022507608,24.092034100554883,1.885955810546875,4.007499694824219,0.0004354660341050476,0.01007465273141861,0.12705665826797485,0.05852533504366875,4.734593391418457,2.1989808082580566,47.64168483830013,-122.14017322778233,123.8863296508789,-0.08744955315034524,0.002570969258868287,-85.69417629990785,0.0,0.0,-2.0,0.5047871428018817,0.00814172810970093,0.7588052986098575,1.5327251198074492,0.23854073560923839,0.003847431219501374,1.5140441894531262,0.0,0.0,-2.0,0.0762280166694586,0.0012294841398291876,0.48382757526576536,0.42855912613242314,0.006912243969871743,2.274977723344092
22/04/2022,12:06:53,29.943882,-0.8852062090300024,24.09336096700281,1.910858154296875,4.007499694824219,0.00033979921136051416,0.008011514320969582,0.17798902094364166,0.05852533504366875,4.734593391418457,2.1989808082580566,47.64168484995979,-122.14017322704095,123.91085815429688,-0.07028575894981665,-0.005087991225478214,-91.45896039006634,0.0,0.0,0.0,0.5288135216222198,0.008529250348741193,2.6364298743214594,1.5081211949260687,0.23847705788222495,0.003846404159389749,1.4891418457031262,0.0,0.0,0.0,0.07718243965574909,0.001244878058963379,0.481956636271464,0.4516310819664707,0.007284372289777814,2.154473238049995
22/04/2022,12:06:54,30.089881,-0.8851754738716409,24.09435900207609,1.9602584838867188,4.007499694824219,0.0002460189862176776,0.006053089164197445,0.6671280860900879,0.05852533504366875,4.734593391418457,2.1989808082580566,47.64168485910513,-122.14017322647479,123.96224212646484,-0.0492920039734755,-0.007890238438154158,-96.32697256340597,0.0,0.0,-2.0,0.07910836221254071,0.0012759413260095517,-1.5223106158315431,1.4593558169347227,0.23843023756407544,0.003845648992971462,1.4397415161132825,0.0,0.0,-2.0,0.07910836221254071,0.0012759413260095517,0.47768938416845685,0.0,0.0,0.0
22/04/2022,12:06:54,30.240883,-0.8851515086134896,24.095181750133634,2.0518264770507812,4.007499694824219,0.0002047238958766684,0.005164824891835451,0.2775128185749054,0.05852533504366875,4.734593391418457,2.1989808082580566,47.64168486647872,-122.1401732260361,124.05268096923828,-0.04401803281817367,-0.009306682470814715,-99.41682697805764,0.0,0.0,-5.0,0.08268958615401313,0.0013337030024838778,-4.532369217509175,1.3690938099646774,0.2383930118600699,0.003845048578387633,1.34817352294922,0.0,0.0,-5.0,0.08268958615401313,0.0013337030024838778,0.4676307824908246,0.0,0.0,0.0
22/04/2022,12:06:54,30.418883,-0.8851272920146585,24.096034907735884,2.0275497436523438,4.007499694824219,0.00017471903993282467,0.004452258814126253,-0.5795788764953613,0.05852533504366875,4.734593391418457,2.1989808082580566,47.64168487412589,-122.14017322558897,124.02583312988281,-0.04716662910363732,-0.01147322106080885,-101.31352569202228,0.0,0.0,-4.0,0.3230683397738048,0.005210779673763367,-0.9607809841481165,1.392999502186635,0.23835504453178746,0.0038444362021188283,1.3724502563476575,0.0,0.0,-4.0,0.0817277630960451,0.0013181897273532427,0.47058911478976007,0.24134057667775966,0.003892589946410124,2.568629901062123
22/04/2022,12:06:54,30.594883,-0.885108450660482,24.096709898672998,1.9248504638671875,4.007499694824219,0.00011989325867034495,0.003132918616756797,-0.45263731479644775,0.05852533504366875,4.734593391418457,2.1989808082580566,47.641684880157655,-122.14017322524094,123.92349243164062,-0.03075155714212281,-0.007582366501205841,-101.56404499493556,0.0,0.0,-4.0,0.3293849299984899,0.005312660161262459,-1.0015382158412436,1.4942823996812127,0.2383253239586911,0.0038439568380397304,1.4751495361328137,0.0,0.0,-4.0,0.0776829223623123,0.0012529503606812586,0.48082983790706574,0.2517020076361776,0.004059709800581201,2.5176319462516905
22/04/2022,12:06:54,30.774885,-0.8850947631290182,24.09721106942743,1.7988967895507812,4.007499694824219,9.953801054507494e-05,0.002609028946608305,-1.1194201707839966,0.05852533504366875,4.734593391418457,2.1989808082580566,47.64168488458702,-122.14017322498896,123.79889678955078,-0.022195484730164472,-0.00457591913274481,-99.51278187143507,0.0,0.0,-4.0,0.42246490438926726,0.006813950070793632,2.130289588213178,1.6187448377989038,0.2383035586901029,0.003843605785320392,1.60110321044922,0.0,0.0,-4.0,0.07279168219189862,0.0011740593901907377,0.4890694737924976,0.3496732221973686,0.005639890680602895,5.641220114420681
22/04/2022,12:06:54,30.91988,-0.8850855674827471,24.097544216550887,1.6564254760742188,4.007499694824219,7.686627941438928e-05,0.001986017683520913,-0.5713653564453125,0.05852533504366875,4.734593391418457,2.1989808082580566,47.64168488763548,-122.14017322481375,123.6546859741211,-0.01453721379710629,-0.0021960205540320103,-96.59314114918003,0.0,0.0,-4.0,0.30260219714563785,0.004880680599121176,-0.6558674197685641,1.7597865030742041,0.23828899349220412,0.003843370862778528,1.7435745239257825,0.0,0.0,-4.0,0.06751626174511792,0.0010889719636312295,0.49402044217096336,0.23508593540051992,0.003791708635489947,2.8501121380604726
