date,fly_time,fly_time_s,x,y,z,z_max,vx,vy,vz,vx_max,vy_max,vz_max,latitude,longitude,altitude,pitch,roll,yaw,cx,cy,cz,scx,scy,scz,d,dx,dy,dz,gc_pow_x,gc_pow_y,gc_pow_z,gpc_pow_x,gpc_pow_y,gpc_pow_z,gfc_pow_x,gfc_pow_y,gfc_pow_z
21/04/2022,17:49:30,23.450996,0.0,0.0,0.13928985595703125,0.13928985595703125,0.0,0.0,-0.0,0,0,0,47.641468,-122.140165,122.13928985595703,0.0,0.0,0.0,0.0,0.0,0.0,-0.3337781049294127,-0.005383517821442235,4.218467534533941,3.2709036392802715,-0.25799739921976594,-0.004161248374512427,3.26071014404297,0.0,0.0,0.0,-0.05562968415490211,-0.0008972529702403725,0.7030779224223235,-0.2781484207745106,-0.004486264851201863,3.5153896121116173
21/04/2022,17:49:30,23.633012,0.0,0.0,0.13928985595703125,0.13928985595703125,0.0,0.0,-0.0,0,0,0,47.641468,-122.140165,122.13928985595703,0.0,0.0,0.0,0.0,0.0,0.0,-0.3337781049294127,-0.005383517821442235,4.218467534533941,3.2709036392802715,-0.25799739921976594,-0.004161248374512427,3.26071014404297,0.0,0.0,0.0,-0.05562968415490211,-0.0008972529702403725,0.7030779224223235,-0.2781484207745106,-0.004486264851201863,3.5153896121116173
21/04/2022,17:49:31,23.792032,0.0,0.0,0.13928985595703125,0.13928985595703125,0.0,0.0,-0.0,0,0,0,47.641468,-122.140165,122.13928985595703,0.0,0.0,0.0,0.0,0.0,0.0,-0.3337781049294127,-0.005383517821442235,4.218467534533941,3.2709036392802715,-0.25799739921976594,-0.004161248374512427,3.26071014404297,0.0,0.0,0.0,-0.05562968415490211,-0.0008972529702403725,0.7030779224223235,-0.2781484207745106,-0.004486264851201863,3.5153896121116173
21/04/2022,17:49:31,23.966998,0.0,0.0,0.13928985595703125,0.13928985595703125,0.0,0.0,-0.0,0,0,0,47.641468,-122.140165,122.13928985595703,0.0,0.0,0.0,0.0,0.0,0.0,-0.3337781049294127,-0.005383517821442235,4.218467534533941,3.2709036392802715,-0.25799739921976594,-0.004161248374512427,3.26071014404297,0.0,0.0,0.0,-0.05562968415490211,-0.0008972529702403725,0.7030779224223235,-0.2781484207745106,-0.004486264851201863,3.5153896121116173
21/04/2022,17:49:31,24.127999,0.0,0.0,0.13928985595703125,0.13928985595703125,0.0,0.0,-0.0,0,0,0,47.641468,-122.140165,122.13928985595703,0.0,0.0,0.0,0.0,0.0,0.0,-0.3337781049294127,-0.005383517821442235,4.218467534533941,3.2709036392802715,-0.25799739921976594,-0.004161248374512427,3.26071014404297,0.0,0.0,0.0,-0.05562968415490211,-0.0008972529702403725,0.7030779224223235,-0.2781484207745106,-0.004486264851201863,3.5153896121116173
21/04/2022,17:49:31,24.317031,0.0,0.0,0.13928985595703125,0.13928985595703125,0.0,0.0,-0.0,0,0,0,47.641468,-122.140165,122.13928985595703,0.0,0.0,0.0,0.0,0.0,0.0,-0.3337781049294127,-0.005383517821442235,4.218467534533941,3.2709036392802715,-0.25799739921976594,-0.004161248374512427,3.26071014404297,0.0,0.0,0.0,-0.05562968415490211,-0.0008972529702403725,0.7030779224223235,-0.2781484207745106,-0.004486264851201863,3.5153896121116173
21/04/2022,17:49:31,24.508003,0.0,0.0,0.13928985595703125,0.13928985595703125,0.0,0.0,-0.0,0,0,0,47.641468,-122.140165,122.13928985595703,0.0,0.0,0.0,0.0,0.0,0.0,-0.3337781049294127,-0.005383517821442235,4.218467534533941,3.2709036392802715,-0.25799739921976594,-0.004161248374512427,3.26071014404297,0.0,0.0,0.0,-0.05562968415490211,-0.0008972529702403725,0.7030779224223235,-0.2781484207745106,-0.004486264851201863,3.5153896121116173
21/04/2022,17:49:32,24.697996,0.0,0.0,0.13928985595703125,0.13928985595703125,0.0,0.0,-0.0,0,0,0,47.641468,-122.140165,122.13928985595703,0.0,0.0,0.0,0.0,0.0,0.0,-0.3337781049294127,-0.005383517821442235,4.218467534533941,3.2709036392802715,-0.25799739921976594,-0.004161248374512427,3.26071014404297,0.0,0.0,0.0,-0.05562968415490211,-0.0008972529702403725,0.7030779224223235,-0.2781484207745106,-0.004486264851201863,3.5153896121116173
21/04/2022,17:49:32,24.882001,0.0,0.0,0.13928985595703125,0.13928985595703125,0.0,0.0,-0.0,0,0,0,47.641468,-122.140165,122.13928985595703,0.0,0.0,0.0,0.0,0.0,0.0,-0.3337781049294127,-0.005383517821442235,4.218467534533941,3.2709036392802715,-0.25799739921976594,-0.004161248374512427,3.26071014404297,0.0,0.0,0.0,-0.05562968415490211,-0.0008972529702403725,0.7030779224223235,-0.2781484207745106,-0.004486264851201863,3.5153896121116173
21/04/2022,17:49:32,25.036997,0.0,0.0,0.13928985595703125,0.13928985595703125,0.0,0.0,-0.0,0,0,0,47.641468,-122.140165,122.13928985595703,0.0,0.0,0.0,0.0,0.0,0.0,-0.3337781049294127,-0.005383517821442235,4.218467534533941,3.2709036392802715,-0.25799739921976594,-0.004161248374512427,3.26071014404297,0.0,0.0,0.0,-0.05562968415490211,-0.0008972529702403725,0.7030779224223235,-0.2781484207745106,-0.004486264851201863,3.5153896121116173
21/04/2022,17:49:32,25.224996,0.0,0.0,0.13928985595703125,0.13928985595703125,0.0,0.0,-0.0,0,0,0,47.641468,-122.140165,122.13928985595703,0.0,0.0,0.0,0.0,0.0,0.0,-0.3337781049294127,-0.005383517821442235,4.218467534533941,3.2709036392802715,-0.25799739921976594,-0.004161248374512427,3.26071014404297,0.0,0.0,0.0,-0.05562968415490211,-0.0008972529702403725,0.7030779224223235,-0.2781484207745106,-0.004486264851201863,3.5153896121116173
21/04/2022,17:49:32,25.419998,0.0,0.0,0.13928985595703125,0.13928985595703125,0.0,0.0,-0.0,0,0,0,47.641468,-122.140165,122.13928985595703,0.0,0.0,0.0,0.0,0.0,0.0,-0.3337781049294127,-0.005383517821442235,4.218467534533941,3.2709036392802715,-0.25799739921976594,-0.004161248374512427,3.26071014404297,0.0,0.0,0.0,-0.05562968415490211,-0.0008972529702403725,0.7030779224223235,-0.2781484207745106,-0.004486264851201863,3.5153896121116173
21/04/2022,17:49:32,25.613997,0.0,0.0,0.13928985595703125,0.13928985595703125,0.0,0.0,-0.0,0,0,0,47.641468,-122.140165,122.13928985595703,0.0,0.0,0.0,0.0,0.0,0.0,-0.3337781049294127,-0.005383517821442235,4.218467534533941,3.2709036392802715,-0.25799739921976594,-0.004161248374512427,3.26071014404297,0.0,0.0,0.0,-0.05562968415490211,-0.0008972529702403725,0.7030779224223235,-0.2781484207745106,-0.004486264851201863,3.5153896121116173
21/04/2022,17:49:33,25.802996,0.0,0.0,0.13928985595703125,0.13928985595703125,0.0,0.0,-0.0,0,0,0,47.641468,-122.140165,122.13928985595703,0.0,0.0,0.0,0.0,0.0,0.0,-0.3337781049294127,-0.005383517821442235,4.218467534533941,3.2709036392802715,-0.25799739921976594,-0.004161248374512427,3.26071014404297,0.0,0.0,0.0,-0.05562968415490211,-0.0008972529702403725,0.7030779224223235,-0.2781484207745106,-0.004486264851201863,3.5153896121116173
21/04/2022,17:49:33,25.991994,0.0,0.0,0.13928985595703125,0.13928985595703125,0.0,0.0,-0.0,0,0,0,47.641468,-122.140165,122.13928985595703,0.0,0.0,0.0,0.0,0.0,0.0,-0.3337781049294127,-0.005383517821442235,4.218467534533941,3.2709036392802715,-0.25799739921976594,-0.004161248374512427,3.26071014404297,0.0,0.0,0.0,-0.05562968415490211,-0.0008972529702403725,0.7030779224223235,-0.2781484207745106,-0.004486264851201863,3.5153896121116173
21/04/2022,17:49:33,26.173998,0.0,0.0,0.13928985595703125,0.13928985595703125,0.0,0.0,-0.0,0,0,0,47.641468,-122.140165,122.13928985595703,0.0,0.0,0.0,0.0,0.0,0.0,-0.3337781049294127,-0.005383517821442235,4.218467534533941,3.2709036392802715,-0.25799739921976594,-0.004161248374512427,3.26071014404297,0.0,0.0,0.0,-0.05562968415490211,-0.0008972529702403725,0.7030779224223235,-0.2781484207745106,-0.004486264851201863,3.5153896121116173
21/04/2022,17:49:33,26.373034,0.0,0.0,0.13928985595703125,0.13928985595703125,0.0,0.0,-0.0,0,0,0,47.641468,-122.140165,122.13928985595703,0.0,0.0,0.0,0.0,0.0,0.0,-0.3337781049294127,-0.005383517821442235,4.218467534533941,3.2709036392802715,-0.25799739921976594,-0.004161248374512427,3.26071014404297,0.0,0.0,0.0,-0.05562968415490211,-0.0008972529702403725,0.7030779224223235,-0.2781484207745106,-0.004486264851201863,3.5153896121116173
21/04/2022,17:49:33,26.561072,0.0,0.0,0.13928985595703125,0.13928985595703125,0.0,0.0,-0.0,0,0,0,47.641468,-122.140165,122.13928985595703,0.0,0.0,0.0,0.0,0.0,0.0,-0.3337781049294127,-0.005383517821442235,4.218467534533941,3.2709036392802715,-0.25799739921976594,-0.004161248374512427,3.26071014404297,0.0,0.0,0.0,-0.05562968415490211,-0.0008972529702403725,0.7030779224223235,-0.2781484207745106,-0.004486264851201863,3.5153896121116173
21/04/2022,17:49:34,26.744038,0.0,0.0,0.13928985595703125,0.13928985595703125,0.0,0.0,-0.0,0,0,0,47.641468,-122.140165,122.13928985595703,0.0,0.0,0.0,0.0,0.0,0.0,-0.3337781049294127,-0.005383517821442235,4.218467534533941,3.2709036392802715,-0.25799739921976594,-0.004161248374512427,3.26071014404297,0.0,0.0,0.0,-0.05562968415490211,-0.0008972529702403725,0.7030779224223235,-0.2781484207745106,-0.004486264851201863,3.5153896121116173
21/04/2022,17:49:34,26.934068,0.0,0.0,0.13928985595703125,0.13928985595703125,0.0,0.0,-0.0,0,0,0,47.641468,-122.140165,122.13928985595703,0.0,0.0,0.0,0.0,0.0,0.0,-0.3337781049294127,-0.005383517821442235,4.218467534533941,3.2709036392802715,-0.25799739921976594,-0.004161248374512427,3.26071014404297,0.0,0.0,0.0,-0.05562968415490211,-0.0008972529702403725,0.7030779224223235,-0.2781484207745106,-0.004486264851201863,3.5153896121116173
21/04/2022,17:49:34,27.116036,0.0,0.0,0.13928985595703125,0.13928985595703125,0.0,0.0,-0.0,0,0,0,47.641468,-122.140165,122.13928985595703,0.0,0.0,0.0,0.0,0.0,0.0,-0.3337781049294127,-0.005383517821442235,4.218467534533941,3.2709036392802715,-0.25799739921976594,-0.004161248374512427,3.26071014404297,0.0,0.0,0.0,-0.05562968415490211,-0.0008972529702403725,0.7030779224223235,-0.2781484207745106,-0.004486264851201863,3.5153896121116173
21/04/2022,17:49:34,27.308034,0.0,0.0,0.13928985595703125,0.13928985595703125,0.0,0.0,-0.0,0,0,0,47.641468,-122.140165,122.13928985595703,0.0,0.0,0.0,0.0,0.0,0.0,-0.3337781049294127,-0.005383517821442235,4.218467534533941,3.2709036392802715,-0.25799739921976594,-0.004161248374512427,3.26071014404297,0.0,0.0,0.0,-0.05562968415490211,-0.0008972529702403725,0.7030779224223235,-0.2781484207745106,-0.004486264851201863,3.5153896121116173
21/04/2022,17:49:34,27.497048,0.0,0.0,0.13928985595703125,0.13928985595703125,0.0,0.0,-0.0,0,0,0,47.641468,-122.140165,122.13928985595703,0.0,0.0,0.0,0.0,0.0,1.0,-0.3337781049294127,-0.005383517821442235,5.218467534533941,3.2709036392802715,-0.25799739921976594,-0.004161248374512427,3.26071014404297,0.0,0.0,1.0,-0.05562968415490211,-0.0008972529702403725,0.7030779224223235,-0.2781484207745106,-0.004486264851201863,3.5153896121116173
21/04/2022,17:49:35,27.686073,0.0,0.0,0.13928985595703125,0.13928985595703125,0.0,0.0,-0.0,0,0,0,47.641468,-122.140165,122.13928985595703,0.0,0.0,0.0,0.0,0.0,3.0,-0.3337781049294127,-0.005383517821442235,7.218467534533941,3.2709036392802715,-0.25799739921976594,-0.004161248374512427,3.26071014404297,0.0,0.0,3.0,-0.05562968415490211,-0.0008972529702403725,0.7030779224223235,-0.2781484207745106,-0.004486264851201863,3.5153896121116173
21/04/2022,17:49:35,27.872034,0.0,0.0,0.13928985595703125,0.13928985595703125,0.0,0.0,-0.0,0,0,0,47.641468,-122.140165,122.13928985595703,0.0,0.0,0.0,0.0,0.0,5.0,-0.3337781049294127,-0.005383517821442235,9.218467534533941,3.2709036392802715,-0.25799739921976594,-0.004161248374512427,3.26071014404297,0.0,0.0,5.0,-0.05562968415490211,-0.0008972529702403725,0.7030779224223235,-0.2781484207745106,-0.004486264851201863,3.5153896121116173
21/04/2022,17:49:35,28.064037,0.0,0.0,0.13928985595703125,0.13928985595703125,0.0,0.0,-0.0,0,0,0,47.641468,-122.140165,122.13928985595703,0.0,0.0,0.0,0.0,0.0,2.0,-0.3337781049294127,-0.005383517821442235,6.218467534533941,3.2709036392802715,-0.25799739921976594,-0.004161248374512427,3.26071014404297,0.0,0.0,2.0,-0.05562968415490211,-0.0008972529702403725,0.7030779224223235,-0.2781484207745106,-0.004486264851201863,3.5153896121116173
21/04/2022,17:49:35,28.248034,0.0,0.0,0.13928985595703125,0.13928985595703125,0.0,0.0,-0.0,0,0,0,47.641468,-122.140165,122.13928985595703,0.0,0.0,0.0,0.0,0.0,4.0,-0.3337781049294127,-0.005383517821442235,8.218467534533941,3.2709036392802715,-0.25799739921976594,-0.004161248374512427,3.26071014404297,0.0,0.0,4.0,-0.05562968415490211,-0.0008972529702403725,0.7030779224223235,-0.2781484207745106,-0.004486264851201863,3.5153896121116173
21/04/2022,17:49:35,28.434033,0.0,0.0,0.13928985595703125,0.13928985595703125,0.0,0.0,-0.0,0,0,0,47.641468,-122.140165,122.13928985595703,0.0,0.0,0.0,0.0,0.0,4.0,-0.3337781049294127,-0.005383517821442235,8.218467534533941,3.2709036392802715,-0.25799739921976594,-0.004161248374512427,3.26071014404297,0.0,0.0,4.0,-0.05562968415490211,-0.0008972529702403725,0.7030779224223235,-0.2781484207745106,-0.004486264851201863,3.5153896121116173
21/04/2022,17:49:35,28.625034,0.0,0.0,0.13928985595703125,0.13928985595703125,0.0,0.0,-0.0,0,0,0,47.641468,-122.140165,122.13928985595703,0.0,0.0,0.0,0.0,0.0,2.0,-0.3337781049294127,-0.005383517821442235,6.218467534533941,3.2709036392802715,-0.25799739921976594,-0.004161248374512427,3.26071014404297,0.0,0.0,2.0,-0.05562968415490211,-0.0008972529702403725,0.7030779224223235,-0.2781484207745106,-0.004486264851201863,3.5153896121116173
21/04/2022,17:49:36,28.80704,0.0,0.0,0.13928985595703125,0.13928985595703125,0.0,0.0,-0.0,0,0,0,47.641468,-122.140165,122.13928985595703,0.0,0.0,0.0,0.0,0.0,0.0,-0.3337781049294127,-0.005383517821442235,4.218467534533941,3.2709036392802715,-0.25799739921976594,-0.004161248374512427,3.26071014404297,0.0,0.0,0.0,-0.05562968415490211,-0.0008972529702403725,0.7030779224223235,-0.2781484207745106,-0.004486264851201863,3.5153896121116173
21/04/2022,17:49:36,28.967033,0.0,0.0,0.13928985595703125,0.13928985595703125,0.0,0.0,-0.0,0,0,0,47.641468,-122.140165,122.13928985595703,0.0,0.0,0.0,0.0,0.0,2.0,-0.3337781049294127,-0.005383517821442235,6.218467534533941,3.2709036392802715,-0.25799739921976594,-0.004161248374512427,3.26071014404297,0.0,0.0,2.0,-0.05562968415490211,-0.0008972529702403725,0.7030779224223235,-0.2781484207745106,-0.004486264851201863,3.5153896121116173
21/04/2022,17:49:36,29.122036,0.0,0.0,0.13928985595703125,0.13928985595703125,0.0,0.0,-0.0,0,0,0,47.641468,-122.140165,122.13928985595703,0.0,0.0,0.0,0.0,0.0,5.0,-0.3337781049294127,-0.005383517821442235,9.218467534533941,3.2709036392802715,-0.25799739921976594,-0.004161248374512427,3.26071014404297,0.0,0.0,5.0,-0.05562968415490211,-0.0008972529702403725,0.7030779224223235,-0.2781484207745106,-0.004486264851201863,3.5153896121116173
21/04/2022,17:49:36,29.310072,0.0,0.0,0.13928985595703125,0.13928985595703125,0.0,0.0,-0.0,0,0,0,47.641468,-122.140165,122.13928985595703,0.0,0.0,0.0,0.0,0.0,3.0,-0.3337781049294127,-0.005383517821442235,7.218467534533941,3.2709036392802715,-0.25799739921976594,-0.004161248374512427,3.26071014404297,0.0,0.0,3.0,-0.05562968415490211,-0.0008972529702403725,0.7030779224223235,-0.2781484207745106,-0.004486264851201863,3.5153896121116173
21/04/2022,17:49:36,29.503032,0.0,0.0,0.13928985595703125,0.13928985595703125,0.0,0.0,-0.0,0,0,0,47.641468,-122.140165,122.13928985595703,0.0,0.0,0.0,0.0,0.0,0.0,-0.3337781049294127,-0.005383517821442235,4.218467534533941,3.2709036392802715,-0.25799739921976594,-0.004161248374512427,3.26071014404297,0.0,0.0,0.0,-0.05562968415490211,-0.0008972529702403725,0.7030779224223235,-0.2781484207745106,-0.004486264851201863,3.5153896121116173
21/04/2022,17:49:37,29.697038,0.0,0.0,0.13928985595703125,0.13928985595703125,0.0,0.0,-0.0,0,0,0,47.641468,-122.140165,122.13928985595703,0.0,0.0,0.0,0.0,0.0,4.0,-0.3337781049294127,-0.005383517821442235,8.218467534533941,3.2709036392802715,-0.25799739921976594,-0.004161248374512427,3.26071014404297,0.0,0.0,4.0,-0.05562968415490211,-0.0008972529702403725,0.7030779224223235,-0.2781484207745106,-0.004486264851201863,3.5153896121116173
21/04/2022,17:49:37,29.875038,0.0,0.0,0.13928985595703125,0.13928985595703125,0.0,0.0,-0.0,0,0,0,47.641468,-122.140165,122.13928985595703,0.0,0.0,0.0,0.0,0.0,1.0,-0.3337781049294127,-0.005383517821442235,5.218467534533941,3.2709036392802715,-0.25799739921976594,-0.004161248374512427,3.26071014404297,0.0,0.0,1.0,-0.05562968415490211,-0.0008972529702403725,0.7030779224223235,-0.2781484207745106,-0.004486264851201863,3.5153896121116173
21/04/2022,17:49:37,30.058035,0.0,0.0,0.13928985595703125,0.13928985595703125,0.0,0.0,-0.0,0,0,0,47.641468,-122.140165,122.13928985595703,0.0,0.0,0.0,0.0,0.0,0.0,-0.3337781049294127,-0.005383517821442235,4.218467534533941,3.2709036392802715,-0.25799739921976594,-0.004161248374512427,3.26071014404297,0.0,0.0,0.0,-0.05562968415490211,-0.0008972529702403725,0.7030779224223235,-0.2781484207745106,-0.004486264851201863,3.5153896121116173
21/04/2022,17:49:37,30.216068,0.0,0.0,0.13928985595703125,0.13928985595703125,0.0,0.0,-0.0,0,0,0,47.641468,-122.140165,122.13928985595703,0.0,0.0,0.0,0.0,0.0,0.0,-0.3337781049294127,-0.005383517821442235,4.218467534533941,3.2709036392802715,-0.25799739921976594,-0.004161248374512427,3.26071014404297,0.0,0.0,0.0,-0.05562968415490211,-0.0008972529702403725,0.7030779224223235,-0.2781484207745106,-0.004486264851201863,3.5153896121116173
21/04/2022,17:49:37,30.400036,0.0,0.0,0.13928985595703125,0.13928985595703125,0.0,0.0,-0.0,0,0,0,47.641468,-122.140165,122.13928985595703,0.0,0.0,0.0,0.0,0.0,0.0,-0.3337781049294127,-0.005383517821442235,4.218467534533941,3.2709036392802715,-0.25799739921976594,-0.004161248374512427,3.26071014404297,0.0,0.0,0.0,-0.05562968415490211,-0.0008972529702403725,0.7030779224223235,-0.2781484207745106,-0.004486264851201863,3.5153896121116173
21/04/2022,17:49:37,30.612034,0.0,0.0,0.13928985595703125,0.13928985595703125,0.0,0.0,-0.0,0,0,0,47.641468,-122.140165,122.13928985595703,0.0,0.0,0.0,0.0,0.0,0.0,-0.3337781049294127,-0.005383517821442235,4.218467534533941,3.2709036392802715,-0.25799739921976594,-0.004161248374512427,3.26071014404297,0.0,0.0,0.0,-0.05562968415490211,-0.0008972529702403725,0.7030779224223235,-0.2781484207745106,-0.004486264851201863,3.5153896121116173
21/04/2022,17:49:41,34.19707,0.0,0.0,1.6791763305664062,1.6791763305664062,0.0,0.0,-0.017811832949519157,0,0,0,47.641468,-122.140165,123.67912292480469,0.0,0.0,0.0,0.0,0.0,0.0,-0.43636514832740514,-0.00703814755366795,2.960575324741205,1.740061514796273,-0.25799739921976594,-0.004161248374512427,1.720823669433595,0.0,0.0,0.0,-0.07387414988995589,-0.0011915185466122129,0.4927351441307937,-0.36249099843744925,-0.005846629007055737,2.4678401806104113
21/04/2022,17:49:41,34.393073,0.0,0.0,1.74725341796875,1.74725341796875,0.0,0.0,0.9781990051269531,0,0,0.9781990051269531,47.641468,-122.140165,123.75016021728516,0.0,0.0,0.0,0.0,0.0,0.0,-0.07657648972264196,-0.00123510467294586,0.49055351734472635,1.672767538664049,-0.25799739921976594,-0.004161248374512427,1.6527465820312512,0.0,0.0,0.0,-0.07657648972264196,-0.00123510467294586,0.49055351734472635,-0.0,-0.0,-0.0
21/04/2022,17:49:41,34.58007,0.0,0.0,1.9192428588867188,1.9192428588867188,0.0,0.0,0.4807440936565399,0,0,0.9781990051269531,47.641468,-122.140165,123.92070770263672,0.0,0.0,0.0,0.0,0.0,0.0,-0.08371714122240266,-0.0013502764713290989,0.4804883889277771,1.5030707518111643,-0.25799739921976594,-0.004161248374512427,1.4807571411132825,0.0,0.0,0.0,-0.08371714122240266,-0.0013502764713290989,0.4804883889277771,-0.0,-0.0,0.0
21/04/2022,17:49:42,34.743071,0.0,0.0,1.9539718627929688,1.9539718627929688,0.0,0.0,0.0834425836801529,0,0,0.9781990051269531,47.641468,-122.140165,123.9542236328125,0.0,0.0,0.0,0.0,0.0,0.0,-0.5462730955801919,-0.008810856380325832,2.7635098261142637,1.4688694113455552,-0.25799739921976594,-0.004161248374512427,1.4460281372070325,0.0,0.0,0.0,-0.08519006363963881,-0.0013740332845103278,0.4774746931787587,-0.4610830319405531,-0.0074368230958155035,2.286035132935505
21/04/2022,17:49:42,34.930076,0.0,0.0,2.0440139770507812,2.0440139770507812,0.0,0.0,1.0953788757324219,0,0,1.0953788757324219,47.641468,-122.140165,124.04727172851562,0.0,0.0,0.0,0.0,0.0,0.0,-0.0890080035112412,-0.0014356129598587543,0.46780940062519616,1.3803181040708843,-0.25799739921976594,-0.004161248374512427,1.35598602294922,0.0,0.0,0.0,-0.0890080035112412,-0.0014356129598587543,0.46780940062519616,-0.0,-0.0,-0.0
21/04/2022,17:49:42,35.123075,0.0,0.0,2.2375717163085938,2.2375717163085938,0.0,0.0,0.5923416018486023,0,0,1.0953788757324219,47.641468,-122.140165,124.23937225341797,0.0,0.0,0.0,0.0,0.0,0.0,-0.09685239704634009,-0.0015621354362313194,0.4363763588720334,1.1907222550695646,-0.25799739921976594,-0.004161248374512427,1.1624282836914075,0.0,0.0,0.0,-0.09685239704634009,-0.0015621354362313194,0.4363763588720334,-0.0,-0.0,-0.0
21/04/2022,17:49:42,35.285068,0.0,0.0,2.2854766845703125,2.2854766845703125,0.0,0.0,0.1395174115896225,0,0,1.0953788757324219,47.641468,-122.140165,124.28589630126953,0.0,0.0,0.0,0.0,1.0,0.0,-0.09861575286243378,0.9984094233409284,0.4260103247793284,1.1440027074393588,-0.25799739921976594,-0.004161248374512427,1.1145233154296887,0.0,1.0,0.0,-0.09861575286243378,-0.0015905766590715408,0.4260103247793284,-0.0,-0.0,0.0
21/04/2022,17:49:42,35.472067,0.0,0.0,2.30621337890625,2.30621337890625,0.0,0.0,0.09467670321464539,0,0,1.0953788757324219,47.641468,-122.140165,124.3064956665039,0.0,0.0,0.0,0.0,2.0,0.0,-0.09934443676548334,1.9983976703747501,0.42117329919911445,1.1238101024976965,-0.25799739921976594,-0.004161248374512427,1.0937866210937512,0.0,2.0,0.0,-0.09934443676548334,-0.0016023296252497595,0.42117329919911445,-0.0,-0.0,0.0
21/04/2022,17:49:42,35.665069,-3.448117058724165e-05,0.0031091831624507904,2.3254241943359375,2.3254241943359375,-3.2097915905054952e-12,0.06269678473472595,0.12577643990516663,0,0.06269678473472595,1.0953788757324219,47.641468029636634,-122.140165,124.32579803466797,2.0862388582676577e-10,-4.121019939955789,-1.0110965323403182e-08,-3.529392708967176e-10,2.0,0.0,-0.10000396038511321,1.998387032902707,0.41649765733044364,1.105124979546772,-0.258013062090074,-0.00416150100145285,1.0745758056640637,-3.529392708967176e-10,2.0,0.0,-0.10000396003217393,-0.0016129670972931446,0.41649765733044364,-0.0,-0.0,0.0
21/04/2022,17:49:43,35.860069,-0.00032879551872611046,0.029647603631019592,2.3516311645507812,2.3516311645507812,-3.085492972232373e-11,0.2242731899023056,0.13585509359836578,0,0.2242731899023056,1.0953788757324219,47.641468272772805,-122.140165,124.35203552246094,-3.804106569899243e-09,-5.222742250966017,3.136109859005571e-08,1.0947088548780471e-09,2.0,0.0,-0.10090989815184331,1.9983724209798943,0.4098087337438926,1.0796917600652653,-0.2581467520028973,-0.0041636572903692715,1.04836883544922,1.0947088548780471e-09,2.0,0.0,-0.10090989924655216,-0.0016275790201056646,0.4098087337438926,-0.0,-0.0,0.0
21/04/2022,17:49:43,36.053584,-0.0009899534052237868,0.08926443569362164,2.37554931640625,2.37554931640625,-7.476137764417246e-11,0.39021244645118713,0.10639204829931259,0,0.39021244645118713,1.0953788757324219,47.641468813671544,-122.140165,124.37586975097656,-1.1342610999346725e-08,-4.712948187347261,1.1204847448477471e-07,3.911229603192351e-09,2.0,0.0,-0.10176508311951017,1.9983586276285363,0.4033836012537548,1.056556421370576,-0.25844707779540294,-0.004168501254764645,1.0244506835937512,3.911229603192351e-09,2.0,0.0,-0.10176508703073978,-0.001641372371463577,0.4033836012537548,-0.0,-0.0,0.0
21/04/2022,17:49:43,36.238584,-0.0019500920316204429,0.17584046814590693,2.392822265625,2.392822265625,-1.9038960685779927e-10,0.5272232294082642,0.07636970281600952,0,0.5272232294082642,1.0953788757324219,47.641469596367315,-122.140165,124.39305114746094,-1.710133553498272e-08,-3.85641444359157,1.725464429401763e-07,6.023007083821203e-09,2.0,0.0,-0.10244189535587173,1.9983477112680825,0.39854728627829233,1.0399254501469908,-0.2588832133304284,-0.0041755356988779635,1.0071777343750012,6.023007083821203e-09,2.0,0.0,-0.1024419013788788,-0.0016522887319174342,0.39854728627829233,-0.0,-0.0,0.0
21/04/2022,17:49:43,36.405583,-0.0029607658507302403,0.26697327848523855,2.4033889770507812,2.4033889770507812,-3.89177967630161e-10,0.6213777661323547,0.056739140301942825,0,0.6213777661323547,1.0953788757324219,47.64147041890844,-122.140165,124.40355682373047,-2.176871259277279e-08,-3.1535295484579784,2.2325955595007533e-07,7.793228675738623e-09,2.0,0.0,-0.10291971209647437,1.998340004517908,0.39550403344157714,1.0298103994229784,-0.2593423041185638,-0.004182940389009127,0.99661102294922,7.793228675738623e-09,2.0,0.0,-0.10291971988970304,-0.0016599954820919974,0.39550403344157714,-0.0,-0.0,0.0
21/04/2022,17:49:43,36.597588,-0.004355376237072051,0.39272577222436666,2.4124679565429688,2.4124679565429688,-7.894762066307237e-10,0.7105017304420471,0.03986487537622452,0,0.7105017304420471,1.0953788757324219,47.64147155281699,-122.140165,124.41259002685547,-2.938912918367282e-08,-2.4387702165280234,3.200630273931065e-07,1.1172307283821023e-08,2.0,0.0,-0.10341685978695392,1.99833198595227,0.39283454800821443,1.0211878051531798,-0.2599757949603656,-0.004193157983231832,0.9875320434570325,1.1172307283821023e-08,2.0,0.0,-0.1034168709592612,-0.0016680140477300705,0.39283454800821443,-0.0,-0.0,0.0
21/04/2022,17:49:44,36.789586,-0.005914818146266043,0.5333411758765578,2.4188766479492188,2.4188766479492188,-1.4163806794087463e-09,0.7790130376815796,0.02830234169960022,0,0.7790130376815796,1.0953788757324219,47.64147281990235,-122.140165,124.41896057128906,-3.677274793072212e-08,-1.8692960989424106,4.1263954646830923e-07,1.4403837419616271e-08,2.0,0.0,-0.1038663695383004,1.9983247357428688,0.3909164834147086,1.015173355291392,-0.2606841591547724,-0.0042045832121737625,0.9811233520507825,1.4403837419616271e-08,2.0,0.0,-0.10386638394213782,-0.0016752642571312613,0.3909164834147086,-0.0,-0.0,0.0
21/04/2022,17:49:44,36.975589,-0.007628029561601579,0.6878220262005925,2.4235153198242188,2.4235153198242188,-2.314045621787386e-09,0.8319662809371948,0.02022973820567131,0,0.8319662809371948,1.0953788757324219,47.64147421132713,-122.140165,124.42357635498047,-4.2691693548000804e-08,-1.4219999819101428,4.5648782289559474e-07,1.5934431009577766e-08,2.0,0.0,-0.1042940438370231,1.9983178377456217,0.3895074876611866,1.0108920252777174,-0.2614623719088791,-0.004217135030788466,0.9764846801757825,1.5934431009577766e-08,2.0,0.0,-0.10429405977145412,-0.0016821622543783294,0.3895074876611866,-0.0,-0.0,0.0
21/04/2022,17:49:44,37.162584,-0.00938203395344317,0.8459810130298138,2.4267578125,2.4267578125,-3.426572581233245e-09,0.8709053993225098,0.014731019735336304,0,0.8709053993225098,1.0953788757324219,47.64147563546857,-122.14016500000002,124.42680358886719,-4.630700105094509e-08,-1.0907251742987325,4.1869844361824075e-07,1.4615332828228282e-08,2.0,0.0,-0.10469139012678563,1.9983114289557722,0.3885092537794946,1.0079673059933785,-0.2622591116491061,-0.004229985671760028,0.9732421875000012,1.4615332828228282e-08,2.0,0.0,-0.10469140474211847,-0.0016885710442278176,0.3885092537794946,-0.0,-0.0,0.0
21/04/2022,17:49:44,37.326585,-0.010967784561216831,0.9889686768874526,2.4288558959960938,2.4288558959960938,-4.565084310570455e-09,0.8971540927886963,0.01119444239884615,0,0.8971540927886963,1.0953788757324219,47.64147692275763,-122.14016500000002,124.42888641357422,-4.915763964739839e-08,-0.8667767709174153,3.665851201563079e-07,1.2796234671093205e-08,2.0,0.0,-0.10502860018464072,1.9983059901132116,0.38785512495839486,1.0061297334831194,-0.2629794262974524,-0.004241603649958847,0.9711441040039075,1.2796234671093205e-08,2.0,0.0,-0.10502861298087539,-0.0016940098867882878,0.38785512495839486,-0.0,-0.0,0.0
21/04/2022,17:49:44,37.513598,-0.012870346079580486,1.1605231072753668,2.4306716918945312,2.4306716918945312,-6.062056634448254e-09,0.9208188056945801,0.008083798922598362,0,0.9208188056945801,1.0953788757324219,47.641478467018395,-122.14016500000005,124.43069458007812,-5.15744138403258e-08,-0.6646451739428889,2.4626964597804023e-07,8.596432340075227e-09,2.0,0.0,-0.10541486902730715,1.9982997600383268,0.38728097559928315,1.004603876434103,-0.2638436468975723,-0.004255542691896208,0.96932830810547,8.596432340075227e-09,2.0,0.0,-0.1054148776237395,-0.00170023996167317,0.38728097559928315,-0.0,-0.0,0.0
21/04/2022,17:49:45,37.678588,-0.014473913819529116,1.3051173416897655,2.4317779541015625,2.4317779541015625,-7.410139613028832e-09,0.9359443783760071,0.006107507739216089,0,0.9359443783760071,1.0953788757324219,47.64147976846271,-122.14016500000005,124.43179321289062,-5.345943361312645e-08,-0.5354131708774591,1.3516444562585145e-07,4.718129215607911e-09,2.0,0.0,-0.695178423971073,1.9887874446985603,2.2987351948003214,1.0037283059103066,-0.26457205473666984,-0.004267291205430457,0.9682220458984387,4.718129215607911e-09,2.0,0.0,-0.10572944991290842,-0.0017053137082728355,0.3869251588505134,-0.5894489787762938,-0.009507241593166998,1.9118100359498078
21/04/2022,17:49:45,37.876584,-0.016516733216121793,1.489318854175508,2.50885009765625,2.50885009765625,-1.018745532377352e-08,0.9570627808570862,1.0291078090667725,0,0.9570627808570862,1.0953788757324219,47.64148142644748,-122.14016500000008,124.51190948486328,-5.5812321193619116e-08,-0.3484119128482357,-8.149083430847976e-09,-2.8445667377602565e-10,2.0,0.0,-0.5532753477047971,1.9910762040738648,-2.1787621463563474,0.9298691998274595,-0.2654999860796123,-0.004282257839994141,0.8911499023437512,-2.8445667377602565e-10,2.0,0.0,-0.0,-0.0,0.0,-0.5532753474203405,-0.008923795926135332,-2.1787621463563474
21/04/2022,17:49:45,38.078104,-0.01862525928299874,1.6794451605528593,2.7053146362304688,2.7053146362304688,-1.1641956731978098e-08,0.9644873738288879,0.551662027835846,0,0.9644873738288879,1.0953788757324219,47.64148313737869,-122.14016500000011,124.70698547363281,-5.781562020052806e-08,-0.34432389633723903,-2.1667292763776633e-07,-7.563311974428884e-09,2.0,0.0,-7.563311974428884e-09,2.0,0.0,0.7440470180055552,-0.2664577641795657,-0.004297705873864466,0.6946853637695325,-7.563311974428884e-09,2.0,0.0,-0.0,-0.0,0.0,-0.0,-0.0,-0.0
21/04/2022,17:49:45,38.234103,-0.020400076522491872,1.8394808368757367,2.733673095703125,2.733673095703125,-1.2737718435573697e-08,0.9941496849060059,-0.162923663854599,0,0.9941496849060059,1.0953788757324219,47.64148457812985,-122.14016500000012,124.73319244384766,-5.936168547569581e-08,-3.9344342935692933,-3.687976609449768e-07,-1.2873466914287094e-08,2.0,0.0,-0.5928343766489198,1.9904381554229766,1.9650717595353533,0.717941605382943,-0.26726395779813705,-0.004310708996744683,0.6663269042968762,-1.2873466914287094e-08,2.0,0.0,-0.0,-0.0,0.0,-0.5928343637754528,-0.009561844577023273,1.9650717595353533
21/04/2022,17:49:45,38.435102,-0.02266870462335646,2.0440434087067842,2.7578811645507812,2.7578811645507812,-1.662274762281868e-08,1.12851083278656,0.6634323000907898,0,1.12851083278656,1.0953788757324219,47.64148642238664,-122.14016500000018,124.75985717773438,-6.081820085996339e-08,-1.133960886656262,-5.446388448280172e-07,-2.851722322952217e-08,3.0,0.0,-2.851722322952217e-08,3.0,0.0,0.695929048670189,-0.26829445793696705,-0.004327329966725024,0.64211883544922,-2.851722322952217e-08,3.0,0.0,-0.0,-0.0,0.0,-0.0,-0.0,-0.0
21/04/2022,17:49:45,38.640102,-0.0252378371078521,2.2757027251645923,2.85589599609375,2.85589599609375,-1.7765721338491858e-08,1.21469247341156,0.10871987789869308,0,1.21469247341156,1.0953788757324219,47.64148850910409,-122.14016500000021,124.85623168945312,1.2078032152175742e-07,-8.190917181548908,-6.524647753346379e-07,-4.555063433149807e-08,3.9999999999999996,0.0,-4.555063433149807e-08,3.9999999999999996,0.0,0.6071882211100079,-0.2694614624493163,-0.004346152620150701,0.5441040039062512,-4.555063433149807e-08,3.9999999999999996,0.0,-0.0,-0.0,0.0,-0.0,-0.0,0.0
21/04/2022,17:49:46,38.824102,-0.02812343230471015,2.53589740768075,2.8726730346679688,2.8726730346679688,-1.3439848345342398e-08,1.5231515169143677,0.09222888946533203,0,1.5231515169143677,1.0953788757324219,47.641490858590515,-122.14016500000025,124.87295532226562,3.792023659912547e-07,-9.929393041101306,-7.793473759948466e-07,-5.440871091155316e-08,3.9999999999999996,0.0,-5.440871091155316e-08,3.9999999999999996,0.0,0.5927987802546296,-0.27077221469360224,-0.004367293785380699,0.5273269653320325,-5.440871091155316e-08,3.9999999999999996,0.0,-0.0,-0.0,0.0,-0.0,-0.0,0.0
21/04/2022,17:49:46,38.983104,-0.031027525197714567,2.7977601950988173,2.8859405517578125,2.8859405517578125,-4.082489901691133e-09,1.7810547351837158,0.06777307391166687,0,1.7810547351837158,1.0953788757324219,47.64149322174774,-122.14016500000028,124.88614654541016,5.981722817840553e-07,-9.154073398749802,-9.131305571276633e-07,-6.37485388897916e-08,3.9999999999999996,0.0,-6.37485388897916e-08,3.9999999999999996,0.0,0.5816442990182005,-0.272091371972981,-0.004388570515693413,0.5140594482421887,-6.37485388897916e-08,3.9999999999999996,0.0,-0.0,-0.0,0.0,-0.0,-0.0,0.0
21/04/2022,17:49:46,39.135101,-0.034292251570150256,3.0921415742486715,2.8936233520507812,2.8936233520507812,1.060356158433251e-08,2.0018515586853027,0.029490923509001732,1.060356158433251e-08,2.0018515586853027,1.0953788757324219,47.64149587650229,-122.14016500000028,124.89370727539062,7.71062166419127e-07,-7.873855345291169,-1.0536747375456761e-06,-7.356037366103666e-08,3.999999999999999,0.0,-7.356037366103666e-08,3.999999999999999,0.0,0.5755690251860347,-0.2735743465715891,-0.004412489460832614,0.50637664794922,-7.356037366103666e-08,3.999999999999999,0.0,-0.0,-0.0,0.0,-0.0,-0.0,0.0
21/04/2022,17:49:46,39.3001,-0.038054628763347864,3.4313966119661927,2.895751953125,2.895751953125,1.9501444015190827e-08,2.194185495376587,-0.0023568435572087765,1.9501444015190827e-08,2.194185495376587,1.0953788757324219,47.64149893426415,-122.14016500000022,124.89574432373047,1.2491288522932822e-07,-6.51198477394616,-1.1507659683932715e-06,-8.033862027345436e-08,3.999999999999999,0.0,-8.033862027345436e-08,3.999999999999999,0.0,0.5745143569058944,-0.2752833802277229,-0.004440054519802672,0.5042480468750012,-8.033862027345436e-08,3.999999999999999,0.0,-0.0,-0.0,0.0,-0.0,-0.0,0.0
21/04/2022,17:49:46,39.491104,-0.04275778017472476,3.855481336824596,2.8931045532226562,2.895751953125,8.371601190049205e-09,2.371732234954834,-0.02441432513296604,1.9501444015190827e-08,2.371732234954834,1.0953788757324219,47.641502754903165,-122.14016500000021,124.89303588867188,-6.135226572450179e-07,-5.137832840428405,-1.2965103582795947e-06,-9.0513498152761e-08,3.999999999999999,0.0,-9.0513498152761e-08,3.999999999999999,0.0,0.5778622089214479,-0.27741974925656254,-0.004474512084783555,0.506895446777345,-9.0513498152761e-08,3.999999999999999,0.0,-0.0,-0.0,0.0,-0.0,-0.0,0.0
21/04/2022,17:49:47,39.683104,-0.04786917951423675,4.316377711482346,2.8874053955078125,2.895751953125,-2.6458025104147964e-08,2.511652946472168,-0.03461453318595886,1.9501444015190827e-08,2.511652946472168,1.0953788757324219,47.64150690575481,-122.14016500000021,124.88729858398438,-1.3218597554627506e-06,-4.0068175896345055,-1.5369517952605819e-06,-1.0729947708693972e-07,3.9999999999999987,0.0,-1.0729947708693972e-07,3.9999999999999987,0.0,0.5839768196091535,-0.2797415584029075,-0.004511960619402622,0.5125946044921887,-1.0729947708693972e-07,3.9999999999999987,0.0,-0.0,-0.0,0.0,-0.0,-0.0,0.0
21/04/2022,17:49:47,39.874108,-0.05323873518500477,4.800551215186715,2.8805313110351562,2.895751953125,-6.8139407005674e-08,2.618685007095337,-0.03729228675365448,1.9501444015190827e-08,2.618685007095337,1.0953788757324219,47.64151126516126,-122.14016500000034,124.88041687011719,-1.0531287269625123e-06,-3.123106752295124,-1.8279469765506877e-06,-1.276147731707403e-07,3.999999999999998,0.0,-1.276147731707403e-07,3.999999999999998,0.0,0.591180458474967,-0.28218061828099295,-0.004551300294854954,0.519468688964845,-1.276147731707403e-07,3.999999999999998,0.0,-0.0,-0.0,0.0,-0.0,-0.0,0.0
21/04/2022,17:49:47,40.069104,-0.05889472120907158,5.310551513917744,2.8734588623046875,2.895751953125,-1.0129486582854952e-07,2.701125383377075,-0.03585990145802498,1.9501444015190827e-08,2.701125383377075,1.0953788757324219,47.64151585629531,-122.14016500000056,124.87335205078125,-7.838696351505009e-07,-2.434615464527981,-2.058581140093169e-06,-1.4371607525633776e-07,3.9999999999999973,0.0,-1.4371607525633776e-07,3.9999999999999973,0.0,0.5986226669538938,-0.284749775171711,-0.004592738309222355,0.5265411376953137,-1.4371607525633776e-07,3.9999999999999973,0.0,-0.0,-0.0,0.0,-0.0,-0.0,0.0
21/04/2022,17:49:47,40.262106,-0.06470407079905272,5.834380254149437,2.8668594360351562,2.895751953125,-1.2517482161911175e-07,2.763230562210083,-0.03261038288474083,1.9501444015190827e-08,2.763230562210083,1.0953788757324219,47.64152057129857,-122.14016500000083,124.86676025390625,-5.161834126199314e-07,-1.9123354626754743,-2.261342404704107e-06,-1.5787148190821106e-07,3.999999999999997,0.0,-1.5787148190821106e-07,3.999999999999997,0.0,0.6056835382197039,-0.28738858975441,-0.004635299834749418,0.533140563964845,-1.5787148190821106e-07,3.999999999999997,0.0,-0.0,-0.0,0.0,-0.0,-0.0,0.0
21/04/2022,17:49:47,40.448102,-0.07053549087140709,6.360198707319796,2.8610458374023438,2.895751953125,-1.3966882761451416e-07,2.809276819229126,-0.02876937761902809,1.9501444015190827e-08,2.809276819229126,1.0953788757324219,47.64152530377829,-122.14016500000118,124.8609619140625,-2.524921111656839e-07,-1.5233911878989985,-2.472159544974822e-06,-1.7258929477766187e-07,3.9999999999999964,0.0,-1.7258929477766187e-07,3.9999999999999964,0.0,0.6120581510349273,-0.2900374233924937,-0.0046780229579450605,0.5389541625976575,-1.7258929477766187e-07,3.9999999999999964,0.0,-0.0,-0.0,0.0,-0.0,-0.0,0.0
21/04/2022,17:49:47,40.647111,-0.07645125593990088,6.893622365780175,2.8559646606445312,2.895751953125,-1.452745976848746e-07,2.8439865112304688,-0.02492436021566391,1.9501444015190827e-08,2.8439865112304688,1.0953788757324219,47.64153002773799,-122.14016500000153,124.85596466064453,1.0753710182226895e-08,-1.229282843412696,-2.6669537976651204e-06,-1.8618849907129197e-07,3.9999999999999956,0.0,-1.8618849907129197e-07,3.9999999999999956,0.0,0.6178061295240305,-0.29272456666980284,-0.004721363978545945,0.54403533935547,-1.8618849907129197e-07,3.9999999999999956,0.0,-0.0,-0.0,0.0,-0.0,-0.0,0.0
21/04/2022,17:49:48,40.837102,-0.0824305524583906,7.432774455286562,2.8515853881835938,2.895751953125,-1.420548443320513e-07,2.870126247406006,-0.021377354860305786,1.9501444015190827e-08,2.870126247406006,1.0953788757324219,47.641534956288886,-122.14016500000191,124.85151672363281,2.7402387119822416e-07,-1.00727976107179,-2.869000922405032e-06,-2.0029404935488854e-07,3.999999999999995,0.0,-2.0029404935488854e-07,3.999999999999995,0.0,0.6229497738772415,-0.2954405650397174,-0.004765170403866037,0.5484146118164075,-2.0029404935488854e-07,3.999999999999995,0.0,-0.0,-0.0,0.0,-0.0,-0.0,0.0
21/04/2022,17:49:48,40.993103,-0.08749831689056009,7.8897341238334775,2.848388671875,2.895751953125,-1.325465177615115e-07,2.8870365619659424,-0.0187151450663805,1.9501444015190827e-08,2.8870365619659424,1.0953788757324219,47.64153906839659,-122.14016500000218,124.84833526611328,4.960967846792649e-07,-0.8634066291238435,-3.073741511079281e-06,-2.1458763889423674e-07,3.9999999999999942,0.0,-2.1458763889423674e-07,3.9999999999999942,0.0,0.6268562251492098,-0.2977425189987939,-0.0048022986935283285,0.5516113281250012,-2.1458763889423674e-07,3.9999999999999942,0.0,-0.0,-0.0,0.0,-0.0,-0.0,0.0
21/04/2022,17:49:48,41.154105,-0.09249634458683431,8.340405765920877,2.8456497192382812,2.895751953125,-1.1720065629106102e-07,2.900123357772827,-0.01640801876783371,1.9501444015190827e-08,2.900123357772827,1.0953788757324219,47.64154312382792,-122.14016500000247,124.84559631347656,7.142320884453497e-07,-0.751930996763644,-3.292645424169239e-06,-1.724025112574354e-07,2.999999999999995,0.0,-1.724025112574354e-07,2.999999999999995,0.0,0.630345403683362,-0.3000127981522245,-0.004838916099231483,0.55435028076172,-1.724025112574354e-07,2.999999999999995,0.0,-0.0,-0.0,0.0,-0.0,-0.0,0.0
21/04/2022,17:49:48,41.319101,-0.09759619552642107,8.800258968956769,2.8435745239257812,2.895751953125,-9.287678892633267e-08,2.8724498748779297,0.006956914439797401,1.9501444015190827e-08,2.900123357772827,1.0953788757324219,47.64154726079871,-122.14016500000267,124.84359741210938,8.614951124166402e-07,2.875885857277846,-3.47418805118037e-06,-1.8190806097962804e-07,2.9999999999999942,0.0,-1.8190806097962804e-07,2.9999999999999942,0.0,0.6332741218036536,-0.30232933172217347,-0.004876279543907458,0.55642547607422,-1.8190806097962804e-07,2.9999999999999942,0.0,-0.0,-0.0,0.0,-0.0,-0.0,0.0
21/04/2022,17:49:48,41.510103,-0.1036551867146045,9.346598199568689,2.8498687744140625,2.895751953125,-6.690678588938681e-08,2.726808786392212,0.04632249101996422,1.9501444015190827e-08,2.900123357772827,1.0953788757324219,47.641552172752505,-122.14016500000288,124.85000610351562,9.52645507964211e-08,4.589495721778401,-3.7168139227491782e-06,-1.000000129741279,1.9999999351293551,0.0,-1.000000129741279,1.9999999351293551,0.0,0.6290813373994271,-0.3050815476312923,-0.004920670123087945,0.5501312255859387,-1.000000129741279,1.9999999351293551,0.0,-0.0,-0.0,0.0,-0.0,-0.0,0.0
21/04/2022,17:49:49,41.699104,-0.11260679678525776,9.850020475685596,2.87322998046875,2.895751953125,-0.06711338460445404,2.4875359535217285,0.23815882205963135,1.9501444015190827e-08,2.900123357772827,1.0953788757324219,47.641556696387546,-122.14016504748565,124.87393951416016,-4.061310161052888,8.337836506055858,-0.1137606782371235,-2.0019815548874202,0.9960270347187101,0.0,-2.0019815548874202,0.9960270347187101,0.0,0.6083409544374451,-0.3042498680494086,-0.004907255936281274,0.5267700195312512,-2.0019815548874202,0.9960270347187101,0.0,-0.0,-0.0,0.0,-0.0,-0.0,0.0
21/04/2022,17:49:49,41.88162,-0.14880687952972949,10.270648423582315,2.9514923095703125,2.9514923095703125,-0.32605788111686707,2.0679433345794678,0.6713515520095825,1.9501444015190827e-08,2.900123357772827,1.0953788757324219,47.64156041717362,-122.14016546464892,124.95149230957031,-9.046158112450843,12.56105425041198,-0.5695534788520155,-1.9999011856139342,-0.019880839519014995,0.0,-1.9999011856139342,-0.019880839519014995,0.0,0.5260387731798886,-0.2748417574381855,-0.004432931571583865,0.44850769042968874,-1.9999011856139342,-0.019880839519014995,0.0,-0.0,-0.0,0.0,0.0,0.0,-0.0
21/04/2022,17:49:49,42.061623,-0.23484950687270612,10.6133003057912,3.062957763671875,3.062957763671875,-0.5511369109153748,1.691332221031189,0.4932376742362976,1.9501444015190827e-08,2.900123357772827,1.0953788757324219,47.64156355416906,-122.14016658146735,125.06444549560547,-5.76577200757006,12.667756084217284,-0.5714484565579561,-1.999900526989187,-0.01994698344042308,0.0,-0.328531822157333,0.007010576314929913,-1.2723571492885886,0.3890731809082553,-0.19434671379463508,-0.0031346244160435077,0.33704223632812624,-1.999900526989187,-0.01994698344042308,0.0,-0.0,-0.0,0.0,1.671368704831854,0.026957559755352994,-1.2723571492885886
21/04/2022,17:49:49,42.214619,-0.32818719442002475,10.853772808797657,3.1034927368164062,3.1034927368164062,-0.6101212501525879,1.4902012348175049,-0.1042410284280777,1.9501444015190827e-08,2.900123357772827,1.0953788757324219,47.6415657214912,-122.14016779090404,125.10320281982422,-0.471444701128112,11.988157257894287,-0.5135716098732228,-2.99987948389073,-0.026890186527529673,0.0,-0.9890916311463869,0.005541875613506043,0.9517043095974365,0.3145245831188489,-0.10491088135107401,-0.0016921109895342568,0.296507263183595,-2.99987948389073,-0.026890186527529673,0.0,-0.0,-0.0,0.0,2.0107878527443432,0.032432062141035715,0.9517043095974365
21/04/2022,17:49:49,42.399138,-0.43756242911331356,11.087705531157553,3.0957565307617188,3.1034927368164062,-0.5571562647819519,1.106783151626587,0.1311616152524948,1.9501444015190827e-08,2.900123357772827,1.0953788757324219,47.64156782673052,-122.14016921030071,125.09614562988281,2.46690999005388,9.49092710012995,-0.5603318727662062,-2.9998565392205108,-0.029338440584679232,0.0,-0.8911323166552565,0.004673240424433515,0.08192658734402333,0.3042441935235922,0.0006637801247877939,1.0706131044813105e-05,0.3042434692382825,-2.9998565392205108,-0.029338440584679232,0.0,0.0,0.0,0.0,2.1087242225652543,0.03401168100911275,0.08192658734402333
21/04/2022,17:49:49,42.575422,-0.5308825846295804,11.259656691923738,3.116943359375,3.116943359375,-0.4692482352256775,0.855290949344635,0.0938052088022232,1.9501444015190827e-08,2.900123357772827,1.0953788757324219,47.641569376234024,-122.14017042369674,125.11723327636719,3.009778285590781,7.34089345491908,-0.6554297399144726,-2.999803712092556,-0.03431747245530878,0.0,-0.999400203348813,-0.0020528997336359545,0.19057715033928582,0.297385760186473,0.09118698060255792,0.0014707577516528403,0.28305664062500124,-2.999803712092556,-0.03431747245530878,0.0,0.0,0.0,0.0,2.000403508743743,0.032264572721672824,0.19057715033928582
21/04/2022,17:49:50,42.761134,-0.6101094505283982,11.396815927699208,3.1294403076171875,3.1294403076171875,-0.37686392664909363,0.6576346158981323,0.04444475099444389,1.9501444015190827e-08,2.900123357772827,1.0953788757324219,47.64157061278966,-122.14017145443208,125.12957763671875,2.7637018306107604,5.629459023030451,-0.7371223892828402,-1.9998344885855033,-0.02572971558254022,0.0,-1.9998344885855033,-0.02572971558254022,0.0,0.3185827148193699,0.1681815709528769,0.0027126059831097393,0.27055969238281374,-1.9998344885855033,-0.02572971558254022,0.0,0.0,0.0,0.0,0.0,0.0,0.0
21/04/2022,17:49:50,42.944139,-0.6756616119528189,11.5024106008932,3.131988525390625,3.131988525390625,-0.3516896069049835,0.5060862898826599,0.004150285851210356,1.9501444015190827e-08,2.900123357772827,1.0953788757324219,47.64157156525347,-122.14017231043267,125.13200378417969,-1.656865868767284,4.263484113058942,-0.7579068497592094,-0.999912511681209,-0.013227584185182127,0.0,-0.999912511681209,-0.013227584185182127,0.0,0.3545061978921843,0.23201398675975493,0.003742161076768724,0.26801147460937624,-0.999912511681209,-0.013227584185182127,0.0,0.0,0.0,0.0,0.0,0.0,0.0
21/04/2022,17:49:50,43.130136,-0.7458642704878002,11.584409444592893,3.1310348510742188,3.131988525390625,-0.3760395646095276,0.38670966029167175,-0.011794939637184143,1.9501444015190827e-08,2.900123357772827,1.0953788757324219,47.64157229630752,-122.14017321882561,125.13103485107422,0.7424453403452793,3.2792356812441383,-0.7456338755736819,-0.9999153221404691,-0.013013398815138992,-5.0,1.0326217647048943,0.019769457424300828,-4.428399929383048,0.4035991458602285,0.30087616910021975,0.0048528414370974104,0.2689651489257825,-0.9999153221404691,-0.013013398815138992,-5.0,0.0,0.0,0.0,2.0325370868453634,0.03278285623943982,0.5716000706169524
21/04/2022,17:49:50,43.318135,-0.8106196260778233,11.647173688746989,3.0822982788085938,3.131988525390625,-0.3166010081768036,0.32491418719291687,-0.6981751322746277,1.9501444015190827e-08,2.900123357772827,1.0953788757324219,47.6415728762159,-122.1401740842945,125.0802230834961,6.947291631810611,3.5243109871534317,-0.7247929152963943,-0.9999199895289652,-0.012649685387157435,0.0,0.24771684480986012,0.00747348936024099,2.1663266096098415,0.4836362648221478,0.3646026200106215,0.005880687419525188,0.3177017211914075,-0.9999199895289652,-0.012649685387157435,0.0,0.0,0.0,0.0,1.2476368343388253,0.020123174747398425,2.1663266096098415
21/04/2022,17:49:50,43.494137,-0.8503835095325485,11.697363094426692,2.9641647338867188,3.131988525390625,-0.0986059308052063,0.2170369029045105,-0.1708241105079651,1.9501444015190827e-08,2.900123357772827,1.0953788757324219,47.64157332881907,-122.14017459752476,124.963623046875,2.9813741789011057,1.9678513142587546,-0.883611476467199,-0.9998810844010211,-0.015421318265250464,-5.0,-0.9998810844010211,-0.015421318265250464,-5.0,0.5940074214887096,0.4035468657447755,0.0065088204152363716,0.4358352661132825,-0.9998810844010211,-0.015421318265250464,-5.0,0.0,0.0,0.0,0.0,0.0,0.0
21/04/2022,17:49:51,43.684136,-0.8623762667411938,11.732623586431146,2.9220046997070312,3.131988525390625,-0.04286131262779236,0.1727864146232605,-0.6387186646461487,1.9501444015190827e-08,2.900123357772827,1.0953788757324219,47.64157364603995,-122.14017474969573,124.92011260986328,1.7530897515464439,2.085182825065886,-1.2595790937633733,-0.9997583659483547,-0.021982031668519,0.0,-0.3218883371612832,-0.011048644107437389,2.4034839005983235,0.6330266109588077,0.41496793419880834,0.006693031196753907,0.47799530029297,-0.9997583659483547,-0.021982031668519,0.0,0.0,0.0,0.0,0.6778700287870715,0.010933387561081611,2.4034839005983235
21/04/2022,17:49:51,43.868134,-0.8663103779545054,11.758410652168095,2.834075927734375,3.131988525390625,0.0028259367682039738,0.10513746738433838,0.05972503870725632,0.0028259367682039738,2.900123357772827,1.0953788757324219,47.64157387660808,-122.14017479643248,124.834228515625,0.47477654037638434,1.0870118033456102,-2.069766396786905,-0.9993475906530588,-0.0361163820990775,-3.0,-0.9993475906530588,-0.0361163820990775,-3.0,0.7038788857695355,0.41848520999289907,0.006749761451496639,0.5659240722656262,-0.9993475906530588,-0.0361163820990775,-3.0,0.0,0.0,0.0,0.0,0.0,0.0
21/04/2022,17:49:51,44.053137,-0.8648780883522704,11.775254101492465,2.8394012451171875,3.131988525390625,0.011126452125608921,0.08191536366939545,-0.37684211134910583,0.011126452125608921,2.900123357772827,1.0953788757324219,47.64157402737593,-122.14017477453879,124.83828735351562,0.11161167689068346,0.9054260962001406,-2.4767141660103644,-0.9990658666239066,-0.043213356118478506,0.0,-0.3201785400013457,-0.03226356052779385,2.276770531986037,0.6985865260631519,0.4167816950152392,0.0067222854034714175,0.5605987548828137,-0.9990658666239066,-0.043213356118478506,0.0,0.0,0.0,0.0,0.6788873266225609,0.010949795590684661,2.276770531986037
21/04/2022,17:49:51,44.238138,-0.8627359062666073,11.787673001177609,2.8070297241210938,3.131988525390625,0.013089226558804512,0.051544271409511566,0.3942412734031677,0.013089226558804512,2.900123357772827,1.0953788757324219,47.641574138077566,-122.1401747441091,124.80818939208984,-0.03909979909379385,0.4893502988628138,-2.666403764561101,-0.9989173248097458,-0.04652072865874692,-2.0,-0.9989173248097458,-0.04652072865874692,-2.0,0.7234768779836958,0.4144398173253126,0.006684513182666052,0.5929702758789075,-0.9989173248097458,-0.04652072865874692,-2.0,0.0,0.0,0.0,0.0,0.0,-0.0
21/04/2022,17:49:51,44.423139,-0.8605106446193531,11.795891361311078,2.8754043579101562,3.131988525390625,0.012152877636253834,0.04088013619184494,-0.02425709366798401,0.013089226558804512,2.900123357772827,1.0953788757324219,47.64157421039351,-122.14017471379661,124.87540435791016,-0.09109004849489526,0.4068751812972482,-2.7570106818669933,-0.998842508428741,-0.048100346732434913,0.0,-0.998842508428741,-0.048100346732434913,0.0,0.6671258089116332,0.41208261469844126,0.006646493785456897,0.524595642089845,-0.998842508428741,-0.048100346732434913,0.0,0.0,0.0,0.0,0.0,0.0,0.0
21/04/2022,17:49:51,44.603135,-0.8585157409543172,11.802661309950054,2.8096237182617188,3.131988525390625,0.010509253479540348,0.033285848796367645,-0.5329349040985107,0.013089226558804512,2.900123357772827,1.0953788757324219,47.64157427110191,-122.14017468624064,124.80962371826172,-0.08684067356057508,0.28716330224512143,-2.7995755348224796,-0.9988064992085031,-0.04884237032387555,0.0,-0.43178167307712867,-0.03969680861208079,2.4211153564403034,0.7187981039525674,0.40997906554265073,0.006612565573265172,0.5903762817382825,-0.9988064992085031,-0.04884237032387555,0.0,0.0,0.0,0.0,0.5670248261313744,0.009145561711794762,2.4211153564403034
21/04/2022,17:49:52,44.786148,-0.8569100276799873,11.807779804803431,2.7807388305664062,3.131988525390625,0.007477784529328346,0.022265223786234856,0.44463154673576355,0.013089226558804512,2.900123357772827,1.0953788757324219,47.64157431759073,-122.14017466380854,124.78203582763672,-0.0617739201015299,0.17466503958452853,-2.8203009905030045,-1.0479924290771698,0.9495851033988124,0.0,-1.0479924290771698,0.9495851033988124,0.0,0.741774558249918,0.4082912349815496,0.006585342499700886,0.619261169433595,-1.0479924290771698,0.9495851033988124,0.0,0.0,0.0,0.0,0.0,0.0,-0.0
21/04/2022,17:49:52,44.962137,-0.8570629340829328,11.811351846903563,2.85369873046875,3.131988525390625,-0.022939223796129227,0.018440842628479004,0.021744530647993088,0.013089226558804512,2.900123357772827,1.0953788757324219,47.64157434914343,-122.14017466561762,124.85369873046875,-4.097204410587379,-0.05738732384276054,-2.8228033912605524,-2.0468205176416614,0.9002920462611681,0.0,-2.0468205176416614,0.9002920462611681,0.0,0.6821055636155589,0.4083865030186665,0.0065868790809453515,0.5463012695312512,-2.0468205176416614,0.9002920462611681,0.0,0.0,0.0,0.0,0.0,0.0,0.0
21/04/2022,17:49:52,45.151135,-0.8781870641978458,11.814162788912654,2.8531723022460938,3.131988525390625,-0.25461676716804504,0.014143195934593678,0.0787857323884964,0.013089226558804512,2.900123357772827,1.0953788757324219,47.64157437692468,-122.14017495649054,124.85340881347656,-9.390190777331977,-0.34668167364222124,-2.7958431999768067,-2.0951739703821266,1.9000647446424541,0.0,-0.22658951612641154,1.9302032035820615,0.775348501139711,0.6953446932048672,0.42945981322859156,0.006926771181106517,0.5468276977539075,-2.0951739703821266,1.9000647446424541,0.0,0.0,0.0,0.0,1.868584454255715,0.030138458939607437,0.775348501139711
21/04/2022,17:49:52,45.330138,-0.9430861381115392,11.817812480963767,2.8479843139648438,3.131988525390625,-0.4280155897140503,0.061053063720464706,-0.12232600152492523,0.013089226558804512,2.900123357772827,1.0953788757324219,47.641574417472846,-122.14017582691591,124.84761810302734,-2.0123226887377874,-3.967487166042876,-2.392210009574823,-2.0817366518821556,1.914777405394808,0.0,0.035170498760883184,1.9489210691148537,1.250977712765157,0.7410133030213513,0.4942831576283493,0.007972308994006028,0.5520156860351575,-2.0817366518821556,1.914777405394808,0.0,0.0,0.0,0.0,2.116907150643039,0.03414366372004595,1.250977712765157
21/04/2022,17:49:52,45.519133,-1.0251710483571514,11.84646079596132,2.8951263427734375,3.131988525390625,-0.4241158962249756,0.2832586169242859,0.8276508450508118,0.013089226558804512,2.900123357772827,1.0953788757324219,47.64157468936428,-122.14017691530401,124.89759063720703,1.6068469743986316,-4.695809350661272,-2.341366539015124,-2.080036685874927,1.9166239551394662,0.0,-0.14265974122274017,1.94787197037579,-1.5753988228904714,0.7659157614313642,0.575884769970166,0.0092884640317763,0.5048736572265637,-2.080036685874927,1.9166239551394662,0.0,0.0,0.0,0.0,1.9373769446521867,0.031248015236324,-1.5753988228904714
21/04/2022,17:49:53,45.698134,-1.098513080039993,11.907002657651901,3.0156478881835938,3.131988525390625,-0.3843446671962738,0.38356226682662964,0.2490604966878891,0.013089226558804512,2.900123357772827,1.0953788757324219,47.64157524410338,-122.1401778811093,125.01641082763672,2.6875688940226587,-4.855285798305761,-2.3289620781304183,-2.079621690566036,1.9170742354241952,0.0,0.3091006326122949,1.9556020148302955,-0.19351446814622852,0.7536842421392528,0.648231499323619,0.010455346763283302,0.3843521118164075,-2.079621690566036,1.9170742354241952,0.0,0.0,0.0,0.0,2.3887223231783308,0.03852777940610021,-0.19351446814622852
21/04/2022,17:49:53,45.885134,-1.1643106085248291,11.983247371390462,3.0048065185546875,3.131988525390625,-0.32694295048713684,0.48745107650756836,-0.20158255100250244,0.013089226558804512,2.900123357772827,1.0953788757324219,47.64157593940979,-122.14017874347743,125.00420379638672,2.5378313043592553,-3.993448933543446,-2.2794162842896104,-2.077963147762966,1.9188718447408173,0.0,0.03961997111196647,1.9530264111742828,1.2515679339003973,0.8150882917315226,0.7127824817017515,0.01149649164034905,0.39519348144531374,-2.077963147762966,1.9188718447408173,0.0,0.0,0.0,0.0,2.1175831188749323,0.03415456643346538,1.2515679339003973
21/04/2022,17:49:53,46.07014,-1.216829510871321,12.085951514542103,3.03021240234375,3.131988525390625,-0.22749361395835876,0.6516368389129639,0.6964439153671265,0.013089226558804512,2.900123357772827,1.0953788757324219,47.64157687306831,-122.14017942348005,125.03227996826172,1.959171597686718,-2.8937277820599405,-2.230795306027501,-2.076334052500059,1.9206345051645517,0.0,-0.20488768162936655,1.9508191240495618,-1.598914798603725,0.8485445448862552,0.763631637422041,0.012316639313256772,0.36978759765625124,-2.076334052500059,1.9206345051645517,0.0,0.0,0.0,0.0,1.8714463708706925,0.030184618885010145,-1.598914798603725
21/04/2022,17:49:53,46.255135,-1.2563553081126884,12.21325119677931,3.1328506469726562,3.1328506469726562,-0.18911191821098328,0.7117831707000732,0.1269972324371338,0.013089226558804512,2.900123357772827,1.0953788757324219,47.641578023941726,-122.14017992930813,125.13325500488281,1.7436977452179392,-2.498319967898765,-2.2150584784770904,-2.1144568878321404,2.9204575103054005,0.0,0.08503257770721051,2.955933146846352,0.02502370467242389,0.8445638358862418,0.8010944681885194,0.0129208785191679,0.267149353027345,-2.1144568878321404,2.9204575103054005,0.0,0.0,0.0,0.0,2.199489465539351,0.03547563654095137,0.02502370467242389
21/04/2022,17:49:53,46.433137,-1.288669048808515,12.344885176047683,3.107086181640625,3.1328506469726562,-0.15409673750400543,0.8155179619789124,-0.2276785671710968,0.013089226558804512,2.900123357772827,1.0953788757324219,47.64157921420395,-122.14018033864527,125.10639953613281,1.5065360424834289,-5.8012255664698955,-2.307771445288775,-2.1191798457121607,2.917032187262832,0.0,-0.16315832783824713,2.948580921422086,1.314928363026016,0.8814760924574705,0.8312772282717752,0.013407697230189086,0.29291381835937624,-2.1191798457121607,2.917032187262832,0.0,0.0,0.0,0.0,1.9560215178739135,0.031548734159253626,1.314928363026016
21/04/2022,17:49:53,46.616138,-1.3143792325863615,12.517836653627455,3.1300506591796875,3.1328506469726562,-0.10330939292907715,1.1108516454696655,0.6901596784591675,0.013089226558804512,2.900123357772827,1.0953788757324219,47.641580780701894,-122.1401806533393,125.1321029663086,1.1365113732568364,-6.095819053868351,-2.3163332931173417,-2.119615721271573,2.916715480491436,0.0,-0.46364662714511584,2.943424659428958,-1.7940095461883092,0.8959387707882729,0.8541919109329184,0.013777288886014816,0.26994934082031374,-2.119615721271573,2.916715480491436,0.0,0.0,0.0,0.0,1.6559690941264573,0.026709178937522216,-1.7940095461883092
21/04/2022,17:49:54,46.798134,-1.3334451515693218,12.730882482603192,3.2295761108398438,3.2295761108398438,-0.08561557531356812,1.2391748428344727,0.1375569999217987,0.013089226558804512,2.900123357772827,1.0953788757324219,47.64158270282597,-122.14018087497813,125.23001098632812,1.0080007206427197,-6.100725998948806,-2.316346815214777,-2.0791995428319576,1.9175320756345589,0.0,-0.08047926180982157,1.9497694995220085,-0.2090286124422015,0.8864669649377609,0.8698175419274577,0.014029315192377823,0.1704238891601575,-2.0791995428319576,1.9175320756345589,0.0,0.0,0.0,0.0,1.998720281022136,0.03223742388744967,-0.2090286124422015
21/04/2022,17:49:54,46.977135,-1.3502985627856106,12.960721051320434,3.1923904418945312,3.2295761108398438,-0.07104038447141647,1.3137320280075073,-0.37656736373901367,0.013089226558804512,2.900123357772827,1.0953788757324219,47.64158477432396,-122.14018106482115,125.1912612915039,0.6279218253664723,-1.1094481653075219,-2.2441462624819013,-2.0767815388223636,1.9201506295097306,0.0,-0.37688025404811265,1.947568392167384,1.6620285015185468,0.9071514304541549,0.8829604603812796,0.01424129774808236,0.20760955810547,-2.0767815388223636,1.9201506295097306,0.0,0.0,0.0,0.0,1.699901284774251,0.027417762657653468,1.6620285015185468
21/04/2022,17:49:54,47.159135,-1.363918486633338,13.200714312493801,3.1910324096679688,3.2295761108398438,-0.04754939675331116,1.2977937459945679,0.5700992345809937,0.013089226558804512,2.900123357772827,1.0953788757324219,47.64158693442234,-122.14018120976372,125.19271850585938,0.3654296632320844,1.125976177801748,-2.2214574069285655,-3.0752694755241023,1.8822108417788146,0.0,-1.4022061908262815,1.9091957334674878,-1.647069135073838,0.9169517653590166,0.8927069896603215,0.01439849983322894,0.2089675903320325,-3.0752694755241023,1.8822108417788146,0.0,0.0,0.0,0.0,1.6730632846978208,0.026984891688673324,-1.647069135073838
