date,fly_time,fly_time_s,x,y,z,z_max,vx,vy,vz,vx_max,vy_max,vz_max,latitude,longitude,altitude,pitch,roll,yaw,cx,cy,cz,scx,scy,scz,d,dx,dy,dz,gc_pow_x,gc_pow_y,gc_pow_z,gpc_pow_x,gpc_pow_y,gpc_pow_z,gfc_pow_x,gfc_pow_y,gfc_pow_z
14/04/2022,21:29:51,28.569468,-1.1118633311707526,2.711870450526476,1.6334381103515625,1.6334381103515625,0.0,0.0,-0.0030750080477446318,0,0,0,47.641492508921544,-122.14017940093345,123.63343811035156,0.0,0.0,177.23083258866498,0.0,0.0,0.0,1.2471336563391462,0.02011505897321189,2.728322499030624,1.9433902802279361,0.8098482905299692,0.013062069202096183,1.7665618896484387,0.0,0.0,0.0,0.20835210380940633,0.0033605178033774973,0.45448868698223405,1.03878155252974,0.016754541169834394,2.2738338120483896
14/04/2022,21:29:51,28.750466,-1.1118633311707526,2.711870450526476,1.6328659057617188,1.6334381103515625,0.0,0.0,-0.003064703894779086,0,0,0,47.641492508921544,-122.14017940093345,123.63286590576172,0.0,0.0,177.23083258866498,0.0,0.0,0.0,1.2468115749864397,0.02010986411268436,2.7284724202253274,1.9439104347540062,0.8098482905299692,0.013062069202096183,1.7671340942382825,0.0,0.0,0.0,0.20829655906191585,0.0033596219203534563,0.4545146980429517,1.0385150159245238,0.016750242192330903,2.273957722182376
14/04/2022,21:29:51,28.940466,-1.1118633311707526,2.711870450526476,1.6323013305664062,1.6334381103515625,0.0,0.0,-0.0030566202476620674,0,0,0,47.641492508921544,-122.14017940093345,123.6323013305664,0.0,0.0,177.23083258866498,0.0,0.0,0.0,1.2464919033236335,0.020104708118122976,2.728621122647265,1.9444236825454106,0.8098482905299692,0.013062069202096183,1.767698669433595,0.0,0.0,0.0,0.2082417772617522,0.0033587383429314627,0.4545403341472685,1.0382501260618813,0.016745969775191515,2.2740807884999965
14/04/2022,21:29:51,29.092505,-1.1118633311707526,2.711870450526476,1.6318359375,1.6334381103515625,0.0,0.0,-0.0030511924996972084,0,0,0,47.641492508921544,-122.14017940093345,123.63182830810547,0.0,0.0,177.23083258866498,0.0,0.0,0.0,1.2462272933171752,0.020100440214793,2.7287441392462,1.9448467865728298,0.8098482905299692,0.013062069202096183,1.7681640625000012,0.0,0.0,0.0,0.20819663599894306,0.0033580102580474443,0.45456144565770656,1.038030657318232,0.016742429956745557,2.2741826935884935
14/04/2022,21:29:52,29.244466,-1.1118633311707526,2.711870450526476,1.6313705444335938,1.6334381103515625,0.0,0.0,-0.0030465254094451666,0,0,0,47.641492508921544,-122.14017940093345,123.63136291503906,0.0,0.0,177.23083258866498,0.0,0.0,0.0,1.2459620370180384,0.020096161887387574,2.7288673907354206,1.94526990991566,0.8098482905299692,0.013062069202096183,1.7686294555664075,0.0,0.0,0.0,0.20815150984708017,0.0033572824168883655,0.45458253828658746,1.0378105271709583,0.016738879470499207,2.274284852448833
14/04/2022,21:29:52,29.397475,-1.1118633311707526,2.711870450526476,1.6309051513671875,1.6334381103515625,0.0,0.0,-0.0030425323639065027,0,0,0,47.641492508921544,-122.14017940093345,123.63088989257812,0.0,0.0,177.23083258866498,0.0,0.0,0.0,1.2456962187950784,0.020091874496694667,2.7289908377789494,1.9456930525613005,0.8098482905299692,0.013062069202096183,1.7690948486328137,0.0,0.0,0.0,0.20810639881757406,0.0033565548196382673,0.4546036120848885,1.0375898199775044,0.0167353196770564,2.2743872256940607
14/04/2022,21:29:52,29.548468,-1.1118633311707526,2.711870450526476,1.6304244995117188,1.6334381103515625,0.0,0.0,-0.003039076691493392,0,0,0,47.641492508921544,-122.14017940093345,123.63042449951172,0.0,0.0,177.23083258866498,0.0,0.0,0.0,1.2454211339922758,0.02008743764503656,2.7291185194805214,1.9461300889854485,0.8098482905299692,0.013062069202096183,1.7695755004882825,0.0,0.0,0.0,0.20805982462422826,0.0033558036229713994,0.454625357114708,1.0373613093680476,0.01673163402206516,2.2744931623658133
14/04/2022,21:29:52,29.708469,-1.1118633311707526,2.711870450526476,1.629974365234375,1.6334381103515625,0.0,0.0,-0.0030362349934875965,0,0,0,47.641492508921544,-122.14017940093345,123.62996673583984,0.0,0.0,177.23083258866498,-0.8538954552180851,-3.0448091157834343,0.0,0.3912677657183121,-3.024725838026396,2.729238167682529,1.9465393957106576,0.8098482905299692,0.013062069202096183,1.7700256347656262,-0.8538954552180851,-3.0448091157834343,0.0,0.2080162221712365,0.003355100357600565,0.45464570339370874,1.0371469987651607,0.016728177399437955,2.27459246428882
14/04/2022,21:29:52,29.898469,-1.1152106842491776,2.6998273422941566,1.6535110473632812,1.6535110473632812,-0.07166118174791336,-0.2523992657661438,0.4696033298969269,0,0,0.4696033298969269,47.641492394220435,-122.14017945009002,123.65489959716797,4.063874237102657,-12.06973088255867,176.84054448090112,-0.8331351361487188,-3.0505550060463515,0.0,1.1385624207247498,-3.018753432548393,1.9263649108948924,1.9266544539218071,0.8133889661980757,0.013119176874162086,1.74648895263672,-0.8331351361487188,-3.0505550060463515,0.0,0.2110717822759612,0.0034043835850960384,0.4532081836336833,1.7606257745975074,0.028397189912862924,1.473156727261209
14/04/2022,21:29:52,30.084469,-1.1415659405756742,2.6016898155212402,1.7755584716796875,1.7755584716796875,-0.2196401208639145,-0.793508768081665,0.7117190957069397,0,0,0.7117190957069397,47.641491499343196,-122.14017982134604,123.77769470214844,5.034218304462477,-15.384527847874077,176.63246159499775,-0.8220508695668239,-3.053560604907725,0.0,1.7239985574704946,-3.012495291568414,0.8000152771298696,1.8294298166733844,0.84131981976868,0.013569674512397878,1.6244415283203137,-0.8220508695668239,-3.053560604907725,0.0,0.2297122265123327,0.003705035911489186,0.4435341608998991,2.316337200524986,0.03736027742782187,0.3564811162299705
14/04/2022,21:29:53,30.243466,-1.183037922019139,2.444408521987498,1.8810958862304688,1.8810958862304688,-0.32396677136421204,-1.1868101358413696,0.5916240811347961,0,0,0.7117190957069397,47.64149007784668,-122.14018040082708,123.88287353515625,4.599933365195318,-14.394512716464115,176.7466591843915,-0.8281353574433594,-3.0519160915320325,0.0,1.837794490660937,-3.0089172230142216,0.9465780170264844,1.758141081526829,0.8853171505535358,0.014279308879895147,1.5189041137695325,-0.8281353574433594,-3.0519160915320325,0.0,0.2510640689719352,0.004049420467289109,0.43074083331917773,2.414865779132361,0.038949448050521834,0.5158371837073066
14/04/2022,21:29:53,30.404473,-1.2403953014872968,2.2243126882240176,1.96368408203125,1.96368408203125,-0.41420701146125793,-1.5303138494491577,0.42314499616622925,0,0,0.7117190957069397,47.64148813531643,-122.14018118394935,123.96368408203125,3.926832566659433,-12.345071779741502,176.91964149433886,-0.8373456422134322,-3.049401953738827,0.0,1.778459010986906,-2.611934952722093,1.1754275854755232,1.720042756476732,0.946208622170944,0.015261429389853642,1.4363159179687512,-0.8373456422134322,-3.049401953738827,0.0,0.27384676545809117,0.004416883313840095,0.4156910633611322,2.341957887742247,0.43305011770289364,0.759736522114391
14/04/2022,21:29:53,30.558465,-1.3065899460343644,1.968948901630938,2.0181427001953125,2.0181427001953125,-0.4878878593444824,-1.8063058853149414,0.28932157158851624,0,0,0.7117190957069397,47.64148579586597,-122.14018212232853,124.01901245117188,3.3161692953593525,-10.283427784026438,177.06225053073211,0.0,0.0,0.0,2.3966941099310612,1.1874886618782625,1.231546151064616,1.7155402283514352,1.016503750495443,0.016395221782184777,1.3818572998046887,0.0,0.0,0.0,0.29489959230909185,0.004756445037243479,0.40089291765340335,2.1017945176219692,1.182732216841019,0.8306532334112126
14/04/2022,21:29:53,30.719516,-1.3828809721162543,1.674487268552184,2.0374679565429688,2.0374679565429688,-0.5152571201324463,-1.9075478315353394,-0.028544267639517784,0,0,0.7117190957069397,47.64148315147306,-122.14018318252643,124.0373764038086,-0.7361722027916227,2.3294906694938855,177.38486950166478,0.0,0.0,0.0,2.5030013456449183,1.6660916057428916,1.8254532950525684,1.7496753535710734,1.0975230809270862,0.01770198517624344,1.3625320434570325,0.0,0.0,0.0,0.31265227009028274,0.005042778549843302,0.38814558332363136,2.1903490755546358,1.6610488271930484,1.437307711728937
14/04/2022,21:29:53,30.901518,-1.4716695505194366,1.3321680016815662,2.0595245361328125,2.0595245361328125,-0.45063483715057373,-1.6638413667678833,0.24015040695667267,0,0,0.7117190957069397,47.641480131999785,-122.14018439441499,124.05952453613281,-2.867719718266895,9.019560100194667,177.26643966699174,0.0,0.0,0.0,2.4261782762714947,1.480868320363574,1.2216638679547664,1.7937812765152146,1.191808409907011,0.01922271628882255,1.3404754638671887,0.0,0.0,0.0,0.3316229428937919,0.005348757143448198,0.3729898316787695,2.094555333377703,1.4755195632201257,0.8486740362759969
14/04/2022,21:29:53,31.093516,-1.5448660079855472,1.0509824762120843,2.1083908081054688,2.1083908081054688,-0.36651134490966797,-1.347411870956421,0.25616806745529175,0,0,0.7117190957069397,47.64147757317182,-122.14018542501387,124.10916137695312,-3.03617802536508,9.56829417557846,177.28646359740236,0.0,0.0,0.0,2.453844938743161,1.1923317461958454,1.1645491898097835,1.8111748553418456,1.269519901474979,0.02047612744314442,1.2916091918945325,0.0,0.0,0.0,0.349996709849124,0.005645108223372858,0.3560865544909947,2.103848228894037,1.1866866379724725,0.8084626353187889
14/04/2022,21:29:54,31.276523,-1.603644069400616,0.826294026337564,2.1498260498046875,2.1498260498046875,-0.2907351553440094,-1.0634335279464722,0.1834254115819931,0,0,0.7117190957069397,47.64147556523591,-122.14018623761375,124.15038299560547,-2.6386502211997556,8.316507438760267,177.37252240126645,0.0,0.0,-1.0,2.501316884760364,0.8900339344669456,0.317362284817172,1.8268468187977094,1.331905740739412,0.021482350657087146,1.2501739501953137,0.0,0.0,-1.0,0.3641582900884976,0.005873520807878954,0.3418118820957767,2.1371585946718668,0.8841604136590666,0.9755504027213953
14/04/2022,21:29:54,31.432518,-1.642874646699056,0.6769704474136233,2.14324951171875,2.1498260498046875,-0.2570110559463501,-0.9376114010810852,-0.40624457597732544,0,0,0.7117190957069397,47.641474229145125,-122.14018678054093,124.14205169677734,-2.2311701920185314,7.572193169081818,178.62783905406604,0.0,0.0,-1.0,2.252106893643965,0.6956093536907919,1.3811072187763123,1.8618560754895825,1.3735339334646364,0.022153773120397124,1.2567504882812512,0.0,0.0,-1.0,0.36866698267817305,0.0059462416560995025,0.3373214153692392,1.883439910965792,0.6896631120346924,2.043785803407073
14/04/2022,21:29:54,31.616518,-1.6850625976221636,0.5168240247294307,2.00213623046875,2.1498260498046875,-0.21725651621818542,-0.7899734377861023,-0.9907630085945129,0,0,0.7117190957069397,47.64147279652345,-122.14018736421251,123.9991683959961,-1.2792805114644574,6.424131333882356,-176.1576327392691,0.0,0.0,-1.0,3.203997209261452,0.8635445419813439,4.4987577561203755,1.9915075071256516,1.4182932472630356,0.022875697536500317,1.3978637695312512,0.0,0.0,-1.0,0.35608529429280106,0.005743311198270921,0.3509561458572367,2.847911914968651,0.857801230783073,5.147801610263139
14/04/2022,21:29:54,31.765027,-1.7136000514728948,0.4089098107069731,1.8497238159179688,2.1498260498046875,-0.17787837982177734,-0.6442723274230957,-1.0311577320098877,0,0,0.7117190957069397,47.64147183242713,-122.14018775846043,123.84663391113281,-0.5147991684099988,5.420617098221923,-170.27307272962145,0.0,0.0,-1.0,3.4259651870844183,0.6491319865613955,5.490152118305158,2.121847775153198,1.4485633783089664,0.023363925456596046,1.5502761840820325,0.0,0.0,-1.0,0.3414682953927604,0.005507553151496092,0.3654449462780597,3.084496891691658,0.6436244334098994,6.124707172027098
14/04/2022,21:29:54,31.948032,-1.742176033789292,0.30135925952345133,1.6534957885742188,2.1498260498046875,-0.13698400557041168,-0.4935484826564789,-1.043467402458191,0,0,0.7117190957069397,47.64147088507324,-122.14018814761587,123.65349578857422,0.2164240157960728,4.228616412545426,-161.85482736587787,0.0,0.0,-1.0,3.6715447863273347,0.3572154210602812,6.64789109772329,2.2886439306486204,1.4788661637959908,0.02385268006122565,1.7465042114257825,0.0,0.0,-1.0,0.3246418184521315,0.005236158362131151,0.38339392502984326,3.346902967875203,0.35197926269815005,7.2644971726934475
14/04/2022,21:29:54,32.103031,-1.760075552505441,0.23433015029877424,1.4967041015625,2.1498260498046875,-0.1110297292470932,-0.39830347895622253,-1.0463590621948242,0,0,0.7117190957069397,47.64147028381582,-122.14018839579239,123.4967041015625,0.5956016480926366,3.3888176144582083,-154.76652908894735,0.0,0.0,-1.0,3.907363525168434,0.13426246035122474,7.688995607156214,2.422116669665566,1.4978418607314412,0.02415873968921678,1.9032958984375012,0.0,0.0,-1.0,0.3138522504456444,0.005062133071703939,0.3988095917528094,3.5935112747227898,0.1292003272795208,8.290186015403405
14/04/2022,21:29:55,32.287031,-1.7771269337972626,0.1707970593124628,1.308380126953125,2.1498260498046875,-0.08614928275346756,-0.3073628842830658,-1.0454891920089722,0,0,0.7117190957069397,47.641469705625134,-122.14018863561603,123.30524444580078,0.8535915186085472,2.529158678141986,-146.02636137941508,0.0,0.0,0.0,4.234709324478094,0.06830176329803368,10.10017859113734,2.583304965095465,1.515913268098649,0.024450214001591086,2.0916198730468762,0.0,0.0,0.0,0.3050520288934241,0.004920194014410061,0.4209032926712494,3.92965729558467,0.06338156928362362,9.67927529846609
14/04/2022,21:29:55,32.461031,-1.7896954790921882,0.12430649250745773,1.1872482299804688,2.1498260498046875,-0.05807668715715408,-0.20500536262989044,-0.1302022486925125,0,0,0.7117190957069397,47.6414692969171,-122.14018880633996,123.18724822998047,0.879135864308525,1.6884438624921432,-137.15847299518666,0.0,0.0,0.0,1.9482829589669668,0.03142391869301554,2.901592665983826,2.6898731636104563,1.5292281974239035,0.02466497092619191,2.2127517700195325,0.0,0.0,0.0,0.30292243287028486,0.004885845691456191,0.4383205532316902,1.645360526096682,0.026538073001559356,2.4632721127521355
14/04/2022,21:29:55,32.649031,-1.798396315309219,0.0925019271671772,1.1859664916992188,2.1498260498046875,-0.04331592470407486,-0.15134279429912567,0.032959651201963425,0,0,0.7117190957069397,47.641469007559884,-122.14018892859983,123.18606567382812,0.82681020084238,1.1236908151293232,-128.22427320777373,0.0,0.0,0.0,1.917804965705782,0.03093233815654484,2.564429423846277,2.6961744257865567,1.5384396141909682,0.024813542164370483,2.2140335083007825,0.0,0.0,0.0,0.3045529404818819,0.004912144201320683,0.4382950159750112,1.6132520252239002,0.026020193955224157,2.1261344078712656
14/04/2022,21:29:55,32.827031,-1.8050260609015822,0.06851710751652718,1.1916961669921875,2.1498260498046875,-0.03332320228219032,-0.11530975997447968,0.02877945639193058,0,0,0.7117190957069397,47.641468796524215,-122.14018901865909,123.19169616699219,0.7412134401728678,0.7367994142049848,-119.25704766180382,0.0,0.0,0.0,1.9062660653684722,0.030746226860781815,2.567305817824649,2.6954881599202536,1.545454386850366,0.024926683658876958,2.2083038330078137,0.0,0.0,0.0,0.30596233947870227,0.004934876443204892,0.43719039059046305,1.6003037258897699,0.025811350417576925,2.130115427234186
14/04/2022,21:29:55,33.005028,-1.8101389427902177,0.0502012874931097,1.1963043212890625,2.1498260498046875,-0.02573862113058567,-0.08821746706962585,0.02246558479964733,0,0,0.7117190957069397,47.64146863225171,-122.14018908942649,123.19630432128906,0.640899337564306,0.465594982082024,-110.2732921367507,0.0,0.0,0.0,1.8968173646870952,0.030593828462695018,2.5743524238453874,2.6948230080356126,1.5508612786114497,0.025013891590507265,2.2036956787109387,0.0,0.0,0.0,0.307053061652701,0.0049524687363338895,0.43630691824664986,1.5897643030343942,0.02564135972636113,2.1380455055987375
14/04/2022,21:29:56,33.183032,-1.814035119023174,0.03637954965233803,1.1998443603515625,2.1498260498046875,-0.019996872171759605,-0.06791535764932632,0.0175724308937788,0,0,0.7117190957069397,47.6414685082899,-122.14018914333344,123.19984436035156,0.5393607858361014,0.27843271523331536,-101.4312263958701,0.0,0.0,0.0,1.8896680465906341,0.03047851688049407,2.5798057576512567,2.6943040901486937,1.5549793148105686,0.02508031152920276,2.2001556396484387,0.0,0.0,0.0,0.30788433800596215,0.0049658764194510105,0.4356286004394634,1.581783708584672,0.02551264046104306,2.1441771572117934
14/04/2022,21:29:56,33.33003,-1.816602767445147,0.027348246425390244,1.2021865844726562,2.1498260498046875,-0.016224171966314316,-0.054695919156074524,0.014298745431005955,0,0,0.7117190957069397,47.6414684272938,-122.14018917884765,123.20218658447266,0.458194550715732,0.1674818809793294,-94.08480416422171,0.0,0.0,0.0,1.8849652059107689,0.030402664611463934,2.5834617202898773,2.693959754211852,1.5576919237401226,0.025124063286130927,2.197813415527345,0.0,0.0,0.0,0.3084320744222199,0.004974710877777725,0.435179858489898,1.576533131488549,0.02542795373368621,2.1482818617999793
14/04/2022,21:29:56,33.505028,-1.819024552940391,0.018899614922702312,1.2043991088867188,2.1498260498046875,-0.012671086005866528,-0.042352717369794846,0.01112878043204546,0,0,0.7117190957069397,47.641468350381395,-122.14018921284404,123.20443725585938,0.3697134754844015,0.07536641765668146,-85.38683349500042,0.0,0.0,0.0,1.880518273073871,0.030330939888288173,2.587034843019035,2.6936359223463757,1.560249312191848,0.025165311486965103,2.1956008911132825,0.0,0.0,0.0,0.30894850609427904,0.004983040420875431,0.43475591367881944,1.571569766979592,0.025347899467412744,2.152278929340216
14/04/2022,21:29:56,33.652031,-1.8206530967727304,0.013265491463243961,1.2058792114257812,2.1498260498046875,-0.010283876210451126,-0.034130390733480453,0.008935133926570415,0,0,0.7117190957069397,47.64146830099907,-122.14018923484525,123.20587921142578,0.3031081319300083,0.022742763941271685,-78.03750105318221,0.0,0.0,0.0,1.8775147049645433,0.030282495241363526,2.5895430021234476,2.693426374955946,1.5619682818006904,0.025193036803237034,2.19412078857422,0.0,0.0,0.0,0.30929541083547135,0.004988635658636653,0.43447200473390035,1.568219294129072,0.025293859582726872,2.155070997389547
14/04/2022,21:29:56,33.827041,-1.8222119541605935,0.00791250541806221,1.2072677612304688,2.1498260498046875,-0.007997997105121613,-0.02632290869951248,0.006761717610061169,0,0,0.7117190957069397,47.641468252284234,-122.14018925670872,123.20728302001953,0.2337360236213056,-0.018053247174243475,-69.187962739282,0.0,0.0,0.0,1.874615266121215,0.03023573009872922,2.5920894772180025,2.6932501679011924,1.5636130497938625,0.025219565319255732,2.1927322387695325,0.0,0.0,0.0,0.30962660580258156,0.004993977512944841,0.43420476735827446,1.5649886603186334,0.025241752585784382,2.157884709859728
14/04/2022,21:29:56,33.977028,-1.8232214145828038,0.00447448156774044,1.2081375122070312,2.1498260498046875,-0.006518035661429167,-0.02131021022796631,0.005298255942761898,0,0,0.7117190957069397,47.641468221589335,-122.14018927059392,123.2081527709961,0.18601750720139598,-0.03784971645724145,-61.98809976858012,0.0,0.0,0.0,1.8727197992953064,0.030205158053150057,2.5938572893730534,2.6931606556258445,1.5646776852533415,0.025236736858924802,2.19186248779297,0.0,0.0,0.0,0.3098402258640313,0.004997422997806944,0.4340364630244675,1.562879573431275,0.025207735055343114,2.159820826348586
14/04/2022,21:29:56,34.153033,-1.82421050791163,0.0011318149045109749,1.2089385986328125,2.1498260498046875,-0.005067720543593168,-0.016437584534287453,0.003803017782047391,0,0,0.7117190957069397,47.64146819174653,-122.14018928419635,123.20895385742188,0.13746069863496022,-0.05060537704350331,-53.138007252154,0.0,0.0,0.0,1.8708393147219358,0.030174827656805365,2.59573843105061,2.693114970490115,1.565720421297328,0.02525355518221495,2.1910614013671887,0.0,0.0,0.0,0.31004814162062755,0.005000776477752054,0.43387983348119097,1.5607911731013082,0.02517405117905331,2.1618585975694193
14/04/2022,21:29:57,34.329033,-1.8249793135328218,-0.0014466624706983566,1.209503173828125,2.1498260498046875,-0.003939207177609205,-0.0126796318218112,0.002581315580755472,0,0,0.7117190957069397,47.64146816906931,-122.14018929460843,123.20950317382812,0.09894130688894301,-0.0546679554297651,-44.287915208332805,0.0,0.0,0.0,1.8693521171976324,0.030150840599961794,2.597354091781826,2.693126971109428,1.5665306044976204,0.025266622653187354,2.1904968261718762,0.0,0.0,0.0,0.31020820003089394,0.005003358065014404,0.4337675087031444,1.5591439171667385,0.02514748253494739,2.1635865830786813
14/04/2022,21:29:57,34.507031,-1.8255772728007287,-0.0034357458353042603,1.2098770141601562,2.1498260498046875,-0.0030612207483500242,-0.009781263768672943,0.001581254182383418,0,0,0.7117190957069397,47.64146815123372,-122.14018930286221,123.20987701416016,0.069083099253485,-0.053270220765815585,-35.43773104531479,0.0,0.0,0.0,1.8681730754552504,0.030131823797665325,2.5987556240551606,2.6931894817901694,1.567160481895394,0.02527678196605465,2.190122985839845,0.0,0.0,0.0,0.31033096993967185,0.005005338224833398,0.4336907408875155,1.5578421055155784,0.025126485572831925,2.165064883167645
14/04/2022,21:29:57,34.684032,-1.8260351000353694,-0.004947400651872158,1.2100830078125,2.1498260498046875,-0.002388519700616598,-0.007579110562801361,0.000774053274653852,0,0,0.7117190957069397,47.64146813747474,-122.14018930927428,123.2100830078125,0.04679763766554382,-0.048811678412290116,-26.737569452409115,0.0,0.0,0.0,1.867247481972051,0.03011689487051693,2.5999749525709293,2.693302610902695,1.567642565247432,0.025284557503990834,2.1899169921875012,0.0,0.0,0.0,0.3104228871760436,0.005006820760903929,0.4336449969278704,1.5568245947960073,0.025110074109613002,2.166329955643059
14/04/2022,21:29:57,34.862028,-1.826397554948926,-0.006136471405625343,1.2101593017578125,2.1498260498046875,-0.0018552984111011028,-0.005847349297255278,9.909914660966024e-05,0,0,0.7117190957069397,47.6414681268599,-122.14018931425315,123.21015930175781,0.029984567162943572,-0.042716826435903396,-17.887409837054225,0.0,0.0,0.0,1.8664919809155975,0.03010470936960637,2.6010840622867173,2.693462730439097,1.5680240994670533,0.025290711281726552,2.1898406982421887,0.0,0.0,0.0,0.3104934245923351,0.0050079584611666715,0.43362288751810973,1.5559985563232626,0.0250967509084397,2.1674611747686074
14/04/2022,21:29:57,35.042028,-1.8266833510715514,-0.007067487575113773,1.2101211547851562,2.1498260498046875,-0.001434735138900578,-0.00449177622795105,-0.0004636803059838712,0,0,0.7117190957069397,47.64146811854894,-122.14018931818065,123.21012115478516,0.017698296534345136,-0.035985709829611384,-8.887239290816595,0.0,0.0,0.0,1.865874206429913,0.030094745264998512,2.6021050043938896,2.6936688746593633,1.5683248337447857,0.02529556183459325,2.189878845214845,0.0,0.0,0.0,0.31054652881490274,0.005008814980885515,0.4336214407080697,1.5553276776150102,0.025085930284112996,2.16848356368582
14/04/2022,21:29:58,35.224029,-1.8269043632317334,-0.007782714441418648,1.2099990844726562,2.1498260498046875,-0.0011093851644545794,-0.0034507280215620995,-0.0009245378896594048,0,0,0.7117190957069397,47.6414681121644,-122.1401893212163,123.20999908447266,0.009165956584538424,-0.029423906022504467,0.11293353113125715,1.0098533608472833,4.9980192266122225,0.0,2.875229906631535,5.028105945092614,2.6030274209033863,2.693903512658514,1.5685573213415218,0.02529931163454069,2.190000915527345,1.0098533608472833,4.9980192266122225,0.0,0.31058523984344705,0.005009439352313664,0.43363538606590274,1.554791305940805,0.025077279128077445,2.1693920348374838
14/04/2022,21:29:58,35.417029,-1.8226631893776357,0.008998759090900421,1.2410964965820312,2.1498260498046875,0.09431778639554977,0.3816968500614166,0.5841366648674011,0.09431778639554977,0.3816968500614166,0.7117190957069397,47.64146827289474,-122.14018925852866,123.24282836914062,1.0704187344997218,-19.2344318477823,9.339563162913947,1.798169961267484,4.771434248776283,0.0,4.118416858155738,4.808857585822868,1.8892238213491588,2.666035004636585,1.5640466519906362,0.02522655890307479,2.15890350341797,1.798169961267484,4.771434248776283,0.0,0.31066128007682475,0.005010665807690724,0.42881567827951433,2.00958561681143,0.03241267123889386,1.4604081430696445
14/04/2022,21:29:58,35.608027,-1.7821369626326486,0.17784804850816727,1.4188919067382812,2.1498260498046875,0.39260435104370117,1.4399046897888184,1.261549711227417,0.39260435104370117,1.4399046897888184,1.261549711227417,47.64146981642874,-122.1401886822361,123.42266082763672,0.25011856250518283,-25.11489324613824,18.6835822855354,2.54900991226496,4.416168980822063,0.0,2.86096224119257,4.421200469998316,0.40637027323656433,2.497648661457424,1.520808297880987,0.02452916609485456,1.98110809326172,2.54900991226496,4.416168980822063,0.0,0.3119523289276103,0.005031489176251765,0.40637027323656433,0.0,0.0,-0.0
14/04/2022,21:29:58,35.79703,-1.6764869649196044,0.5380300600081682,1.6924972534179688,2.1498260498046875,0.7687668800354004,2.2887136936187744,1.4579637050628662,0.7687668800354004,2.2887136936187744,1.4579637050628662,47.641473069346056,-122.1401872075695,123.6968765258789,2.309987116104688,-22.92278390379805,24.77561615519904,3.0032844760954074,4.120713816275566,0.0,2.949132753269026,4.119840401391268,-1.8501159542130319,2.2141428221383292,1.4093779010222245,0.02273190162939076,1.7075027465820325,3.0032844760954074,4.120713816275566,0.0,0.3188922365852487,0.005143423170729827,0.3863473163855243,-0.3730439594116302,-0.006016838055027543,-2.236463270598556
14/04/2022,21:29:58,35.992029,-1.4958982401294634,1.0408611502498388,1.94281005859375,2.1498260498046875,1.1285980939865112,2.7616708278656006,1.0604853630065918,1.1285980939865112,2.7616708278656006,1.4579637050628662,47.64147758795332,-122.14018471492695,123.94599914550781,5.277709791459142,-18.68906936033121,27.965992780343388,3.2279631725862528,3.9471830153195198,0.0,1.539791498404762,3.9199544399294943,-0.8023423230882569,1.9010437182259223,1.220728073795102,0.019689162480565958,1.4571899414062512,3.2279631725862528,3.9471830153195198,0.0,0.32100563536379456,0.005177510247803084,0.38318622552245674,-2.009177309545285,-0.0324060856378282,-1.1855285486107137
14/04/2022,21:29:58,36.157032,-1.3018276790389791,1.4943003291264176,2.0878677368164062,2.1498260498046875,1.4338698387145996,3.029000759124756,0.8010112643241882,1.4338698387145996,3.029000759124756,1.4579637050628662,47.64148165528902,-122.14018205228352,124.09027862548828,6.647838800188827,-15.307070609694868,29.399262955468537,3.325682857999338,3.8652080834037066,0.0,1.1576842413875887,3.830240363780934,0.023329339305911245,1.6616649289760264,1.0193963531391412,0.016441876663534583,1.312132263183595,3.325682857999338,3.8652080834037066,0.0,0.30436347559885624,0.004909088316110598,0.3917662985924389,-2.4723620922106053,-0.03987680793888299,-0.36843695928652764
14/04/2022,21:29:59,36.35203,-0.9876129364129156,2.120579933747649,2.2210540771484375,2.2210540771484375,1.8115320205688477,3.260576009750366,0.5484578013420105,1.8115320205688477,3.260576009750366,1.4579637050628662,47.64148726467418,-122.14017776183543,124.22270202636719,7.013334544433791,-11.61929569384353,30.509653736354476,3.3999612893790996,3.8000346354636836,-1.0,0.5905144488565122,3.754720976745577,-0.5084563391074644,1.368682990856953,0.6951646740387238,0.011212333452236933,1.1789459228515637,3.3999612893790996,3.8000346354636836,-1.0,0.24117397082633382,0.0038899027552632584,0.4090125408009293,-3.0506208113489213,-0.04920356147337006,0.0825311200916063
14/04/2022,21:29:59,36.545031,-0.6187486019916832,2.7695967704057693,2.2587814331054688,2.2587814331054688,2.0206074714660645,3.348850965499878,-0.29613831639289856,2.0206074714660645,3.348850965499878,1.4579637050628662,47.64149306931047,-122.14017274722313,124.2579116821289,7.406944765602115,-9.277110975992985,28.944079969935984,3.2948713120743855,3.8915065253535452,-1.0,-3.7573163918964725,3.777761562386273,2.6733553827307577,1.1841529329675509,0.315930982130266,0.005095661002100904,1.1412185668945325,3.2948713120743855,3.8915065253535452,-1.0,0.11891149392205007,0.0019179273213233278,0.4295368683564432,-7.171099197892908,-0.11566289028859576,3.2438185143743143
14/04/2022,21:29:59,36.74103,-0.21185822132974863,3.4327525179833174,2.1342086791992188,2.2587814331054688,2.2496509552001953,3.428039789199829,-0.8218654990196228,2.2496509552001953,3.428039789199829,1.4579637050628662,47.64149899707647,-122.14016722359766,124.13174438476562,6.554451959999966,-6.801450895479161,23.061693943981318,0.0,0.0,0.0,-20.983495626435467,-0.3384434778457382,13.398382982377708,1.2698590921501676,-0.10154685392026319,-0.0016378524825850782,1.2657913208007825,0.0,0.0,0.0,-0.03687085757873034,-0.0005946912512699125,0.45959879318649854,-20.946624768856736,-0.33784878659446826,12.938784189191209
14/04/2022,21:29:59,36.933026,0.23465247370768338,4.1029054298996925,1.9943161010742188,2.2587814331054688,2.292609930038452,3.2710440158843994,-0.3768196105957031,2.292609930038452,3.428039789199829,1.4579637050628662,47.64150497762495,-122.14016117874537,123.9931640625,-2.5347706984052425,13.030717136372468,17.42294053719521,0.0,0.0,0.0,-25.45361168166715,-0.41054212389786643,10.852171476051701,1.5126887455913738,-0.5587475281108234,-0.009012056905013388,1.4056838989257825,0.0,0.0,0.0,-0.18041237907044627,-0.0029098770817814258,0.45387722301640493,-25.273199302596705,-0.407632246816085,10.398294253035296
14/04/2022,21:29:59,37.127032,0.6236091869650409,4.660760966129601,2.0007858276367188,2.2587814331054688,1.825716257095337,2.527238607406616,0.48884233832359314,2.292609930038452,3.428039789199829,1.4579637050628662,47.64150993770874,-122.14015593712735,124.00223541259766,-6.677370434581698,18.68718224472725,13.785552565964872,0.0,0.0,0.0,-12.659406964352012,-0.2041839832960037,1.5233242692511317,1.6950276919434182,-0.956598412117985,-0.01542900664706437,1.3992141723632825,0.0,0.0,0.0,-0.28057702344434077,-0.004525435862005524,0.41039933024100145,-12.378829940907671,-0.1996585474339982,1.1129249390101303
14/04/2022,21:30:00,37.317028,0.9187739677727222,5.07306866440922,2.1719818115234375,2.2587814331054688,1.3234046697616577,1.790736198425293,1.0955545902252197,2.292609930038452,3.428039789199829,1.4579637050628662,47.641513597756735,-122.14015196714121,124.1752700805664,-6.961186259760585,17.132804370733176,12.392982696602113,0.0,0.0,0.0,-7.145268584380272,-0.1152462674900046,-1.301859790597486,1.7583648970050596,-1.2583348216675465,-0.02029572293012194,1.2280181884765637,0.0,0.0,0.0,-0.3568042636362112,-0.005754907478003469,0.34820789977869443,-6.788464320744061,-0.10949136001200113,-1.6500676903761804
14/04/2022,21:30:00,37.51003,1.142592275282368,5.380028619430959,2.3559799194335938,2.3559799194335938,1.0433354377746582,1.3923958539962769,0.7931320071220398,2.292609930038452,3.428039789199829,1.4579637050628662,47.64151632630221,-122.14014895354558,124.35836791992188,-6.006391591759104,13.981964957540809,12.042295594701736,0.0,0.0,0.0,-5.138063610939195,-0.08287199372482755,-0.4218714830776769,1.8171006649684287,-1.487044598332937,-0.023984590295693664,1.0440200805664075,0.0,0.0,0.0,-0.40867987295957753,-0.006591610854187044,0.28692481339930825,-4.729383737979617,-0.07628038287064051,-0.7087962964769852
14/04/2022,21:30:00,37.701028,1.316170968231745,5.615126756951213,2.4799575805664062,2.4799575805664062,0.8177844285964966,1.0794404745101929,0.5255154967308044,2.292609930038452,3.428039789199829,1.4579637050628662,47.64151841564762,-122.14014661716354,124.4815444946289,-4.927501874030057,10.87703158659606,11.624398553405783,0.0,0.0,-1.0,-4.130011019305444,-0.0666130809565418,-0.9032356597699002,1.9019261497444442,-1.6643690665315483,-0.026844662363412652,0.920042419433595,0.0,0.0,-1.0,-0.437465739605892,-0.007055899025901637,0.24182559360170777,-3.6925452796995524,-0.05955718193064016,-0.14506125337160794
14/04/2022,21:30:00,37.887028,1.454273366369307,5.800557506270707,2.5153274536132812,2.5153274536132812,0.6980535387992859,0.916568398475647,-0.2701665759086609,2.292609930038452,3.428039789199829,1.4579637050628662,47.6415200657203,-122.14014475616995,124.51453399658203,-4.639463180465324,8.85383759095075,8.878185898572525,0.0,0.0,-1.0,-4.378962324144685,-0.07062842458298192,0.9534337075868929,2.0107349474405956,-1.8054255879616126,-0.029119767547768127,0.88467254638672,0.0,0.0,-1.0,-0.44894679852083463,-0.007241077395497378,0.2199874146505324,-3.9300155256238503,-0.06338734718748454,1.7334462929363605
14/04/2022,21:30:00,38.074028,1.572952090180479,5.959287278354168,2.3986740112304688,2.5153274536132812,0.5797129273414612,0.7586244940757751,-0.8351895809173584,2.292609930038452,3.428039789199829,1.4579637050628662,47.64152147768517,-122.14014315758304,124.39617156982422,-4.4825610106080465,6.5990073428645095,2.7594808040160435,0.0,0.0,-1.0,-5.855001320534497,-0.09443550516991422,3.8788307877693518,2.1715279992193577,-1.9266329378183926,-0.031074724803522358,1.0013259887695325,0.0,0.0,-1.0,-0.44406002486492785,-0.007162258465563328,0.23079063725256957,-5.410941295669569,-0.0872732467043509,4.648040150516782
14/04/2022,21:30:01,38.26203,1.667306357063353,6.085111574269831,2.2349166870117188,2.5153274536132812,0.44834527373313904,0.5855413675308228,-0.9146623015403748,2.292609930038452,3.428039789199829,1.4579637050628662,47.64152259560848,-122.14014188821147,124.23217010498047,-4.177613656835277,4.595351998711127,-4.9968438652916225,0.0,0.0,-1.0,-5.8933542100252785,-0.09505410016170242,4.812388291795542,2.3347330959162798,-2.022991561549092,-0.03262889615401843,1.1650833129882825,0.0,0.0,-1.0,-0.43648806413286795,-0.007040130066659337,0.2513826401976432,-5.456866145892411,-0.08801397009504308,5.561005651597899
14/04/2022,21:30:01,38.44703,1.737882285611704,6.1791358618065715,2.066680908203125,2.5153274536132812,0.346816748380661,0.4530177116394043,-0.9525662064552307,2.292609930038452,3.428039789199829,1.4579637050628662,47.64152343089583,-122.14014093887944,124.0638198852539,-3.717711644336608,3.0749888647898875,-12.920622298802838,0.0,0.0,0.0,-5.962759422090915,-0.09617353906598262,6.664962150495198,2.483582111846499,-2.095065261202444,-0.033791375180685534,1.3333190917968762,0.0,0.0,0.0,-0.4313225565896957,-0.006956815428866256,0.2744977018489685,-5.531436865501219,-0.08921672363711637,6.390464448646229
14/04/2022,21:30:01,38.619028,1.790605115937069,6.249454104341567,1.93597412109375,2.5153274536132812,0.24208711087703705,0.3170551657676697,-0.32196757197380066,2.292609930038452,3.428039789199829,1.4579637050628662,47.64152405460927,-122.14014023082906,123.93498229980469,-2.8878313996717835,1.879788540837901,-19.302433335385416,0.0,0.0,0.0,-3.4151351449022838,-0.05508282491777937,2.673501841354851,2.6004576024687,-2.1489082497090433,-0.03465981047917843,1.4640258789062512,0.0,0.0,0.0,-0.43106906428279146,-0.006952726843270893,0.29368227600752983,-2.9840660806194923,-0.04813009807450848,2.3798195653473213
14/04/2022,21:30:01,38.796032,1.8256811214378104,6.2964081494137645,1.9312210083007812,2.5153274536132812,0.17320571839809418,0.22771352529525757,0.10355814546346664,2.292609930038452,3.428039789199829,1.4579637050628662,47.64152447112606,-122.14013975973161,123.93153381347656,-2.219458690134787,1.2755282788408486,-22.579780089133777,0.0,0.0,0.0,-2.935013735915223,-0.047338931224440654,1.5351957969605559,2.6327948001837918,-2.184732259056072,-0.03523761708155071,1.46877899169922,0.0,0.0,0.0,-0.43593407374857696,-0.007031194737880505,0.29307518421704,-2.499079662166646,-0.04030773648656015,1.2421206127435158
14/04/2022,21:30:01,38.970031,1.8522789565613493,6.332129193469882,1.9494171142578125,2.5153274536132812,0.1320897787809372,0.17411814630031586,0.09445852041244507,2.292609930038452,3.428039789199829,1.4579637050628662,47.641524788392466,-122.14013940203148,123.94970703125,-1.6952428830619601,0.9158997058663373,-24.222038991920794,0.0,0.0,0.0,-2.8837800489479117,-0.04651258143464556,1.5310614774410143,2.645366027754238,-2.2118991726962185,-0.035675793108005394,1.4505828857421887,0.0,0.0,0.0,-0.440545437936764,-0.007105571579625597,0.2889135637606362,-2.443234611011148,-0.039407009855019964,1.2421479136803781
14/04/2022,21:30:01,39.15503,1.8729307389585301,6.35993018001318,1.9646682739257812,2.5153274536132812,0.10085062682628632,0.13320590555667877,0.0749671459197998,2.292609930038452,3.428039789199829,1.4579637050628662,47.64152503174708,-122.14013912830258,123.96466827392578,-1.29035348629019,0.6770560647444417,-25.032899959489058,-0.36335085131787903,3.141333500099372,0.0,-3.210966181673753,3.095404220577503,1.5521971594270503,2.65475722874661,-2.232993870407648,-0.036016030167866475,1.43533172607422,-0.36335085131787903,3.141333500099372,0.0,-0.4441750239461766,-0.007164113289454696,0.2855083984996952,-2.4034403064096974,-0.038765166232414196,1.266688760927355
14/04/2022,21:30:02,39.33103,1.8869734011823311,6.389554064720869,1.9911651611328125,2.5153274536132812,0.04865479841828346,0.3150699734687805,0.4335179626941681,2.292609930038452,3.428039789199829,1.4579637050628662,47.641525305247455,-122.14013893501615,123.99244689941406,2.9351846386077756,-11.041348190446522,-25.559327983009304,-1.2550883032054079,4.942140563678553,0.0,-4.173589742363527,4.895067959821162,0.8488817940784973,2.6528161260864533,-2.2475105607692,-0.036250170334987786,1.4088348388671887,-1.2550883032054079,4.942140563678553,0.0,-0.44717884649745915,-0.007212562040281736,0.28031064643115544,-2.47132259266066,-0.03986004181710934,0.5685711476473418
14/04/2022,21:30:02,39.508032,1.8823331677122042,6.503593667410314,2.1288833618164062,2.5153274536132812,-0.13318923115730286,1.1012731790542603,1.1937497854232788,2.292609930038452,3.428039789199829,1.4579637050628662,47.641526323311574,-122.14013898192572,124.1288833618164,4.447303609951517,-22.559973858661365,-26.521147410811164,-1.3378708662502052,4.920376158917012,0.0,-3.9883355307644077,4.877626728844202,-0.9627205962149056,2.579878506633604,-2.244710404178193,-0.036205006519003824,1.271116638183595,-1.3378708662502052,4.920376158917012,0.0,-0.4520075948735849,-0.007290445078606351,0.25595924238588486,-2.1984570696406176,-0.035458984994203684,-1.2186798386007904
14/04/2022,21:30:02,39.683029,1.8338384026428685,6.771359291858971,2.383636474609375,2.5153274536132812,-0.389411985874176,1.98899507522583,1.5881860256195068,2.292609930038452,3.428039789199829,1.5881860256195068,47.64152879061932,-122.1401396034705,124.3884048461914,3.8743602599025677,-23.924676337130823,-26.700246474357794,-1.3532447530910265,4.9161701189270905,0.0,-3.2991765451064703,4.884784122281679,-1.9458130370604196,2.424181703201049,-2.200545928700765,-0.03549267626936814,1.0163635253906262,-1.3532447530910265,4.9161701189270905,0.0,-0.46080217649041916,-0.00743229316920051,0.21283015205321903,-1.4851296155250244,-0.023953703476210765,-2.1586431891136386
14/04/2022,21:30:02,39.855031,1.7446631829952821,7.171331480145454,2.635986328125,2.635986328125,-0.5661246180534363,2.5412492752075195,1.220454216003418,2.292609930038452,3.428039789199829,1.5881860256195068,47.64153234450968,-122.14014071602762,124.635986328125,3.0344727689683944,-21.225026052607703,-26.55732887524412,-1.3409777463866437,4.919530331616606,0.0,-3.1555440975457696,4.8902631324043595,-1.9384651623147378,2.2516980988722946,-2.117843388089176,-0.034158764324018875,0.7640136718750012,-1.3409777463866437,4.919530331616606,0.0,-0.4717767069612842,-0.007609301725181983,0.17019381896590455,-1.3427896441978415,-0.021657897487064204,-2.108658981280642
14/04/2022,21:30:02,40.00603,1.65216534526553,7.553191054612398,2.7862091064453125,2.7862091064453125,-0.68651282787323,2.9055514335632324,0.9043933749198914,2.292609930038452,3.428039789199829,1.5881860256195068,47.64153586744007,-122.1401419184075,124.78893280029297,2.5390402954524203,-18.271047561955235,-26.41554051704057,-1.3287994204471834,4.922833746961117,0.0,-3.085641368260752,4.894497586512507,-1.8848416784148831,2.1224785004275795,-2.0315270305817075,-0.03276656500938202,0.6137908935546887,-1.3287994204471834,4.922833746961117,0.0,-0.4787500872791359,-0.0077217756012763015,0.1446460910620049,-1.2780918605344327,-0.020614384847332815,-2.029487769476888
14/04/2022,21:30:03,40.18003,1.5129193051252514,8.099909598007798,2.918121337890625,2.918121337890625,-0.8163250684738159,3.3010811805725098,0.5933495163917542,2.292609930038452,3.428039789199829,1.5881860256195068,47.6415408106929,-122.14014369655895,124.91990661621094,2.078779796231109,-14.655159337722779,-26.268456133611735,-1.3161576160760284,4.926228692381736,0.0,-1.800765893488539,4.9184124298428245,0.12283327581481315,1.9614927468395824,-1.901132952920143,-0.030663434724518268,0.48187866210937624,-1.3161576160760284,4.926228692381736,0.0,-0.48460827741251067,-0.00781626253891142,0.12283327581481315,-0.0,-0.0,-0.0
14/04/2022,21:30:03,40.354028,1.3520697593921795,8.71062754560262,3.003753662109375,3.003753662109375,-0.9212871789932251,3.6303892135620117,0.38196033239364624,2.292609930038452,3.6303892135620117,1.5881860256195068,47.641546232323975,-122.14014571503874,125.00375366210938,1.8643507107830544,-11.53729897037603,-26.82643335875544,-1.3640687204668183,4.913177843905512,0.0,-1.8508222420043965,4.905326980654905,0.11020299356880711,1.7946903445275633,-1.7501729682525098,-0.028228596262138694,0.39624633789062624,-1.3640687204668183,4.913177843905512,0.0,-0.4867535215375781,-0.007850863250606499,0.11020299356880711,-0.0,-0.0,-0.0
14/04/2022,21:30:03,40.533027,1.1739730759290978,9.373870502226055,3.0588760375976562,3.0588760375976562,-1.0053573846817017,3.8960843086242676,0.24650196731090546,2.292609930038452,3.8960843086242676,1.5881860256195068,47.641552217116576,-122.14014798797271,125.05887603759766,1.6533959969997032,-9.039307875078007,-28.878144206929818,-1.5390931724504564,4.861192467545015,0.0,-2.022419496425259,4.8533968816744535,0.10416501762133104,1.6193603282851328,-1.5828172886890681,-0.02552931110789025,0.341123962402345,-1.5390931724504564,4.861192467545015,0.0,-0.48332632397480263,-0.007795585870561961,0.10416501762133104,0.0,0.0,-0.0
14/04/2022,21:30:03,40.709028,0.9813437807606533,10.078795311041176,3.0947952270507812,3.0947952270507812,-1.0838661193847656,4.1024580001831055,0.163726806640625,2.292609930038452,4.1024580001831055,1.5881860256195068,47.641558578359806,-122.14015044821404,125.09479522705078,0.8656345864142924,-7.2470647877408805,-31.69869020853888,-1.7764378846520448,4.779567809119666,0.0,-2.2472727363675538,4.771973698608125,0.1025260720955764,1.4346279227285244,-1.4016048901244484,-0.022606530485878906,0.30520477294922,-1.7764378846520448,4.779567809119666,0.0,-0.47083485171550915,-0.007594110511540707,0.1025260720955764,0.0,0.0,-0.0
14/04/2022,21:30:03,40.882027,0.7808256591670215,10.789905498735607,3.11883544921875,3.11883544921875,-1.1730178594589233,4.249736309051514,0.12084664404392242,2.292609930038452,4.249736309051514,1.5881860256195068,47.6415651105375,-122.14015305944493,125.11920166015625,-0.32434143197602827,-6.117970644042506,-34.79378344112403,-2.031911224168328,4.676680102070139,0.0,-2.476997857822737,4.669501285398293,0.1032014023081741,1.2449289199069054,-1.2126054550740282,-0.019558152501195636,0.28116455078125124,-2.031911224168328,4.676680102070139,0.0,-0.44508663365440915,-0.007178816671845909,0.1032014023081741,0.0,0.0,0.0
14/04/2022,21:30:03,41.058029,0.5548580498434603,11.548013824038208,3.1386260986328125,3.1386260986328125,-1.2910107374191284,4.352689266204834,0.10498408228158951,2.292609930038452,4.352689266204834,1.5881860256195068,47.64157183908597,-122.1401559087564,125.13862609863281,-1.6758286465506118,-5.415263964814347,-38.187725210606544,-2.305210753488449,4.548186823559606,0.0,-0.28948745985309143,4.580698489585981,0.18961791910700213,1.0326756713107128,-0.9989209884755865,-0.016111628846383397,0.26137390136718874,-2.305210753488449,4.548186823559606,0.0,-0.3961011687446654,-0.006388728528140942,0.10364233908919078,2.411824462380023,0.038900394554515785,0.08597558001781135
14/04/2022,21:30:04,41.229033,0.30982563947327435,12.306963438168168,3.1571731567382812,3.1571731567382812,-1.4348822832107544,4.409637451171875,0.10914458334445953,2.292609930038452,4.409637451171875,1.5881860256195068,47.64157869160457,-122.14015905862313,125.15717315673828,-2.985884203309176,-5.035983768787951,-41.287711544109875,-2.5477969613044493,4.416868873304687,0.0,-0.04834736220271729,4.4571825765160025,0.03128129374685398,0.8038439431401327,-0.7661902448118838,-0.012357907174385119,0.24282684326172,-2.5477969613044493,4.416868873304687,0.0,-0.0,-0.0,0.0,2.499449599101732,0.040313703211315485,0.03128129374685398
14/04/2022,21:30:04,41.408029,0.037439470179378986,13.072120043449104,3.1773605346679688,3.1773605346679688,-1.6035430431365967,4.4271931648254395,0.12115161865949631,2.292609930038452,4.4271931648254395,1.5881860256195068,47.64158572201433,-122.1401626357924,125.17771911621094,-4.130914150442184,-4.7547826472852215,-43.3896080147591,0.0,0.0,0.0,2.5863044846832213,0.041714588462631534,-0.01988707908695242,0.5530701022263689,-0.5062129430593959,-0.008164724888054309,0.2226394653320325,0.0,0.0,0.0,-0.0,-0.0,0.0,2.5863044846832213,0.041714588462631534,-0.01988707908695242
14/04/2022,21:30:04,41.58003,-0.26063637144397944,13.827171198092401,3.2056427001953125,3.2056427001953125,-1.6711901426315308,4.151561260223389,0.4601297080516815,2.292609930038452,4.4271931648254395,1.5881860256195068,47.6415924254324,-122.14016642828004,125.20564270019531,-9.118192410907083,13.044284697128054,-46.56835574112216,0.0,0.0,0.0,3.031748829121673,0.04889917466324918,-0.7367190851145357,0.2938690460613468,-0.22038970154774296,-0.0035546726056114863,0.19435729980468874,0.0,0.0,0.0,-0.0,-0.0,0.0,3.031748829121673,0.04889917466324918,-0.7367190851145357
14/04/2022,21:30:04,41.762031,-0.5414557781768963,14.480782248079777,3.3640899658203125,3.3640899658203125,-1.3623323440551758,3.1980342864990234,1.3523163795471191,2.292609930038452,4.4271931648254395,1.5881860256195068,47.641598420242715,-122.14017012473123,125.36812591552734,-10.471058277498503,20.842274992414815,-48.467794304776994,0.0,0.0,0.0,3.7485517246675624,0.06046051168818018,-3.7458637004740436,0.0614161166456989,0.049817298291558676,0.0008035048111523224,0.03591003417968874,0.0,0.0,0.0,0.0,0.0,0.0,3.7485517246675624,0.06046051168818018,-3.7458637004740436
14/04/2022,21:30:04,41.93003,-0.7581607620231807,14.969621934928,3.6151351928710938,3.6151351928710938,-1.0784560441970825,2.5093464851379395,1.358960509300232,2.292609930038452,4.4271931648254395,1.5881860256195068,47.641602821145035,-122.140172925967,125.61922454833984,-9.344285829413103,20.36969385815369,-48.61748807933493,0.0,0.0,0.0,3.2210080250015865,0.05195174233873505,-4.047712623175651,0.3364014751613278,0.2585834614438416,0.004170700991027232,-0.2151351928710925,0.0,0.0,0.0,0.0,0.0,-0.0,3.2210080250015865,0.05195174233873505,-4.047712623175651
14/04/2022,21:30:04,42.06603,-0.8994385902769864,15.28814523294568,3.7830581665039062,3.7830581665039062,-0.9114383459091187,2.1307456493377686,1.0560741424560547,2.292609930038452,4.4271931648254395,1.5881860256195068,47.64160569069771,-122.14017475296819,125.78623962402344,-8.075502677759212,18.165994603937595,-48.35398922236081,0.0,0.0,0.0,2.3360191176210026,0.03767772770356163,-2.7131434439645634,0.5500482025782548,0.3946884100343573,0.006365942097325217,-0.383058166503905,0.0,0.0,0.0,0.0,0.0,-0.0,2.3360191176210026,0.03767772770356163,-2.7131434439645634
14/04/2022,21:30:05,42.214041,-1.023200533585623,15.569017052650452,3.9139633178710938,3.9139633178710938,-0.7584712505340576,1.7881804704666138,0.7588748931884766,2.292609930038452,4.4271931648254395,1.5881860256195068,47.641608220726326,-122.14017635291661,125.91625213623047,-6.797129339835944,15.449503386336058,-48.03384598945305,0.0,0.0,-2.0,1.9420973535938089,0.031324150864416256,-4.000125133304916,0.7268487144131799,0.5138891531440328,0.008288534728130514,-0.5139633178710925,0.0,0.0,-2.0,0.0,0.0,-0.0,1.9420973535938089,0.031324150864416256,-2.0001251333049157
14/04/2022,21:30:05,42.359027,-1.1257668324979022,15.803634908050299,3.9865951538085938,3.9865951538085938,-0.6641602516174316,1.576050043106079,0.16119889914989471,2.292609930038452,4.4271931648254395,1.5881860256195068,47.64161029347484,-122.14017765326324,125.9865951538086,-6.467497300489894,14.605537171006931,-47.95645944900847,0.0,0.0,-4.0,2.253103556975085,0.03634037995120681,-5.083745506481202,0.8482488725887568,0.612645602034543,0.009881380677978058,-0.5865951538085925,0.0,0.0,-4.0,0.0,0.0,-0.0,2.253103556975085,0.03634037995120681,-1.0837455064812027
14/04/2022,21:30:05,42.53403,-1.2361485501751304,16.057750705629587,3.9415512084960938,3.9865951538085938,-0.5660001039505005,1.3532929420471191,-0.7052128911018372,2.292609930038452,4.4271931648254395,1.5881860256195068,47.64161262723034,-122.14017910784389,125.939453125,-6.568342605224416,14.76292550329094,-47.98998124990562,0.0,0.0,-5.0,2.252823948698783,0.03633587014030054,-3.9167344201756427,0.9001282458781361,0.7189010359230603,0.011595177998756867,-0.5415512084960925,0.0,0.0,-5.0,0.0,0.0,-0.0,2.252823948698783,0.03633587014030054,1.0832655798243576
14/04/2022,21:30:05,42.704032,-1.3273003156064078,16.26933389995247,3.7529525756835938,3.9865951538085938,-0.4673321545124054,1.1282554864883423,-1.5213550329208374,2.292609930038452,4.4271931648254395,1.5881860256195068,47.64161453382544,-122.14018028608986,125.7484130859375,-6.282541506349141,14.111886942474808,-47.92087490817685,0.0,0.0,-5.0,1.7830785426753406,0.028759331333470115,-2.1864950185050693,0.8805545577991313,0.8066173501674847,0.013009957260766924,-0.3529525756835925,0.0,0.0,-5.0,0.0,0.0,-0.0,1.7830785426753406,0.028759331333470115,2.8135049814949307
14/04/2022,21:30:05,42.874029,-1.4024894250323996,16.44579112995416,3.4225311279296875,3.9865951538085938,-0.37156352400779724,0.9086740612983704,-2.2908339500427246,2.292609930038452,4.4271931648254395,1.5881860256195068,47.6416161229261,-122.14018125713613,125.41567993164062,-5.283185812479888,11.849374269212653,-47.6875196804584,0.0,0.0,-5.0,4.559004002591254,0.0735323226224347,8.051301431217883,0.8793445802593665,0.8789415604076427,0.01417647678076861,-0.022531127929686257,0.0,0.0,-5.0,0.0,0.0,-0.0,4.559004002591254,0.0735323226224347,13.051301431217883
14/04/2022,21:30:05,43.050031,-1.461682043154724,16.586568182334304,2.96484375,3.9865951538085938,-0.2897298336029053,0.718585193157196,-2.9789133071899414,2.292609930038452,4.4271931648254395,1.5881860256195068,47.6416173708352,-122.14018200944307,124.96484375,-4.086369385473897,9.073703543875993,-47.4534393126654,0.0,0.0,-5.0,11.748218855685225,0.18948740089816224,43.92207427511805,1.032182994337893,0.9358487767443516,0.01509433510878111,0.43515625000000124,0.0,0.0,-5.0,0.37114287565481036,0.005986175413787757,0.17257611058274944,11.377075980030416,0.18350122548437448,48.7494981645353
14/04/2022,21:30:06,43.22603,-1.5076833959901705,16.697441992349923,2.3950119018554688,3.9865951538085938,-0.22458502650260925,0.564188539981842,-3.5757641792297363,2.292609930038452,4.4271931648254395,1.5881860256195068,47.64161837292743,-122.1401826054532,124.39501190185547,-3.0259690253326563,6.608393610221469,-47.29377956035225,0.0,0.0,-4.0,21.844600792184576,0.3523322708416765,120.69481257904029,1.403833901407091,0.9800503434747778,0.015807263604429522,1.0049880981445325,0.0,0.0,-4.0,0.334269814498448,0.005391448620941898,0.34277543738095373,21.510330977686127,0.34694082222073463,124.35203714165934
14/04/2022,21:30:06,43.400033,-1.5434655481949449,16.784655365161598,1.7291488647460938,3.9865951538085938,-0.17631378769874573,0.44719308614730835,-4.079855442047119,2.292609930038452,4.4271931648254395,1.5881860256195068,47.64161916113334,-122.14018306891649,123.7291488647461,-2.0305506593711082,4.350637501151915,-47.18819523320344,0.0,0.0,0.0,34.49762933082213,0.5564133763035171,249.27961466956296,1.9547513498425104,1.0144168880679711,0.016361562710773825,1.6708511352539075,0.0,0.0,0.0,0.259469853349884,0.004184997634675573,0.42737409454954717,34.238159477472244,0.5522283786688414,248.8522405750134
14/04/2022,21:30:06,43.573028,-1.5693923488724977,16.848470706492662,1.08984375,3.9865951538085938,-0.11599251627922058,0.2975675165653229,-3.0675010681152344,2.292609930038452,4.4271931648254395,1.5881860256195068,47.64161974590101,-122.140183409294,123.08060455322266,-1.0557163773600997,2.20674591398646,-47.124912557664,0.0,0.0,0.0,21.23532185648275,0.3425051912335983,141.200327361749,2.533231904066719,1.039307933748592,0.016763031189494626,2.3101562500000012,0.0,0.0,0.0,0.21135516984844044,0.0034089543523944457,0.46979672793809074,21.023966686634306,0.3390962368812038,140.7305306338109
14/04/2022,21:30:06,43.744029,-1.5868880233028904,16.89190005045384,0.6619949340820312,3.9865951538085938,-0.07790455222129822,0.2007187008857727,-1.745543122291565,2.292609930038452,4.4271931648254395,1.5881860256195068,47.641620130317975,-122.14018363113193,122.66199493408203,-0.6797767285574682,1.40612878595059,-47.10849772924221,0.0,0.0,0.0,8.474725833520475,0.13668912634707292,43.255646810509916,2.9346731501766286,1.0560987668265729,0.017033851077844275,2.73800506591797,0.0,0.0,0.0,0.20931954103115907,0.003376121629534095,0.5426745885340593,8.265406292489317,0.13331300471753882,42.71297222197585
14/04/2022,21:30:06,43.892027,-1.5968696514610201,16.916738921776414,0.4799957275390625,3.9865951538085938,-0.05676361173391342,0.14641636610031128,-0.7484190464019775,2.292609930038452,4.4271931648254395,1.5881860256195068,47.64162035478267,-122.14018376034225,122.47999572753906,-0.5323310648489225,1.0974560331349195,-47.10331312392245,0.0,0.0,0.0,3.0424479321115157,0.049071740840506486,11.219307122938016,3.1084382650106845,1.0656772762200322,0.017188343164839637,2.9200042724609387,0.0,0.0,0.0,0.21810619870683512,0.003517841914626457,0.5976209179698012,2.8243417334046805,0.04555389892588003,10.621686204968215
14/04/2022,21:30:06,44.055033,-1.6050460927654058,16.93709588609636,0.4446868896484375,3.9865951538085938,-0.038392193615436554,0.09908308833837509,0.2816947102546692,2.292609930038452,4.4271931648254395,1.5881860256195068,47.64162054141537,-122.14018386772284,122.44551849365234,-0.414193222522294,0.852632792244109,-47.10004902514793,0.0,0.0,0.0,1.363029481157522,0.021984346470285254,2.990338378843379,3.144300835405639,1.0735233382710652,0.017314892552757755,2.9553131103515637,0.0,0.0,0.0,0.22186673787445027,0.003578495772168271,0.6107791566481396,1.1411627432830718,0.018405850698116982,2.379559222195239
14/04/2022,21:30:07,44.202029,-1.610025248141028,16.949499525129795,0.493927001953125,3.9865951538085938,-0.030442431569099426,0.07856886088848114,0.36105072498321533,2.292609930038452,4.4271931648254395,1.5881860256195068,47.64162065295725,-122.14018393185609,122.49501037597656,-0.3351836361909755,0.6896082923961601,-47.09839683452832,0.0,0.0,0.0,1.3971067319861539,0.02253397954816581,2.8547991579506258,3.0997251831034727,1.078301192014581,0.017391954709914614,2.9060729980468762,0.0,0.0,0.0,0.22020176030825167,0.0035516412952947937,0.5934542171456186,1.176904971677902,0.018982338252871017,2.261344940805007
14/04/2022,21:30:07,44.368029,-1.6146979668410495,16.96114489529282,0.55029296875,3.9865951538085938,-0.023622989654541016,0.06096084788441658,0.3060416877269745,2.292609930038452,4.4271931648254395,1.5881860256195068,47.641620756070324,-122.14018399112042,122.55029296875,-0.25907015812752116,0.5328294554418238,-47.097182270377644,0.0,0.0,0.0,1.3730604117504381,0.022146135673393286,2.865283255655523,3.0485338014429533,1.082784915742221,0.017464272834551764,2.8497070312500012,0.0,0.0,0.0,0.21853587056567308,0.003524772105897915,0.5751495037261862,1.154524541184765,0.018621363567495372,2.290133751929337
14/04/2022,21:30:07,44.515029,-1.6178625914035365,16.969026183709502,0.5911712646484375,3.9865951538085938,-0.019112208858132362,0.04931050166487694,0.26180100440979004,2.292609930038452,4.4271931648254395,1.5881860256195068,47.641620827291945,-122.14018403208497,122.59117126464844,-0.20830425971724392,0.4283734215222187,-47.09658998857118,0.0,0.0,0.0,1.3556200948578003,0.02186484023963748,2.8798228871410645,3.0114505137405994,1.0858216327607817,0.017513252141302615,2.8088287353515637,0.0,0.0,0.0,0.21759142790264005,0.0035095391597199377,0.5628705828093981,1.1380286669551603,0.018355301079917542,2.3169523043316667
14/04/2022,21:30:07,44.782029,-1.6221149645280093,16.979611912742257,0.6504592895507812,3.9865951538085938,-0.012869755737483501,0.03318711742758751,0.19503256678581238,2.292609930038452,4.4271931648254395,1.5881860256195068,47.64162092383913,-122.1401840876466,122.65104675292969,-0.13847947701437952,0.28482311225938106,-47.096014724769844,0.0,0.0,0.0,1.332759917107003,0.021496127695271598,2.9092852408751977,2.9577305425579943,1.0899022067765014,0.017579067851233532,2.74954071044922,0.0,0.0,0.0,0.2166175761657148,0.0034938318736404896,0.5464699865394462,1.1161423409412883,0.01800229582163111,2.3628152543357515
14/04/2022,21:30:07,44.932029,-1.6239682650193572,16.984225058928132,0.6784744262695312,3.9865951538085938,-0.010197978466749191,0.026287991553544998,0.1637902855873108,2.292609930038452,4.4271931648254395,1.5881860256195068,47.641620965344906,-122.14018411152948,122.67896270751953,-0.10894319147293698,0.22412820081603682,-47.095843275898055,0.0,0.0,0.0,1.3238896738208479,0.021353059255177317,2.925351581170246,2.9323673199391163,1.0916806390327347,0.017607752242462027,2.72152557373047,0.0,0.0,0.0,0.21631760903580308,0.003488993694125572,0.5392730107962596,1.1075720647850449,0.017864065561051745,2.3860785703739866
14/04/2022,21:30:07,45.101031,-1.625560810789466,16.988188032992184,0.70404052734375,3.9865951538085938,-0.007908692583441734,0.020378436893224716,0.13517533242702484,2.292609930038452,4.4271931648254395,1.5881860256195068,47.641621000454144,-122.14018413173623,122.70404052734375,-0.0838867462398809,0.1726355314914427,-47.095765649819036,0.0,0.0,0.0,1.3167675410664315,0.021238186146233552,2.941695781388569,2.9092291091476916,1.093208868304081,0.017632401101678852,2.6959594726562512,0.0,0.0,0.0,0.21613158496970913,0.003485993305963075,0.533001524899102,1.1006359560967223,0.017752192840270478,2.408694256489467
14/04/2022,21:30:08,45.249032,-1.6266016019508243,16.990775706246495,0.7217254638671875,3.9865951538085938,-0.006416935008019209,0.01652895286679268,0.11531095206737518,2.292609930038452,4.4271931648254395,1.5881860256195068,47.64162102428153,-122.14018414546682,122.72207641601562,-0.0677117224739569,0.13938456091738521,-47.09572255168551,0.0,0.0,0.0,1.3124043265966203,0.021167811719300822,2.954020766241931,2.8932259452944318,1.0942076629679287,0.017648510693025088,2.6782745361328137,0.0,0.0,0.0,0.21605084938151486,0.0034846911190555023,0.5288241967149678,1.0963534772151053,0.01768312060024532,2.425196569526963
14/04/2022,21:30:08,45.419029,-1.6276045709382743,16.993268228136003,0.739715576171875,3.9865951538085938,-0.004983238875865936,0.012830709107220173,0.0950537770986557,2.292609930038452,4.4271931648254395,1.5881860256195068,47.641621046714974,-122.14018415839377,122.74000549316406,-0.05229219421146743,0.10768561750358037,-47.09569431185951,0.0,0.0,0.0,1.308458502850788,0.02110416940081869,2.967447739190621,2.8769468114781622,1.095170179594875,0.017664035154755453,2.6602844238281262,0.0,0.0,0.0,0.2160080742940316,0.003484001198290715,0.5247065033108304,1.0924504285567564,0.017620168202527976,2.4427412358797906
14/04/2022,21:30:08,45.592032,-1.6283842282136902,16.995204286649823,0.7545394897460938,3.9865951538085938,-0.0038724427577108145,0.009965935721993446,0.07823512703180313,2.292609930038452,4.4271931648254395,1.5881860256195068,47.64162106385925,-122.14018416828628,122.7545394897461,-0.04140773298316066,0.08283429884756414,-47.7457115535783,0.6724222090348577,0.7401678004322277,0.0,1.9780038431063591,0.7612255687237038,2.9793606660344083,2.863531199290944,1.0959184154697363,0.017676103475317007,2.6454605102539075,0.6724222090348577,0.7401678004322277,0.0,0.2160018167685157,0.00348390027045967,0.5214113280132106,1.0895798173029856,0.017573868021016445,2.457949338021198
