date,fly_time,fly_time_s,x,y,z,z_max,vx,vy,vz,vx_max,vy_max,vz_max,latitude,longitude,altitude,pitch,roll,yaw,cx,cy,cz,scx,scy,scz,d,dx,dy,dz,gc_pow_x,gc_pow_y,gc_pow_z,gpc_pow_x,gpc_pow_y,gpc_pow_z,gfc_pow_x,gfc_pow_y,gfc_pow_z
22/04/2022,12:55:20,15.005988,0.0,0.0,0.14028167724609375,0.14028167724609375,0.0,0.0,-0.0,0,0,0,47.641468,-122.140165,122.1402816772461,0.0,0.0,0.0,0.0,0.0,0.0,-0.3336524005903723,-0.005381490332102874,4.2155961530015995,3.2699149098546503,-0.25799739921976594,-0.004161248374512427,3.2597183227539075,0.0,0.0,0.0,-0.055608733431728716,-0.000896915055350479,0.7025993588335999,-0.2780436671586436,-0.004484575276752395,3.5129967941679996
22/04/2022,12:55:20,15.195993,0.0,0.0,0.14028167724609375,0.14028167724609375,0.0,0.0,-0.0,0,0,0,47.641468,-122.140165,122.1402816772461,0.0,0.0,0.0,0.0,0.0,0.0,-0.3336524005903723,-0.005381490332102874,4.2155961530015995,3.2699149098546503,-0.25799739921976594,-0.004161248374512427,3.2597183227539075,0.0,0.0,0.0,-0.055608733431728716,-0.000896915055350479,0.7025993588335999,-0.2780436671586436,-0.004484575276752395,3.5129967941679996
22/04/2022,12:55:21,15.389024,0.0,0.0,0.14028167724609375,0.14028167724609375,0.0,0.0,-0.0,0,0,0,47.641468,-122.140165,122.1402816772461,0.0,0.0,0.0,0.0,0.0,0.0,-0.3336524005903723,-0.005381490332102874,4.2155961530015995,3.2699149098546503,-0.25799739921976594,-0.004161248374512427,3.2597183227539075,0.0,0.0,0.0,-0.055608733431728716,-0.000896915055350479,0.7025993588335999,-0.2780436671586436,-0.004484575276752395,3.5129967941679996
22/04/2022,12:55:21,15.572985,0.0,0.0,0.14028167724609375,0.14028167724609375,0.0,0.0,-0.0,0,0,0,47.641468,-122.140165,122.1402816772461,0.0,0.0,0.0,0.0,0.0,0.0,-0.3336524005903723,-0.005381490332102874,4.2155961530015995,3.2699149098546503,-0.25799739921976594,-0.004161248374512427,3.2597183227539075,0.0,0.0,0.0,-0.055608733431728716,-0.000896915055350479,0.7025993588335999,-0.2780436671586436,-0.004484575276752395,3.5129967941679996
22/04/2022,12:55:21,15.737023,0.0,0.0,0.14028167724609375,0.14028167724609375,0.0,0.0,-0.0,0,0,0,47.641468,-122.140165,122.1402816772461,0.0,0.0,0.0,0.0,0.0,0.0,-0.3336524005903723,-0.005381490332102874,4.2155961530015995,3.2699149098546503,-0.25799739921976594,-0.004161248374512427,3.2597183227539075,0.0,0.0,0.0,-0.055608733431728716,-0.000896915055350479,0.7025993588335999,-0.2780436671586436,-0.004484575276752395,3.5129967941679996
22/04/2022,12:55:21,15.918985,0.0,0.0,0.14028167724609375,0.14028167724609375,0.0,0.0,-0.0,0,0,0,47.641468,-122.140165,122.1402816772461,0.0,0.0,0.0,0.0,0.0,0.0,-0.3336524005903723,-0.005381490332102874,4.2155961530015995,3.2699149098546503,-0.25799739921976594,-0.004161248374512427,3.2597183227539075,0.0,0.0,0.0,-0.055608733431728716,-0.000896915055350479,0.7025993588335999,-0.2780436671586436,-0.004484575276752395,3.5129967941679996
22/04/2022,12:55:21,16.074024,0.0,0.0,0.14028167724609375,0.14028167724609375,0.0,0.0,-0.0,0,0,0,47.641468,-122.140165,122.1402816772461,0.0,0.0,0.0,0.0,0.0,0.0,-0.3336524005903723,-0.005381490332102874,4.2155961530015995,3.2699149098546503,-0.25799739921976594,-0.004161248374512427,3.2597183227539075,0.0,0.0,0.0,-0.055608733431728716,-0.000896915055350479,0.7025993588335999,-0.2780436671586436,-0.004484575276752395,3.5129967941679996
22/04/2022,12:55:21,16.269987,0.0,0.0,0.14028167724609375,0.14028167724609375,0.0,0.0,-0.0,0,0,0,47.641468,-122.140165,122.1402816772461,0.0,0.0,0.0,0.0,0.0,0.0,-0.3336524005903723,-0.005381490332102874,4.2155961530015995,3.2699149098546503,-0.25799739921976594,-0.004161248374512427,3.2597183227539075,0.0,0.0,0.0,-0.055608733431728716,-0.000896915055350479,0.7025993588335999,-0.2780436671586436,-0.004484575276752395,3.5129967941679996
22/04/2022,12:55:22,16.452997,0.0,0.0,0.14028167724609375,0.14028167724609375,0.0,0.0,-0.0,0,0,0,47.641468,-122.140165,122.1402816772461,0.0,0.0,0.0,0.0,0.0,0.0,-0.3336524005903723,-0.005381490332102874,4.2155961530015995,3.2699149098546503,-0.25799739921976594,-0.004161248374512427,3.2597183227539075,0.0,0.0,0.0,-0.055608733431728716,-0.000896915055350479,0.7025993588335999,-0.2780436671586436,-0.004484575276752395,3.5129967941679996
22/04/2022,12:55:22,16.607985,0.0,0.0,0.14028167724609375,0.14028167724609375,0.0,0.0,-0.0,0,0,0,47.641468,-122.140165,122.1402816772461,0.0,0.0,0.0,0.0,0.0,0.0,-0.3336524005903723,-0.005381490332102874,4.2155961530015995,3.2699149098546503,-0.25799739921976594,-0.004161248374512427,3.2597183227539075,0.0,0.0,0.0,-0.055608733431728716,-0.000896915055350479,0.7025993588335999,-0.2780436671586436,-0.004484575276752395,3.5129967941679996
22/04/2022,12:55:22,16.76599,0.0,0.0,0.14028167724609375,0.14028167724609375,0.0,0.0,-0.0,0,0,0,47.641468,-122.140165,122.1402816772461,0.0,0.0,0.0,0.0,0.0,0.0,-0.3336524005903723,-0.005381490332102874,4.2155961530015995,3.2699149098546503,-0.25799739921976594,-0.004161248374512427,3.2597183227539075,0.0,0.0,0.0,-0.055608733431728716,-0.000896915055350479,0.7025993588335999,-0.2780436671586436,-0.004484575276752395,3.5129967941679996
22/04/2022,12:55:22,16.92599,0.0,0.0,0.14028167724609375,0.14028167724609375,0.0,0.0,-0.0,0,0,0,47.641468,-122.140165,122.1402816772461,0.0,0.0,0.0,0.0,0.0,0.0,-0.3336524005903723,-0.005381490332102874,4.2155961530015995,3.2699149098546503,-0.25799739921976594,-0.004161248374512427,3.2597183227539075,0.0,0.0,0.0,-0.055608733431728716,-0.000896915055350479,0.7025993588335999,-0.2780436671586436,-0.004484575276752395,3.5129967941679996
22/04/2022,12:55:22,17.079986,0.0,0.0,0.14028167724609375,0.14028167724609375,0.0,0.0,-0.0,0,0,0,47.641468,-122.140165,122.1402816772461,0.0,0.0,0.0,0.0,0.0,0.0,-0.3336524005903723,-0.005381490332102874,4.2155961530015995,3.2699149098546503,-0.25799739921976594,-0.004161248374512427,3.2597183227539075,0.0,0.0,0.0,-0.055608733431728716,-0.000896915055350479,0.7025993588335999,-0.2780436671586436,-0.004484575276752395,3.5129967941679996
22/04/2022,12:55:26,20.648985,0.0,0.0,1.6786041259765625,1.6786041259765625,0.0,0.0,-0.01777995005249977,0,0,0,47.641468,-122.140165,123.67855072021484,0.0,0.0,0.0,0.0,0.0,0.0,-0.4362456661209309,-0.007036220421305462,2.9606429392307643,1.7406273952506655,-0.25799739921976594,-0.004161248374512427,1.7213958740234387,0.0,0.0,0.0,-0.07385182978639904,-0.0011911585449419409,0.4927500644109164,-0.36239383633453187,-0.005845061876363521,2.4678928748198476
22/04/2022,12:55:26,21.142984,0.0,0.0,1.6642684936523438,1.6786041259765625,0.0,0.0,-0.024768134579062462,0,0,0,47.641468,-122.140165,123.66419982910156,0.0,0.0,0.0,0.0,0.0,0.0,-0.4303261497998588,-0.006940744351610748,2.963660304211354,1.7548059254858088,-0.25799739921976594,-0.004161248374512427,1.7357315063476575,0.0,0.0,0.0,-0.07329493317678733,-0.0011821763415611067,0.49310700478119096,-0.35703121662307147,-0.005758568010049641,2.470553299430163
22/04/2022,12:55:33,28.021014,0.0,0.0,1.6238021850585938,1.6786041259765625,0.0,0.0,-0.003031670581549406,0,0,0,47.641468,-122.140165,123.62379455566406,0.0,0.0,0.0,0.0,0.0,0.0,-0.4293439404771823,-0.006924902265761127,2.9642469221016645,1.7948422359067742,-0.25799739921976594,-0.004161248374512427,1.7761978149414075,0.0,0.0,0.0,-0.07174776450800127,-0.0011572220081935893,0.49395157831606196,-0.35759617596918103,-0.0057676802575675375,2.470295343785603
22/04/2022,12:55:33,28.176001,0.0,0.0,1.6233444213867188,1.6786041259765625,0.0,0.0,-0.0030299571808427572,0,0,0,47.641468,-122.140165,123.62333679199219,0.0,0.0,0.0,0.0,0.0,0.0,-0.42924121406371213,-0.006923245388124512,2.9642945404826646,1.7952952456378575,-0.25799739921976594,-0.004161248374512427,1.7766555786132825,0.0,0.0,0.0,-0.07173048048897636,-0.0011569432336931878,0.4939598565828779,-0.3575107335747358,-0.0057663021544313246,2.470334683899787
22/04/2022,12:55:34,28.334987,0.0,0.0,1.62286376953125,1.6786041259765625,0.0,0.0,-0.0030283736996352673,0,0,0,47.641468,-122.140165,123.62285614013672,0.0,0.0,0.0,0.0,0.0,0.0,-0.42913330251149684,-0.006921504879217814,2.9643444096959555,1.7957709084504292,-0.25799739921976594,-0.004161248374512427,1.7771362304687512,0.0,0.0,0.0,-0.07171233765803212,-0.0011566506073876354,0.49396851987310164,-0.35742096485346475,-0.005764854271830179,2.470375889822854
22/04/2022,12:55:34,28.495984,0.0,0.0,1.6223831176757812,1.6786041259765625,0.0,0.0,-0.0030270954594016075,0,0,0,47.641468,-122.140165,123.62238311767578,0.0,0.0,0.0,0.0,0.0,0.0,-0.429025309336684,-0.0069197630538176055,2.964394160131845,1.796246573919148,-0.25799739921976594,-0.004161248374512427,1.77761688232422,0.0,0.0,0.0,-0.07169420035246377,-0.0011563580702010489,0.49397715363291417,-0.3573311089842202,-0.005763404983616557,2.470417006498931
22/04/2022,12:55:34,28.660985,0.0,0.0,1.6218948364257812,1.6786041259765625,0.0,0.0,-0.0030258926562964916,0,0,0,47.641468,-122.140165,123.62188720703125,0.0,0.0,0.0,0.0,0.0,0.0,-0.42891560001004936,-0.006917993548549306,2.9644445413761407,1.7967297923509538,-0.25799739921976594,-0.004161248374512427,1.77810516357422,0.0,0.0,0.0,-0.07167578081590906,-0.0011560609809017793,0.4939858942664016,-0.35723981919414033,-0.005761932567647526,2.470458647109739
22/04/2022,12:55:34,28.849988,0.0,0.0,1.621307373046875,1.6786041259765625,0.0,0.0,-0.0030249031260609627,0,0,0,47.641468,-122.140165,123.62130737304688,0.0,0.0,0.0,0.0,0.0,0.0,-0.4287834795940439,-0.006915862574097604,2.964505000589035,1.7973111681535867,-0.25799739921976594,-0.004161248374512427,1.7786926269531262,0.0,0.0,0.0,-0.07165362738237169,-0.0011557036674576283,0.4939963701374664,-0.3571298522116722,-0.005760158906639975,2.4705086304515684
22/04/2022,12:55:34,29.008992,0.0,0.0,1.6208419799804688,1.6786041259765625,0.0,0.0,-0.0030241787899285555,0,0,0,47.641468,-122.140165,123.62083435058594,0.0,0.0,0.0,0.0,0.0,0.0,-0.4286788257880563,-0.006914174609484901,2.964552725745589,1.7977717414043477,-0.25799739921976594,-0.004161248374512427,1.7791580200195325,0.0,0.0,0.0,-0.07163608313581632,-0.0011554206957389934,0.49400463810609274,-0.35704274265223995,-0.005758753913745908,2.470548087639496
22/04/2022,12:55:34,29.207984,0.0,0.0,1.6202468872070312,1.6786041259765625,0.0,0.0,-0.00302325957454741,0,0,0,47.641468,-122.140165,123.6202392578125,0.0,0.0,0.0,0.0,0.0,0.0,-0.4285450491865336,-0.0069120169223635675,2.964613519640497,1.7983606747503305,-0.25799739921976594,-0.004161248374512427,1.77975311279297,0.0,0.0,0.0,-0.07161365708498924,-0.0011550589852417823,0.49401517031158215,-0.35693139210154434,-0.005756957937121785,2.4705983493289145
22/04/2022,12:55:35,29.401984,0.0,0.0,1.619659423828125,1.6786041259765625,0.0,0.0,-0.0030226537492126226,0,0,0,47.641468,-122.140165,123.61964416503906,0.0,0.0,0.0,0.0,1.0,0.0,-0.42841292480915516,0.9930901141159812,2.964673329187632,1.7989420616451786,-0.25799739921976594,-0.004161248374512427,1.7803405761718762,0.0,1.0,0.0,-0.07159152689580649,-0.0011547020467065764,0.49402552362217605,-0.35682139791334866,-0.005755183837312177,2.470647805565456
22/04/2022,12:55:35,29.569002,-1.9314000383019447e-05,0.0017415480688214302,1.6208572387695312,1.6786041259765625,-5.065343110233211e-12,0.044582389295101166,0.03661821037530899,0,0.044582389295101166,0.03661821037530899,47.641468016845366,-122.140165,123.62096405029297,-1.3461603777939607e-10,-3.6925409923420816,-7.133704893293533e-09,-2.490132765072058e-10,2.0,0.0,-0.4459753219679677,1.9928068496496942,2.9553551314759736,1.7977578999999901,-0.2580061724220532,-0.004161389877775035,1.77914276123047,-2.490132765072058e-10,2.0,0.0,-0.07163904631129983,-0.001155468488891928,0.4940040366852445,-0.3743362754076546,-0.006037681861413906,2.461351094790729
22/04/2022,12:55:35,29.760987,-0.0003183374647051096,0.028704598546028137,1.6461868286132812,1.6786041259765625,-4.0072306584093553e-11,0.2841402292251587,0.24618105590343475,0,0.2841402292251587,0.24618105590343475,47.641468265868255,-122.140165,123.64691925048828,-2.3738101762839346e-09,-9.255799047742316,1.0602104114281251e-08,5.551248733003351e-10,3.0,0.0,-0.5537054514168082,2.991069266903678,2.763726725283026,1.772714096657765,-0.2581420015332971,-0.004163580669891975,1.75381317138672,5.551248733003351e-10,3.0,0.0,-0.07263884673870209,-0.001171594302237155,0.4935073153844926,-0.48106660523323097,-0.007759138794085079,2.2702194098985338
22/04/2022,12:55:35,29.923986,-0.0011240211315453053,0.1013533715158701,1.706512451171875,1.706512451171875,-8.96395110916437e-12,0.6581307649612427,0.5229801535606384,0,0.6581307649612427,0.5229801535606384,47.64146892959309,-122.140165,123.70807647705078,-9.115451353583227e-09,-13.61942665208663,5.4855718648090704e-08,2.8722387118705063e-09,3.0,0.0,-0.07509361131363793,2.9987888126744213,0.4919387868238416,1.713109405973061,-0.2585079770622429,-0.00416948350100399,1.6934875488281262,2.8722387118705063e-09,3.0,0.0,-0.07509361418587664,-0.0012111873255786765,0.4919387868238416,-0.0,-0.0,0.0
22/04/2022,12:55:35,30.119985,-0.0030191297410055995,0.2722359737381339,1.8108901977539062,1.8108901977539062,2.2468898963623474e-10,1.1282802820205688,0.5120835900306702,2.2468898963623474e-10,1.1282802820205688,0.5229801535606384,47.64147047985254,-122.140165,123.81242370605469,-1.9120938753547188e-08,-13.948182649402572,1.1927188794824504e-07,0.0,0.0,0.0,-0.07958769327291268,-0.0012836724721437631,0.487620623427725,1.6101427410707962,-0.259368815512962,-0.004183367992144582,1.589109802246095,0.0,0.0,0.0,-0.07958769327291268,-0.0012836724721437631,0.487620623427725,-0.0,-0.0,0.0
22/04/2022,12:55:35,30.307987,-0.005742896348237991,0.5178389251232147,1.8610992431640625,1.8610992431640625,3.611311250040217e-11,1.3150920867919922,-0.037559058517217636,2.2468898963623474e-10,1.3150920867919922,0.5229801535606384,47.64147269487692,-122.140165,123.86099243164062,-4.8579288104177926e-08,0.36731046420254226,1.4614032386899327e-07,0.0,0.0,0.0,-0.5391354680445953,-0.008695733355558018,2.919184533346141,1.5608166863590722,-0.2606060649661931,-0.004203323628486855,1.5389007568359387,0.0,0.0,0.0,-0.08206948665652408,-0.0013237013976858311,0.4846272290142044,-0.45706598138807125,-0.007372031957872186,2.434557304331937
22/04/2022,12:55:36,30.470986,-0.007994507905095816,0.7208674950525165,1.8620681762695312,1.8620681762695312,-2.4006907572982072e-09,1.213387370109558,0.06403502821922302,2.2468898963623474e-10,1.3150920867919922,0.5229801535606384,47.64147451899516,-122.140165,123.86225891113281,-1.0335494645570357e-07,5.627386397278672,1.425565624576809e-07,0.0,0.0,0.0,-0.5858379368612305,-0.009448998981632652,2.8443481508456236,1.560032612521012,-0.2616288416920852,-0.004219820027292043,1.53793182373047,0.0,0.0,0.0,-0.0824253648369898,-0.001329441368338654,0.484520708212255,-0.5034125720242407,-0.008119557613293998,2.3598274426333687
22/04/2022,12:55:36,30.663987,-0.010353381745517254,0.9335677735507488,1.8797988891601562,1.8797988891601562,-7.497511944620783e-09,0.9948585033416748,0.10219927132129669,2.2468898963623474e-10,1.3150920867919922,0.5229801535606384,47.64147642695586,-122.14016500000002,123.88011169433594,-1.6567256038976152e-07,6.7728244637914905,1.7300384900674075e-07,1.509743391895374e-08,5.0,0.0,-0.5998094118809327,4.990325654403574,2.787822571446878,1.5427380978048233,-0.26270033875952614,-0.004237102238056956,1.520201110839845,1.509743391895374e-08,5.0,0.0,-0.08351290436591209,-0.0013469823284824795,0.4832746336986502,-0.5162965226124545,-0.008327363267943486,2.304547937748228
22/04/2022,12:55:36,30.826985,-0.012056301347911358,1.0871205972507596,1.885650634765625,1.885650634765625,-1.330780463604242e-08,1.0093154907226562,0.16786889731884003,2.2468898963623474e-10,1.3150920867919922,0.5229801535606384,47.64147778174148,-122.14016500000002,123.88565063476562,-2.533361891066184e-07,-9.978898686243665,2.556166638136473e-07,2.2306762032557947e-08,5.0,0.0,-0.6341263362266237,4.989772155507526,2.673122153172323,1.5371045971028328,-0.26347387637143715,-0.004249578651152497,1.5143493652343762,2.2306762032557947e-08,5.0,0.0,-0.0840044699026089,-0.0013549108048808796,0.4828262954408673,-0.5501218886307768,-0.008872933687592946,2.1902958577314555
22/04/2022,12:55:36,30.993988,-0.014458702993579209,1.3037455938756466,1.9862136840820312,1.9862136840820312,-2.3884245692329387e-08,1.7017550468444824,1.020996332168579,2.2468898963623474e-10,1.7017550468444824,1.020996332168579,47.64147977658213,-122.14016500000008,123.98926544189453,-3.7815832438588026e-07,-19.557254814567983,3.054103063091913e-07,2.6652077073098997e-08,5.0,0.0,-0.08871010176069363,4.9985691914772135,0.4740502263353117,1.4383339912797373,-0.26456514239609147,-0.00426717971606605,1.41378631591797,2.6652077073098997e-08,5.0,0.0,-0.0887101284127707,-0.0014308085227866438,0.4740502263353117,-0.0,-0.0,-0.0
22/04/2022,12:55:36,31.185986,-0.018839531927369535,1.6987658506259322,2.1951980590820312,2.1951980590820312,-3.5608838544476384e-08,2.3993685245513916,1.0339117050170898,2.2468898963623474e-10,2.3993685245513916,1.0339117050170898,47.64148334976849,-122.14016500000015,124.19830322265625,-4.904073303848952e-07,-20.073216465682815,2.473965874173279e-07,2.158942504315173e-08,5.0,0.0,-0.09829816904815229,4.998414545312297,0.4442978401123305,1.2339440087576208,-0.2665550902496747,-0.004299275649188861,1.20480194091797,2.158942504315173e-08,5.0,0.0,-0.09829819063757733,-0.0015854546877030662,0.4442978401123305,-0.0,-0.0,-0.0
22/04/2022,12:55:37,31.339997,-0.02326599578373134,2.0979009941220284,2.3363723754882812,2.3363723754882812,-4.6307441436965746e-08,2.831416368484497,0.7947877049446106,2.2468898963623474e-10,2.831416368484497,1.0339117050170898,47.64148695278714,-122.14016500000022,124.3387680053711,-5.718663435122969e-07,-17.87141081707486,1.7611438220579268e-07,1.536887914803398e-08,5.0,0.0,-0.10438218818937252,4.998316416071641,0.4133951861452863,1.0970187138179974,-0.2685657669292334,-0.004331705918213746,1.06362762451172,1.536887914803398e-08,5.0,0.0,-0.10438220355825166,-0.0016835839283590162,0.4133951861452863,-0.0,-0.0,-0.0
22/04/2022,12:55:37,31.500988,-0.028477574232965708,2.5678299786522985,2.4420700073242188,2.4420700073242188,-5.976048811362489e-08,3.2079033851623535,0.5585322380065918,2.2468898963623474e-10,3.2079033851623535,1.0339117050170898,47.64149119129792,-122.14016500000035,124.4437484741211,-6.423663671745342e-07,-15.102796705860953,5.750228137741532e-08,3.010812412332352e-09,3.0,0.0,3.010812412332352e-09,3.0,0.0,0.9955167987050196,-0.2709330723861957,-0.004369888264293742,0.9579299926757825,3.010812412332352e-09,3.0,0.0,-0.0,-0.0,0.0,-0.0,-0.0,-0.0
22/04/2022,12:55:37,31.694987,-0.035692259087227285,3.218379121273756,2.4932708740234375,2.4932708740234375,-7.229479592751886e-08,3.424509286880493,-0.023585626855492592,2.2468898963623474e-10,3.424509286880493,1.0339117050170898,47.64149705074068,-122.14016500000051,124.49320983886719,-3.164349189354192e-07,-3.739874060319373,-1.4175065562924003e-07,-7.422046972772619e-09,3.0,0.0,-0.7635070553853749,2.9876853701941384,1.8934375216274546,0.947295379996555,-0.27421026309172203,-0.004422746178899484,0.9067291259765637,-7.422046972772619e-09,3.0,0.0,-0.0,-0.0,0.0,-0.7635070479633279,-0.012314629805861487,1.8934375216274546
22/04/2022,12:55:37,31.888986,-0.04301398154348135,3.8785796500742435,2.4876708984375,2.4932708740234375,-7.538483970392917e-08,3.4382448196411133,-0.01588982716202736,2.2468898963623474e-10,3.4382448196411133,1.0339117050170898,47.64150299152585,-122.14016500000072,124.48762512207031,1.3970186154427983e-07,1.1011412356142283,-3.133050004958598e-07,-2.7341019108076103e-08,5.0,0.0,-0.7726117168457868,4.987538521137017,1.8779487282231122,0.953619787102115,-0.2775360710666998,-0.004476388243011442,0.9123291015625012,-2.7341019108076103e-08,5.0,0.0,-0.0,-0.0,0.0,-0.7726116895047677,-0.012461478862983037,1.8779487282231122
22/04/2022,12:55:37,32.086983,-0.05032025615219027,4.5373873468488455,2.48883056640625,2.4932708740234375,-6.610449787558537e-08,3.4895002841949463,0.08766219764947891,2.2468898963623474e-10,3.4895002841949463,1.0339117050170898,47.64150892070346,-122.14016500000089,124.48908996582031,3.741644932437094e-07,-5.905057207456679,-5.542463174660002e-07,-2.9020269320506372e-08,3.0,0.0,-2.9020269320506372e-08,3.0,0.0,0.95348293708833,-0.2808548636815628,-0.00452991715615525,0.9111694335937512,-2.9020269320506372e-08,3.0,0.0,-0.0,-0.0,0.0,-0.0,-0.0,0.0
22/04/2022,12:55:37,32.270988,-0.05776416102889925,5.208605312742293,2.4939346313476562,2.4939346313476562,-5.957817705848356e-08,3.5883069038391113,-0.026372557505965233,2.2468898963623474e-10,3.5883069038391113,1.0339117050170898,47.64151496292442,-122.14016500000105,124.49385833740234,-1.0928225632461887e-07,-0.148645983224538,-7.079341277353007e-07,-2.471156283243021e-08,1.9999999999999998,0.0,-0.7915638531716963,1.987232841476447,1.8975994997109948,0.9496134334017121,-0.28423617539530127,-0.004584454441860508,0.906065368652345,-2.471156283243021e-08,1.9999999999999998,0.0,-0.0,-0.0,0.0,-0.7915638284601335,-0.012767158523552702,1.8975994997109948
22/04/2022,12:55:38,32.430987,-0.06403002410661429,5.77359903883189,2.4964065551757812,2.4964065551757812,-6.907521310495213e-08,3.491795301437378,0.09384645521640778,2.2468898963623474e-10,3.5883069038391113,1.0339117050170898,47.641519949942975,-122.14016500000118,124.49640655517578,-5.660399303554178e-07,5.989282506460856,-8.633753948523827e-07,-1.0000000753437166,4.9999999849312555,0.0,-1.0000000753437166,4.9999999849312555,0.0,0.948113307147156,-0.287082373925033,-0.004630360869758654,0.90359344482422,-1.0000000753437166,4.9999999849312555,0.0,-0.0,-0.0,0.0,-0.0,-0.0,0.0
22/04/2022,12:55:38,32.624987,-0.07426247245166451,6.429888016544282,2.5044174194335938,2.5044174194335938,-0.06444495171308517,3.425520658493042,0.07422392815351486,2.2468898963623474e-10,3.5883069038391113,1.0339117050170898,47.64152594771065,-122.14016504185602,124.50463104248047,-4.116641517461834,-4.1151593851865735,0.3659640396057895,0.0,0.0,0.0,0.0,0.0,0.0,0.9405895019772399,-0.2874351399015727,-0.004636050643575196,0.8955825805664075,0.0,0.0,0.0,-0.0,-0.0,0.0,-0.0,-0.0,0.0
22/04/2022,12:55:38,32.817987,-0.10609080048743635,7.099798045121133,2.5229034423828125,2.5229034423828125,-0.17344827950000763,3.3086719512939453,0.3488664925098419,2.2468898963623474e-10,3.5883069038391113,1.0339117050170898,47.64153197490104,-122.14016537104905,124.52392578125,-1.1871458202212126,11.441336974420754,-0.46643716081741615,0.0,0.0,0.0,0.0,0.0,0.0,0.9166760622746376,-0.2664172800321989,-0.00429705290374649,0.8770965576171887,0.0,0.0,0.0,-0.0,-0.0,0.0,-0.0,-0.0,0.0
22/04/2022,12:55:38,33.000988,-0.14638787356670946,7.656562050804496,2.646331787109375,2.646331787109375,-0.18118111789226532,2.6703317165374756,0.836421549320221,2.2468898963623474e-10,3.5883069038391113,1.0339117050170898,47.64153697077833,-122.14016582562681,124.64884185791016,0.35559529274753515,17.530734276523187,-0.631695268833278,0.0,0.0,0.0,0.0,0.0,0.0,0.7894973859364616,-0.23510841642638425,-0.0037920712326844352,0.7536682128906262,0.0,0.0,0.0,-0.0,-0.0,0.0,0.0,0.0,-0.0
22/04/2022,12:55:38,33.159989,-0.17747098894324154,8.036396350711584,2.7732925415039062,2.7732925415039062,-0.16083209216594696,2.2076289653778076,0.7508592009544373,2.2468898963623474e-10,3.5883069038391113,1.0339117050170898,47.64154037866867,-122.1401661825231,124.77555084228516,0.7225922002266292,17.029245238734763,-0.6877016419514272,-0.01200236973408658,0.9999279689661482,0.0,-0.01200236973408658,0.9999279689661482,0.0,0.6610145057846782,-0.21015815142946626,-0.003389647603702528,0.626707458496095,-0.01200236973408658,0.9999279689661482,0.0,-0.0,-0.0,0.0,0.0,0.0,-0.0
22/04/2022,12:55:39,33.349987,-0.20961204799823463,8.413392363116145,2.8647308349609375,2.8647308349609375,-0.13853338360786438,1.8749375343322754,0.2302282303571701,2.2468898963623474e-10,3.5883069038391113,1.0339117050170898,47.64154376459458,-122.1401665538404,124.86543273925781,0.7767983756594249,10.558079276794068,-0.8061159863374388,-0.07034456976503228,4.999505139661782,0.0,-0.07034456976503228,4.999505139661782,0.0,0.5660533061521664,-0.18410445097736983,-0.002969426628666838,0.5352691650390637,-0.07034456976503228,4.999505139661782,0.0,-0.0,-0.0,0.0,0.0,0.0,0.0
22/04/2022,12:55:39,33.53651,-0.23755198519211262,8.753804855048656,2.8780975341796875,2.8780975341796875,-0.11490017920732498,1.8644167184829712,0.17546123266220093,2.2468898963623474e-10,3.5883069038391113,1.0339117050170898,47.64154682954112,-122.14016687458056,124.87860870361328,0.7334256150622998,-8.971847455136627,-1.0773717011068966,-0.09401287687658416,4.999116079766641,0.0,-0.09401287687658416,4.999116079766641,0.0,0.5463727862110218,-0.1616608764459131,-0.0026074334910628494,0.5219024658203137,-0.09401287687658416,4.999116079766641,0.0,-0.0,-0.0,0.0,0.0,0.0,0.0
22/04/2022,12:55:39,33.696509,-0.25773985509295017,9.076782149262726,2.9500579833984375,2.9500579833984375,-0.0997360572218895,2.321333408355713,0.6647953987121582,2.2468898963623474e-10,3.5883069038391113,1.0339117050170898,47.641549749575695,-122.1401670950304,124.9520492553711,0.5690168743252054,-15.698087553609659,-1.1663554011582962,-0.0814213442632568,3.9991712347308117,-1.0,-0.0814213442632568,3.9991712347308117,-1.0,0.4732549640528847,-0.14668621333601783,-0.002365906666710771,0.44994201660156374,-0.0814213442632568,3.9991712347308117,-1.0,-0.0,-0.0,0.0,-0.0,-0.0,-0.0
22/04/2022,12:55:39,33.884774,-0.28099615359678864,9.541221183724701,3.0308609008789062,3.0308609008789062,-0.09554283320903778,2.626750946044922,-0.018473269417881966,2.2468898963623474e-10,3.5883069038391113,1.0339117050170898,47.64155393864367,-122.14016733588554,125.03082275390625,0.8150182924682984,-13.27799880197119,-2.8877392246027154,0.0,0.0,0.0,0.0,0.0,0.0,0.39167522360901497,-0.13092496722103408,-0.002111693019694272,0.369139099121095,0.0,0.0,0.0,-0.0,-0.0,0.0,-0.0,-0.0,0.0
22/04/2022,12:55:39,34.069509,-0.3038621550658718,10.043259042315185,2.97967529296875,3.0308609008789062,-0.08611995726823807,2.7044482231140137,-0.151320219039917,2.2468898963623474e-10,3.5883069038391113,1.0339117050170898,47.64155845982299,-122.14016756579356,124.97920227050781,-0.1893137391434933,5.4661515442739095,-6.628410299707282,0.0,0.0,0.0,0.0,0.0,0.0,0.4360843492255001,-0.11616019156055402,-0.00187355147678403,0.42032470703125124,0.0,0.0,0.0,-0.0,-0.0,0.0,-0.0,-0.0,0.0
22/04/2022,12:55:39,34.222511,-0.3200313341803849,10.433275496587157,2.999725341796875,3.0308609008789062,-0.06808996200561523,2.3619801998138428,0.346575528383255,2.2468898963623474e-10,3.5883069038391113,1.0339117050170898,47.64156196112741,-122.14016772273925,125.00076293945312,-1.3327988202145715,12.58674675590169,-8.394440731593681,-0.29197408243269957,1.978573004765703,0.0,-0.29197408243269957,1.978573004765703,0.0,0.41414860304254647,-0.10628416962262788,-0.0017142608003659632,0.40027465820312624,-0.29197408243269957,1.978573004765703,0.0,-0.0,-0.0,0.0,-0.0,-0.0,-0.0
22/04/2022,12:55:40,34.411509,-0.33688357938081026,10.850253217853606,3.0320892333984375,3.0320892333984375,-0.06883805245161057,2.0999557971954346,-0.04612787067890167,2.2468898963623474e-10,3.5883069038391113,1.0339117050170898,47.641565650491025,-122.14016788278921,125.03208923339844,-1.6740436376743204,5.4865448560506245,-9.235260302868811,-0.8024432465391296,4.935188429643162,0.0,-0.8024432465391296,4.935188429643162,0.0,0.38027290766142824,-0.09616000529703217,-0.0015509678273737393,0.36791076660156374,-0.8024432465391296,4.935188429643162,0.0,-0.0,-0.0,0.0,-0.0,-0.0,0.0
22/04/2022,12:55:40,34.601509,-0.35851123579777777,11.237565755844116,3.0265884399414062,3.0320892333984375,-0.1450953632593155,2.1949381828308105,0.22355155646800995,2.2468898963623474e-10,3.5883069038391113,1.0339117050170898,47.64156919625847,-122.14016811927843,125.0272445678711,-1.5520919688819337,-10.288786126662396,-9.259066470461557,-0.32179749131986374,1.9739418366761068,0.0,-0.32179749131986374,1.9739418366761068,0.0,0.3820521385321117,-0.08078332547611894,-0.0013029568625206878,0.373411560058595,-0.32179749131986374,1.9739418366761068,0.0,-0.0,-0.0,0.0,0.0,0.0,-0.0
22/04/2022,12:55:40,34.783509,-0.3977849156362936,11.663011246360838,3.053802490234375,3.053802490234375,-0.21834906935691833,2.4053244590759277,-0.07262264937162399,2.2468898963623474e-10,3.5883069038391113,1.0339117050170898,47.64157303354343,-122.14016858224429,125.0535888671875,-1.302706080566895,-3.3411412701845657,-9.649458624180145,0.0,0.0,-2.0,0.0,0.0,-2.0,0.34956252470192783,-0.048380099237570695,-0.000780324181253178,0.34619750976562624,0.0,0.0,-2.0,-0.0,-0.0,0.0,0.0,0.0,0.0
22/04/2022,12:55:40,34.96551,-0.44512961665168405,12.101739065721631,2.9906997680664062,3.053802490234375,-0.23528176546096802,2.35663104057312,-0.7757366299629211,2.2468898963623474e-10,3.5883069038391113,1.0339117050170898,47.641576984129024,-122.14016914843114,124.98839569091797,-1.3657341641676377,9.546040685127165,-10.053053189517245,0.0,0.0,-5.0,0.48326586321191467,0.00779461069696273,-2.547166263139689,0.40938083242653134,-0.00812212631096687,-0.00013100203727489657,0.409300231933595,0.0,0.0,-5.0,-0.0,-0.0,0.0,0.48326586321191467,0.00779461069696273,2.452833736860311
22/04/2022,12:55:40,35.121507,-0.48355776898097247,12.442530472762883,2.8237457275390625,3.053802490234375,-0.22314032912254333,2.1757030487060547,-1.4726420640945435,2.2468898963623474e-10,3.5883069038391113,1.0339117050170898,47.64158004911463,-122.1401696092013,124.81934356689453,-1.546087365527363,15.952789678440322,-10.261098291082703,0.0,0.0,0.0,0.4909406295346018,0.007918397250554425,4.313541848683488,0.5767878531084142,0.02480082565710262,0.0004000133170478648,0.5762542724609387,0.0,0.0,0.0,0.0,0.0,0.0,0.4909406295346018,0.007918397250554425,4.313541848683488
22/04/2022,12:55:40,35.29951,-0.5237826154334471,12.789610299281776,2.57452392578125,3.053802490234375,-0.16450777649879456,1.54181969165802,-0.8568424582481384,2.2468898963623474e-10,3.5883069038391113,1.0339117050170898,47.64158315871311,-122.14017009111026,124.57192993164062,-0.9863484547488236,12.351841655281897,-10.210006839182908,0.0,0.0,0.0,0.34218635338993053,0.0055191347320983,2.5658625410859246,0.827612371921695,0.05941860472579985,0.0009583645923498807,0.8254760742187512,0.0,0.0,0.0,0.0,0.0,0.0,0.34218635338993053,0.0055191347320983,2.5658625410859246
22/04/2022,12:55:41,35.45851,-0.5480022644624114,12.992513444274664,2.5100021362304688,3.053802490234375,-0.1195898950099945,1.0993801355361938,-0.09749982506036758,2.2468898963623474e-10,3.5883069038391113,1.0339117050170898,47.64158497461054,-122.14017038176407,124.50970458984375,-0.6899480123309396,9.404325617154146,-10.174316651462535,0.0,0.0,-5.0,0.5472675387813543,0.008826895786795139,-2.909381652353818,0.8936194017151704,0.08036017452496236,0.0012961318471766958,0.8899978637695325,0.0,0.0,-5.0,0.0,0.0,0.0,0.5472675387813543,0.008826895786795139,2.090618347646182
22/04/2022,12:55:41,35.640508,-0.5692932562669739,13.16895299963653,2.4517593383789062,3.053802490234375,-0.10016059875488281,0.9162499904632568,-0.7482132911682129,2.2468898963623474e-10,3.5883069038391113,1.0339117050170898,47.64158655913864,-122.14017063836276,124.44953918457031,-0.7372467892225819,10.443315613638392,-10.191144620665577,-2.952668896918078,-0.5307978760060921,0.0,-2.6733927003776112,-0.5262934212231801,2.5331518253396768,0.9533752904192997,0.09880056986028163,0.0015935575783903033,0.948240661621095,-2.952668896918078,-0.5307978760060921,0.0,0.0,0.0,0.0,0.27927619654046676,0.004504454782911902,2.5331518253396768
22/04/2022,12:55:41,35.791512,-0.5891358227236196,13.292444000951946,2.3261489868164062,3.053802490234375,-0.21764826774597168,0.6060734391212463,-0.4925360381603241,2.2468898963623474e-10,3.5883069038391113,1.0339117050170898,47.64158766383596,-122.14017088883148,124.32464599609375,-10.239463795289875,7.282588673196072,-9.882706677252022,-5.097437630695771,0.12700236677590881,0.0,-4.425856960997009,0.1378343130613691,2.8410910419834665,1.0801694272588056,0.11664670337856264,0.001881398441588189,1.073851013183595,-5.097437630695771,0.12700236677590881,0.0,0.04559028330247976,0.0007353271500393977,0.4197047194450965,0.6259903863962826,0.01009661913542087,2.42138632253837
22/04/2022,12:55:41,35.945507,-0.6556862606666982,13.36090733204037,2.3005599975585938,3.053802490234375,-0.7697646617889404,0.3363492786884308,0.18232613801956177,2.2468898963623474e-10,3.5883069038391113,1.0339117050170898,47.64158827910113,-122.14017178655936,124.30108642578125,-20.6975186918503,1.71179475922106,-8.401956968153458,0.0,0.0,0.0,2.365874438039599,0.03815926512966794,1.4109452791738448,1.1144184881467627,0.18207587293011318,0.0029367076279047666,1.0994400024414075,0.0,0.0,0.0,0.07034375193938003,0.0011345766441834388,0.4247610271441892,2.295530686100219,0.0370246884854845,0.9861842520296558
22/04/2022,12:55:41,36.133508,-0.8568443511612713,13.410959060303867,2.3219833374023438,3.053802490234375,-1.1813359260559082,0.24488970637321472,-0.2687110900878906,2.2468898963623474e-10,3.5883069038391113,1.0339117050170898,47.64158874036748,-122.14017442655415,124.32198333740234,-4.500073397924406,1.9176474732196107,-8.439024818741045,0.0,0.0,0.0,3.0027633181732423,0.0484316664221461,2.098395977643014,1.143839268907349,0.3823745706437158,0.006167331784574515,1.0780166625976575,0.0,0.0,0.0,0.14616598883283066,0.0023575159489160327,0.41208119881400956,2.8565973293404117,0.04607415047323007,1.6863147788290047
22/04/2022,12:55:42,36.319508,-1.0749586977763101,13.447070789523423,2.2750167846679688,3.053802490234375,-1.148859977722168,0.17680421471595764,-0.1741565316915512,2.2468898963623474e-10,3.5883069038391113,1.0339117050170898,47.64158909179844,-122.14017737080023,124.27449035644531,3.9227140514079535,2.2798677061273462,-8.53768401010447,0.0,0.0,0.0,3.3048817336965404,0.05330454409187752,1.980878950960959,1.274951268323135,0.5998498947468619,0.009674998302367399,1.1249832153320325,0.0,0.0,0.0,0.2173113413491676,0.003505021634663507,0.4075546460206866,3.0875703923473727,0.049799522457214015,1.5733243049402725
22/04/2022,12:55:42,36.501511,-1.2647912385873497,13.472084239125252,2.2537384033203125,3.053802490234375,-0.9759829640388489,0.13161171972751617,-0.08269386738538742,2.2468898963623474e-10,3.5883069038391113,1.0339117050170898,47.64158933455355,-122.14017988729428,124.25348663330078,5.7809386185514136,2.076044637633046,-8.599566996505452,-4.943787555538511,-0.7476393553730023,0.0,-1.919176667959539,-0.6988553087991497,1.7132569161569475,1.3917475524124943,0.7892297264769847,0.012729511717369135,1.1462615966796887,-4.943787555538511,-0.7476393553730023,0.0,0.27077782104796694,0.004367384210450535,0.3932723351480868,2.7538330665310045,0.044416662363402026,1.3199845810088608
22/04/2022,12:55:42,36.679508,-1.4383412972092628,13.48958053253591,2.2377471923828125,3.053802490234375,-1.0653935670852661,0.049523428082466125,0.18305480480194092,2.2468898963623474e-10,3.5883069038391113,1.0339117050170898,47.64158950709012,-122.14018219835434,124.23826599121094,-12.387147383378208,1.7140395908152148,-8.613534989128462,-0.988721028705921,-0.1497689133121598,0.0,2.5640221564337624,-0.0924666038744251,1.2108291455326925,1.509101529359592,0.9624525236554434,0.01552342780089333,1.1622528076171887,-0.988721028705921,-0.1497689133121598,0.0,0.31133803380708636,0.0050215811904365795,0.3759702375094446,3.241405151332597,0.05228072824729813,0.834858908023248
22/04/2022,12:55:42,36.862511,-1.665302048320882,13.486275777220726,2.2702713012695312,3.053802490234375,-1.3594634532928467,-0.03620723634958267,-0.10088445991277695,2.2468898963623474e-10,3.5883069038391113,1.0339117050170898,47.64158949767071,-122.14018523210223,124.26997375488281,-5.27180495278317,1.3687919217121445,-8.563080071207056,0.0,0.0,0.0,7.297457938839065,0.11770093449740007,2.704598184610793,1.6405320005332231,1.189407535905796,0.01918399251460734,1.12972869873047,0.0,0.0,0.0,0.35913900706844615,0.005792564630135542,0.34111911255867766,6.938318931770619,0.11190836986726453,2.3634790720521157
22/04/2022,12:55:42,37.021515,-1.8774688765406609,13.475434459745884,2.249237060546875,3.053802490234375,-1.3734161853790283,-0.07103220373392105,-0.10007601976394653,2.2468898963623474e-10,3.5883069038391113,1.0339117050170898,47.64158942035166,-122.14018805874478,124.24893188476562,3.24938105749198,1.1089813100364676,-8.561995199391674,0.0,0.0,0.0,9.050919446997504,0.14598257172576645,3.13740721425864,1.8137013340001744,1.401693998678298,0.022607967720615463,1.1507629394531262,0.0,0.0,0.0,0.385918378274264,0.00622448997216493,0.31683132537531883,8.66500106872324,0.13975808175360152,2.8205758888833214
22/04/2022,12:55:42,37.204509,-2.12104324484244,13.458419402129948,2.2459716796875,3.053802490234375,-1.1781328916549683,-0.07612782716751099,0.03989051654934883,2.2468898963623474e-10,3.5883069038391113,1.0339117050170898,47.64158929348866,-122.14019124878928,124.2459716796875,6.846069673568042,0.851953128445891,-8.586467600590085,0.0,0.0,-1.0,7.593772158226382,0.12248019610042807,1.214811791639593,2.0099970490688017,1.6454793836780968,0.02653999005932306,1.1540283203125012,0.0,0.0,-1.0,0.4093239125015236,0.006601998588733983,0.28707220029216973,7.184448245724858,0.11587819751169409,1.9277395913474233
22/04/2022,12:55:43,37.387512,-2.3165362555300817,13.443287138827145,2.2092666625976562,3.053802490234375,-1.041474461555481,-0.07039737701416016,-0.6272871494293213,2.2468898963623474e-10,3.5883069038391113,1.0339117050170898,47.64158917495034,-122.14019389515802,124.20741271972656,7.408285026370724,0.5069844321223923,-6.991657317652532,0.0,0.0,0.0,10.22298082306263,0.16488678746874838,6.3776626596290535,2.1928562086008663,1.8411655562159561,0.02969621864864358,1.190733337402345,0.0,0.0,0.0,0.42041217416647625,0.006780841518813934,0.27189232904110844,9.802568648896154,0.15810594594993443,6.105770330587945
22/04/2022,12:55:43,37.575507,-2.4901174149708822,13.429462186060846,2.1106338500976562,3.053802490234375,-0.7601012587547302,-0.05321885272860527,-0.11989288777112961,2.2468898963623474e-10,3.5883069038391113,1.0339117050170898,47.64158906835831,-122.14019619672786,124.11026000976562,6.097134032477104,-0.06788219015293079,-3.1015972681959547,0.0,0.0,0.0,5.641742763679002,0.09099585102707762,2.5279178610102786,2.3923716192211892,2.014924496128036,0.03249878219561353,1.289366149902345,0.0,0.0,0.0,0.42620216199063854,0.006874228419203856,0.27273014038090576,5.215540601688363,0.08412162260787376,2.255187720629373
22/04/2022,12:55:43,37.759507,-2.61367545183748,13.419402276165783,2.1037826538085938,3.053802490234375,-0.5754846334457397,-0.040781766176223755,-0.014811421744525433,2.2468898963623474e-10,3.5883069038391113,1.0339117050170898,47.641588990505205,-122.14019783562698,124.1037368774414,4.771799535879502,-0.2339027702427998,-1.1681826306340655,0.0,0.0,-3.0,4.477236405697004,0.0722134904144677,-1.1069856088336023,2.5010064243381653,2.1386126126764617,0.03449375181735981,1.2962173461914075,0.0,0.0,-3.0,0.4383038383499602,0.007069416747579494,0.26565682574015714,4.038932567347044,0.06514407366688821,1.6273575654262407
22/04/2022,12:55:43,37.945508,-2.7100795448059216,13.411502780392766,2.0519332885742188,3.053802490234375,-0.4858943819999695,-0.034545619040727615,-0.7175928950309753,2.2468898963623474e-10,3.5883069038391113,1.0339117050170898,47.64158892923626,-122.14019911653321,124.0498046875,4.68730842427501,-0.3085428267850979,-0.2671548711305761,0.0,0.0,-2.0,6.621321281521591,0.10679550454066737,3.6266538866774627,2.610429174875456,2.235119011144242,0.03605030663135622,1.3480667114257825,0.0,0.0,-2.0,0.4475890895074025,0.007219178863022116,0.2699542838452308,6.173732192014189,0.09957632567764525,5.356699602832232
22/04/2022,12:55:43,38.131508,-2.793849154142663,13.404628151096404,1.8394546508789062,3.053802490234375,-0.4141482412815094,-0.029478684067726135,-1.5865848064422607,2.2468898963623474e-10,3.5883069038391113,1.0339117050170898,47.641588875862034,-122.14020022983038,123.834716796875,3.750506085723346,-0.27830590197651406,0.17204095393358726,0.0,0.0,0.0,15.696327750889054,0.25316657662723435,23.223561167737426,2.7954173695164117,2.318977686126507,0.03740286590526409,1.560545349121095,0.0,0.0,0.0,0.4565299596028068,0.007363386445206139,0.30721973283952336,15.239797791286247,0.24580319018202823,22.9163414348979
22/04/2022,12:55:43,38.278521,-2.848999708192423,13.400099598802626,1.61614990234375,3.053802490234375,-0.3036753237247467,-0.021607685834169388,-1.0352978706359863,2.2468898963623474e-10,3.5883069038391113,1.0339117050170898,47.64158884085678,-122.14020096027902,123.6130142211914,2.622242063002848,-0.2034007902715869,0.3535540083248526,0.0,0.0,0.0,9.261964540131551,0.14938652484082637,11.715647519588638,2.9699075871932075,2.3741869188988067,0.03829333740159235,1.7838500976562512,0.0,0.0,0.0,0.4726467482214754,0.007623334648733215,0.3551240811160938,8.789317791910076,0.14176319019209316,11.360523438472544
22/04/2022,12:55:44,38.438508,-2.8882494202116504,13.396878303959966,1.5206375122070312,3.053802490234375,-0.2173766791820526,-0.015469367615878582,-0.3692868947982788,2.2468898963623474e-10,3.5883069038391113,1.0339117050170898,47.64158881593492,-122.1402014797758,123.51952362060547,1.9049650901974127,-0.15075310436366118,0.454132458683772,0.023778070961850018,2.9999057657435397,0.0,4.756507413820756,3.076240109983197,4.280964801840597,3.0591496366560325,2.4134783657862333,0.03892707041590526,1.87936248779297,0.023778070961850018,2.9999057657435397,0.0,0.48820660950182276,0.007874300153254856,0.38016383374185303,4.244522733357083,0.06846004408640241,3.9008009680987437
22/04/2022,12:55:44,38.621506,-2.9224435896612704,13.404259080067277,1.4833908081054688,3.053802490234375,-0.15094450116157532,0.2148437798023224,0.13221247494220734,2.2468898963623474e-10,3.5883069038391113,1.0339117050170898,47.64158889185934,-122.1402019312289,123.48377227783203,1.394566075381197,-11.73723488466599,0.18572757832118522,0.016207760382895196,4.9999737307813295,0.0,3.4020427446983783,5.054583972463834,2.1302968308091894,3.108926486417473,2.447544628268856,0.0394765262623995,1.9166091918945325,0.016207760382895196,4.9999737307813295,0.0,0.5009883180035137,0.008080456741991869,0.39231105501698754,2.884846666311969,0.04652978494051303,1.7379857757922017
22/04/2022,12:55:44,38.805508,-2.946429061004892,13.505439216271043,1.5697097778320312,3.053802490234375,-0.09378744661808014,1.0336977243423462,0.9130534529685974,2.2468898963623474e-10,3.5883069038391113,1.0339117050170898,47.64158979886347,-122.14020222953154,123.56970977783203,0.9813834088311528,-22.47442418698823,-0.02629564633042035,-0.0018357823651777303,3.9999995787378664,0.0,3.120877036040403,4.0503659145186015,0.37567922701873524,3.074397094366221,2.4698923482689206,0.03983697335917569,1.83029022216797,-0.0018357823651777303,3.9999995787378664,0.0,0.5013224103375622,0.008085845328025103,0.3715002017952787,2.6213904080680184,0.04228049045271073,0.004179025223456536
22/04/2022,12:55:44,38.958511,-2.960988876176998,13.716215274296701,1.725921630859375,3.053802490234375,-0.06998215615749359,1.6462689638137817,0.9027758836746216,2.2468898963623474e-10,3.5883069038391113,1.0339117050170898,47.641591696612956,-122.14020239223805,123.72592163085938,0.6742693991433943,-20.426269218193084,0.008033581000491912,0.0,0.0,0.0,3.085306175685559,0.04976300283363196,0.20186031848966937,2.9932836637987252,2.4810496470788,0.04001692979159266,1.6740783691406262,0.0,0.0,0.0,0.4956644227819153,0.007994587464224262,0.33444759539929686,2.5896417529036437,0.0417684153694077,-0.1325872769096275
22/04/2022,12:55:44,39.113508,-2.9736764568369836,13.985189630649984,1.8249664306640625,3.053802490234375,-0.060320042073726654,1.8826072216033936,0.30000928044319153,2.2468898963623474e-10,3.5883069038391113,1.0339117050170898,47.641594168486684,-122.14020252384394,123.82588958740234,0.5323957667209188,-4.418217732882272,0.17780920100174014,0.0,0.0,0.0,3.0102508181049146,0.04855243255007753,1.2749420504804752,2.946088783805996,2.489396760203138,0.04015156064843595,1.5750335693359387,0.0,0.0,0.0,0.4940474656501559,0.007968507510486035,0.3125822912940733,2.5162033524547587,0.0405839250395915,0.9623597591864018
22/04/2022,12:55:44,39.298507,-2.988000163459219,14.336831291206181,1.8283538818359375,3.053802490234375,-0.04783827066421509,1.7800054550170898,-0.011537534184753895,2.2468898963623474e-10,3.5883069038391113,1.0339117050170898,47.64159733085975,-122.14020266211382,123.82831573486328,0.4415813902635756,7.474961424818923,0.28575443674716994,0.0,0.0,0.0,3.030827981741135,0.048884322286147905,1.9058581009534286,2.9515981420010644,2.4980465769265163,0.0402910738213933,1.5716461181640637,0.0,0.0,0.0,0.4960981146134257,0.008001582493764509,0.3121201515065414,2.534729867127709,0.040882739792383396,1.593737949446887
22/04/2022,12:55:45,39.48551,-2.9988007456995547,14.631387210451066,1.839141845703125,3.053802490234375,-0.036105118691921234,1.4822800159454346,0.10192354023456573,2.2468898963623474e-10,3.5883069038391113,1.0339117050170898,47.64159993394699,-122.14020276049192,123.83914184570312,0.3550661869756272,9.654382180869487,0.30445979269925566,0.015941402445158112,2.9999576449823557,0.0,3.0057749218122125,3.048180766262462,1.6476922309503312,2.950999763552579,2.5040946838546483,0.04038862393313636,1.5608581542968762,0.015941402445158112,2.9999576449823557,0.0,0.49726222106696727,0.008020358404305303,0.30995465050921545,2.492571298300087,0.04020276287580039,1.3377375804411158
22/04/2022,12:55:45,39.638514,-3.006223630392924,14.844709865748882,1.8357162475585938,3.053802490234375,-0.029696382582187653,1.3614920377731323,-0.16903959214687347,2.2468898963623474e-10,3.5883069038391113,1.0339117050170898,47.64160189056802,-122.140202829006,123.835205078125,0.297058985923389,-1.1932439937758588,0.24504011279594123,0.0,0.0,0.0,3.118525721737474,0.050298801963505314,2.2860235892451133,2.9561908824985204,2.5080758448774954,0.04045283620770057,1.5642837524414075,0.0,0.0,0.0,0.49837969862335707,0.008038382235860404,0.31083879169580775,2.620146023114117,0.04226041972764491,1.9751847975493053
22/04/2022,12:55:45,39.819509,-3.0137568964855745,15.10004011541605,1.8101425170898438,3.053802490234375,-0.02095673605799675,1.341846227645874,-0.06678702682256699,2.2468898963623474e-10,3.5883069038391113,1.0339117050170898,47.641604187976796,-122.14020289124596,123.8099365234375,0.2279057926735434,4.451986181889741,0.2698701939558082,0.0,0.0,0.0,3.0314302067289827,0.04889403559240285,2.054571310032487,2.9726872844150356,2.5114899929609242,0.040507903112272814,1.5898574829101575,0.0,0.0,0.0,0.5001778231486078,0.008067384244332353,0.3166293543463465,2.531252383580375,0.0408266513480705,1.7379419556861406
22/04/2022,12:55:45,39.981509,-3.018809598637745,15.296930740587413,1.808990478515625,3.053802490234375,-0.01590961031615734,1.17078697681427,0.034958649426698685,2.2468898963623474e-10,3.5883069038391113,1.0339117050170898,47.641605955268425,-122.14020292923894,123.80909729003906,0.18152614167033124,6.90170613667009,0.2794498140831868,0.0,0.0,0.0,2.9851201170521597,0.048147098662132695,1.8240926902077352,2.974889252367049,2.5133665516897454,0.040538170188540334,1.5910095214843762,0.0,0.0,0.0,0.5007102825868647,0.008075972299787354,0.31695926985471096,2.484409834465295,0.04007112636234534,1.5071334203530242
22/04/2022,12:55:45,40.167508,-3.023568140459247,15.493736295960844,1.8172836303710938,3.053802490234375,-0.011871738359332085,0.9435474276542664,0.043228182941675186,2.2468898963623474e-10,3.5883069038391113,1.0339117050170898,47.64160772022813,-122.14020296337209,123.81741333007812,0.13833654235929352,6.858409385381795,0.2798418397984798,0.0,0.0,0.0,2.9829521617945134,0.048112131641844205,1.7958517710434685,2.9718028245177237,2.5149503983291996,0.040563716102081315,1.5827163696289075,0.0,0.0,0.0,0.5008037934723162,0.00807748053987556,0.31516739353089085,2.482148368322197,0.040034651101968646,1.4806843775125775
22/04/2022,12:55:46,40.354507,-3.0272432102356106,15.650192907080054,1.82330322265625,3.053802490234375,-0.00900751817971468,0.7407839298248291,0.01972534880042076,2.2468898963623474e-10,3.5883069038391113,1.0339117050170898,47.64160912272226,-122.140202989082,123.82335662841797,0.10565437660262066,5.837618047186432,0.2778469592363943,0.0,0.0,0.0,2.99110141536004,0.04824357121548414,1.8388705787379038,2.9695769543612305,2.516101674878212,0.04058228507867767,1.5766967773437512,0.0,0.0,0.0,0.5008754924444075,0.00807863697490917,0.3138699769856429,2.4902259229156325,0.040164934240574976,1.5250006017522608
22/04/2022,12:55:46,40.53451,-3.0300327230943367,15.770444092340767,1.8249740600585938,3.053802490234375,-0.0069025661796331406,0.5761677026748657,-0.0007900430355221033,2.2468898963623474e-10,3.5883069038391113,1.0339117050170898,47.641610184858564,-122.14020300810157,123.8249740600586,0.08119106862369417,4.7031688638304265,0.2760352014600322,0.0,0.0,0.0,3.0003261373533485,0.0483923570540869,1.882053651633618,2.9694105903594368,2.5169514314302996,0.04059599082952303,1.5750259399414075,0.0,0.0,0.0,0.5010329606888002,0.008081176785303642,0.31353005067803874,2.4992931766645485,0.040311180268783255,1.5685236009555792
22/04/2022,12:55:46,40.686031,-3.031834802823141,15.848561289720237,1.8240203857421875,3.053802490234375,-0.005555783864110708,0.46634534001350403,-0.011528600938618183,2.2468898963623474e-10,3.5883069038391113,1.0339117050170898,47.64161090042291,-122.14020302078129,123.82398223876953,0.06545604884175078,3.862961090360419,0.2749519457220115,0.0,0.0,0.0,3.0065986621861747,0.04849352680945167,1.9076000427964799,2.9703760006569406,2.5174934153678805,0.04060473250593333,1.5759796142578137,0.0,0.0,0.0,0.501208880166057,0.00808401419622668,0.31376248009421953,2.5053897820201176,0.040409512613224986,1.5938375627022603
22/04/2022,12:55:46,40.842034,-3.0333147851051763,15.912827306427062,1.821746826171875,3.053802490234375,-0.004452681168913841,0.37475982308387756,-0.017684798687696457,2.2468898963623474e-10,3.5883069038391113,1.0339117050170898,47.64161147629281,-122.14020303095214,123.82169342041016,0.052536587531117646,3.130785171993236,0.2741796043069562,0.0,0.0,0.0,3.0113780434267836,0.048570613603652925,1.9248377401508086,2.9719585798708352,2.517936733666013,0.04061188280106265,1.5782531738281262,0.0,0.0,0.0,0.5014095801846324,0.00808725129330011,0.31428560167278285,2.509968463242151,0.040483362310352815,1.6105521384780257
22/04/2022,12:55:46,41.028556,-3.0347249609185383,15.974138665944338,1.8181304931640625,3.053802490234375,-0.003400989808142185,0.2866225838661194,-0.02072794735431671,2.2468898963623474e-10,3.5883069038391113,1.0339117050170898,47.641612025651646,-122.14020304063234,123.81806945800781,0.04019260686187614,2.4083113354963004,0.27357156462690313,0.0,0.0,0.0,3.015274272242535,0.04863345600391449,1.9369515582965788,2.974237307500603,2.5183579070175064,0.040618675919635194,1.5818695068359387,0.0,0.0,0.0,0.501657340100362,0.008091247420973181,0.31510868529604596,2.513616932142173,0.04054220858294131,1.6218428730005328
22/04/2022,12:55:46,41.21555,-3.035787009401247,16.020332099869847,1.8142852783203125,3.053802490234375,-0.0026076931972056627,0.21985743939876556,-0.020916586741805077,2.2468898963623474e-10,3.5883069038391113,1.0339117050170898,47.64161243956302,-122.14020304791727,123.81422424316406,0.030860326026265636,1.8531866243574218,0.27320843562459945,0.0,0.0,0.0,3.017634372063579,0.04867152213005527,1.942847604869371,2.976552419801288,2.5186748176713816,0.04062378738179717,1.5857147216796887,0.0,0.0,0.0,0.5018893693174568,0.008094989827701054,0.3159809896844979,2.5157450027461223,0.04057653230235421,1.6268666151848732
22/04/2022,12:55:47,41.39555,-3.036601250176318,16.05575493350625,1.8105545043945312,3.053802490234375,-0.0019985197577625513,0.16851738095283508,-0.019689423963427544,2.2468898963623474e-10,3.5883069038391113,1.0339117050170898,47.6416127523806,-122.14020305342326,123.81055450439453,0.023679586820725008,1.4231574419987558,0.2729899885251392,0.0,0.0,0.0,3.0190505963173293,0.048694364456728534,1.9453092280903928,2.9787470130758456,2.518917659245872,0.04062770418138584,1.58944549560547,0.0,0.0,0.0,0.5021000924965108,0.00809838858865356,0.3168268432405198,2.5169505038208184,0.04059597586807497,1.628482384849873
22/04/2022,12:55:47,41.584549,-3.037234045099467,16.08328077290207,1.8070526123046875,3.053802490234375,-0.0015244119567796588,0.12854860723018646,-0.017821410670876503,2.2468898963623474e-10,3.5883069038391113,1.0339117050170898,47.64161300356482,-122.140203057844,123.80699920654297,0.018080827096276654,1.086984483949676,0.27285807388911487,0.0,0.0,0.0,3.0199025268446222,0.04870810527168807,1.945955072247716,2.980776659414968,2.5191064399070022,0.040630749030757585,1.5929473876953137,0.0,0.0,0.0,0.5022897801374977,0.008101448066733732,0.31762103437186184,2.5176127467071243,0.040606657204954336,1.628334037875854
22/04/2022,12:55:47,41.761549,-3.0377098373137414,16.103983782231808,1.8039703369140625,3.053802490234375,-0.001167530077509582,0.09846526384353638,-0.015824835747480392,2.2468898963623474e-10,3.5883069038391113,1.0339117050170898,47.6416131863935,-122.14020306106107,123.80397033691406,0.013859979585481127,0.8333187736866083,0.2727816104768088,0.0,0.0,0.0,3.020396423636839,0.048716071348982655,1.9457006700976092,2.982544820087392,2.5192482757179846,0.04063303670512752,1.5960296630859387,0.0,0.0,0.0,0.5024520362021753,0.008104065100034833,0.3183204933733863,2.5179443874346634,0.04061200624894782,1.6273801767242229
22/04/2022,12:55:47,41.91955,-3.0380155165912583,16.117287795059383,1.8017120361328125,3.053802490234375,-0.0009380732662975788,0.07913496345281601,-0.01423713844269514,2.2468898963623474e-10,3.5883069038391113,1.0339117050170898,47.641613306116696,-122.1402030631663,123.80171203613281,0.011142946934918872,0.670039086894202,0.2727427699245794,0.0,0.0,0.0,3.0206505928593317,0.048720170852569585,1.9452203486313553,2.9838308164542315,2.5193393504507453,0.04063450565242732,1.5982879638671887,0.0,0.0,0.0,0.5025685228522879,0.008105943916971578,0.31883327704527437,2.518082070007044,0.040614226935598005,1.6263870715860809
22/04/2022,12:55:47,42.101552,-3.03830843209289,16.13003011327237,1.7992706298828125,3.053802490234375,-0.0007181862602010369,0.060607876628637314,-0.012457352131605148,2.2468898963623474e-10,3.5883069038391113,1.0339117050170898,47.64161342243971,-122.14020306521353,123.79923248291016,0.008536882455579316,0.5134205010702964,0.27271349394116634,0.0,0.0,0.0,3.0208530020703854,0.048723435517261965,1.9445495639046866,2.9852130244367943,2.519426721961556,0.040635914870343015,1.6007293701171887,0.0,0.0,0.0,0.5026924581923441,0.008107942874069136,0.3193879682828778,2.5181605438780412,0.04061549264319283,1.6251615956218088
22/04/2022,12:55:48,42.393549,-3.038636665325612,16.14431998413056,1.7960281372070312,3.053802490234375,-0.0004716083640232682,0.03982482850551605,-0.010093368589878082,2.2468898963623474e-10,3.5883069038391113,1.0339117050170898,47.64161355046145,-122.14020306746379,123.7959976196289,0.005610710100633843,0.33756911157776065,0.2726899418795151,0.0,0.0,0.0,3.021050744142487,0.04872662490552611,1.943648053000288,2.987035417650654,2.51952444798324,0.040637491096504164,1.60397186279297,0.0,0.0,0.0,0.5028536926714156,0.008110543430184181,0.3201251628227342,2.518197051471071,0.04061608147534193,1.6235228901775538
22/04/2022,12:55:48,42.554549,-3.0387717362027615,16.15018011443317,1.7944488525390625,3.053802490234375,-0.00037058937596157193,0.03130683675408363,-0.008981273509562016,2.2468898963623474e-10,3.5883069038391113,1.0339117050170898,47.64161360296249,-122.14020306839193,123.79442596435547,0.004410975975083869,0.2654419344301655,0.27268319914180883,0.0,0.0,0.0,3.021135927454104,0.04872799882990422,1.9432948212536008,2.987917951549788,2.5195649900828503,0.04063814500133489,1.6055511474609387,0.0,0.0,0.0,0.5029309575715475,0.008111789638250487,0.32048444044941043,2.5182049698825564,0.040616209191653735,1.6228103808041903
22/04/2022,12:55:48,42.71055,-3.0388720300979912,16.15455784648657,1.793121337890625,3.053802490234375,-0.0002950513444375247,0.024935048073530197,-0.008077519945800304,2.2468898963623474e-10,3.5883069038391113,1.0339117050170898,47.641613641511015,-122.14020306906627,123.79312133789062,0.003512966519824206,0.21146456866747793,0.27267932296750597,0.0,0.0,0.0,3.0212057970951602,0.04872912575959963,1.9430666671791155,2.9886565245705476,2.519594667676076,0.040638623672194285,1.6068786621093762,0.0,0.0,0.0,0.5029950396264521,0.008112823219781387,0.32078651645508105,2.518210757468708,0.040616302539818246,1.6222801507240345
22/04/2022,12:55:48,42.896551,-3.0389635412720963,16.15856932476163,1.7917251586914062,3.053802490234375,-0.00022581462690141052,0.019092440605163574,-0.007180611602962017,2.2468898963623474e-10,3.5883069038391113,1.0339117050170898,47.64161367813147,-122.14020306970195,123.79170227050781,0.0026895951696922047,0.16195076010660683,0.27267677254594175,0.0,0.0,0.0,3.0212867453777577,0.04873043137705878,1.942946843401517,2.989430021465813,2.519621470615011,0.040639055977656824,1.608274841308595,0.0,0.0,0.0,0.5030615607518562,0.008113896141158043,0.32110428539456876,2.5182251846259014,0.04061653523590074,1.6218425580069482
22/04/2022,12:55:48,43.082551,-3.039032909902744,16.161599283106625,1.790496826171875,3.053802490234375,-0.00017357630713377148,0.014682522043585777,-0.006447650026530027,2.2468898963623474e-10,3.5883069038391113,1.0339117050170898,47.641613705267865,-122.14020307017569,123.79047393798828,0.0020681232145810767,0.12456578321421616,0.27267436373253634,0.0,0.0,0.0,3.021370025594238,0.048731774606361015,1.9429678311803185,2.9901083009025844,2.5196419636186054,0.04063938650997656,1.6095031738281262,0.0,0.0,0.0,0.5031195133158046,0.008114830859932145,0.3213839367612723,2.518250512278433,0.04061694374642887,1.6215838944190462
22/04/2022,12:55:48,43.266551,-3.039089288446121,16.16399804595858,1.7893524169921875,3.053802490234375,-0.00013225010479800403,0.01119250524789095,-0.005821901839226484,2.2468898963623474e-10,3.5883069038391113,1.0339117050170898,47.64161372676332,-122.14020307056967,123.78933715820312,0.0015763405487459227,0.09497050412860042,0.27267345880525823,3.019002153932753,3.9856776079544365,0.0,6.040466178924897,4.034410898680116,1.9431166924697854,2.9907393668642475,2.51965964783809,0.040639671739320704,1.6106475830078137,3.019002153932753,3.9856776079544365,0.0,0.5031733415069367,0.008115699056562831,0.3216446026857157,2.518290683485207,0.04061759166911702,1.6214720897840698
22/04/2022,12:55:49,43.451552,-3.030749076628126,16.175981767475605,1.8057098388671875,3.053802490234375,0.21039658784866333,0.2700704336166382,0.438138872385025,0.21039658784866333,3.5883069038391113,1.0339117050170898,47.64161384057205,-122.14020294953238,123.80699920654297,11.33423700930938,-14.502945552078213,-1.1316930712062803,2.920412876630849,4.058471218329474,-1.0,5.787679924741653,4.104717461040939,0.1340142802825226,2.9747549855456756,2.511128369564377,0.040502070476843954,1.5942901611328137,2.920412876630849,4.058471218329474,-1.0,0.5002546623081254,0.00806862358561476,0.3176066567704061,2.3670123858026786,0.03817761912584907,0.8164076235121165
22/04/2022,12:55:49,43.637551,-2.9415240264497697,16.295604100450873,1.9402694702148438,3.053802490234375,0.7740634679794312,1.0367099046707153,0.8731775879859924,0.7740634679794312,3.5883069038391113,1.0339117050170898,47.64161492852937,-122.14020172153282,123.94288635253906,14.877325145646722,-21.533964398736682,-0.8202425913765595,2.9424308067425855,4.042536449746889,0.0,3.418859858920181,4.05022078929814,0.2873796333169493,2.8264333148410272,2.4199976341859455,0.039032219906221854,1.4597305297851575,2.9424308067425855,4.042536449746889,0.0,0.4764290521775954,0.007684339551250934,0.2873796333169493,0.0,0.0,-0.0
