date,fly_time,fly_time_s,x,y,z,z_max,vx,vy,vz,vx_max,vy_max,vz_max,latitude,longitude,altitude,pitch,roll,yaw,cx,cy,cz,scx,scy,scz,d,dx,dy,dz,gc_pow_x,gc_pow_y,gc_pow_z,gpc_pow_x,gpc_pow_y,gpc_pow_z,gfc_pow_x,gfc_pow_y,gfc_pow_z
14/04/2022,16:44:04,26.0065,0.0,0.0,2.6005325317382812,2.6005325317382812,0.0,0.0,-0.0021799341775476933,0,0,0,47.641468,-122.140165,124.60053253173828,0.0,0.0,0.0,0.0,0.0,0.0,0.0,0.0,0.0,0.8400763101058153,-0.25799739921976594,-0.004161248374512427,0.79946746826172,0.0,0.0,0.0,-0.0,-0.0,0.0,-0.0,-0.0,0.0
14/04/2022,16:44:04,26.189498,0.0,0.0,2.600128173828125,2.6005325317382812,0.0,0.0,-0.0023314207792282104,0,0,0,47.641468,-122.140165,124.6001205444336,0.0,0.0,0.0,0.0,0.0,0.0,0.0,0.0,0.0,0.8404611307465265,-0.25799739921976594,-0.004161248374512427,0.7998718261718762,0.0,0.0,0.0,-0.0,-0.0,0.0,-0.0,-0.0,0.0
14/04/2022,16:44:05,26.384499,0.0,0.0,2.59967041015625,2.6005325317382812,0.0,0.0,-0.002461300464347005,0,0,0,47.641468,-122.140165,124.59966278076172,0.0,0.0,0.0,0.0,0.0,0.0,0.0,0.0,0.0,0.840896798882993,-0.25799739921976594,-0.004161248374512427,0.8003295898437512,0.0,0.0,0.0,-0.0,-0.0,0.0,-0.0,-0.0,0.0
14/04/2022,16:44:05,26.566502,0.0,0.0,2.5992050170898438,2.6005325317382812,0.0,0.0,-0.0025651922915130854,0,0,0,47.641468,-122.140165,124.59920501708984,0.0,0.0,0.0,0.0,0.0,0.0,0.0,0.0,0.0,0.84133975220851,-0.25799739921976594,-0.004161248374512427,0.8007949829101575,0.0,0.0,0.0,-0.0,-0.0,0.0,-0.0,-0.0,0.0
14/04/2022,16:44:05,26.722499,0.0,0.0,2.5988082885742188,2.6005325317382812,0.0,0.0,-0.0026360999327152967,0,0,0,47.641468,-122.140165,124.59880065917969,0.0,0.0,0.0,0.0,0.0,0.0,0.0,0.0,0.0,0.8417173708850091,-0.25799739921976594,-0.004161248374512427,0.8011917114257825,0.0,0.0,0.0,-0.0,-0.0,0.0,-0.0,-0.0,0.0
14/04/2022,16:44:05,26.908017,0.0,0.0,2.5983123779296875,2.6005325317382812,0.0,0.0,-0.0027076818514615297,0,0,0,47.641468,-122.140165,124.59830474853516,0.0,0.0,0.0,0.0,0.0,0.0,0.0,0.0,0.0,0.842189418939084,-0.25799739921976594,-0.004161248374512427,0.8016876220703137,0.0,0.0,0.0,-0.0,-0.0,0.0,-0.0,-0.0,0.0
14/04/2022,16:44:05,27.092024,0.0,0.0,2.5978012084960938,2.6005325317382812,0.0,0.0,-0.002765956334769726,0,0,0,47.641468,-122.140165,124.5978012084961,0.0,0.0,0.0,0.0,0.0,0.0,0.0,0.0,0.0,0.8426760202370347,-0.25799739921976594,-0.004161248374512427,0.8021987915039075,0.0,0.0,0.0,-0.0,-0.0,0.0,-0.0,-0.0,0.0
14/04/2022,16:44:05,27.248014,0.0,0.0,2.5973663330078125,2.6005325317382812,0.0,0.0,-0.0028064020443707705,0,0,0,47.641468,-122.140165,124.59736633300781,0.0,0.0,0.0,0.0,0.0,0.0,0.0,0.0,0.0,0.8430900173655986,-0.25799739921976594,-0.004161248374512427,0.8026336669921887,0.0,0.0,0.0,-0.0,-0.0,0.0,-0.0,-0.0,0.0
14/04/2022,16:44:06,27.438015,0.0,0.0,2.5968399047851562,2.6005325317382812,0.0,0.0,-0.0028463443741202354,0,0,0,47.641468,-122.140165,124.59683990478516,0.0,0.0,0.0,0.0,0.0,0.0,0.0,0.0,0.0,0.8435911998934771,-0.25799739921976594,-0.004161248374512427,0.803160095214845,0.0,0.0,0.0,-0.0,-0.0,0.0,-0.0,-0.0,0.0
14/04/2022,16:44:06,27.619017,0.0,0.0,2.5963058471679688,2.6005325317382812,0.0,0.0,-0.0028789376374334097,0,0,0,47.641468,-122.140165,124.59630584716797,0.0,0.0,0.0,1.0,5.0,0.0,1.0,5.0,0.0,0.8440996773418386,-0.25799739921976594,-0.004161248374512427,0.8036941528320325,1.0,5.0,0.0,-0.0,-0.0,0.0,-0.0,-0.0,0.0
14/04/2022,16:44:06,27.784017,0.002002612454816699,0.007772623561322689,2.6110916137695312,2.6110916137695312,0.05805567279458046,0.23355484008789062,0.41275346279144287,0.05805567279458046,0.23355484008789062,0.41275346279144287,47.64146807585702,-122.14016496992552,124.61231231689453,3.6075831873333186,-15.9880883773543,-0.5306193405242631,0.9536525058150072,5.0090465058883975,0.0,0.9536525058150072,5.0090465058883975,0.0,0.8306978802255103,-0.2601248231305897,-0.00419556166339663,0.78890838623047,0.9536525058150072,5.0090465058883975,0.0,-0.0,-0.0,0.0,-0.0,-0.0,-0.0
14/04/2022,16:44:06,27.939018,0.0196937796426937,0.10050520114600658,2.7246551513671875,2.7246551513671875,0.17089909315109253,1.0680445432662964,1.0906604528427124,0.17089909315109253,1.0680445432662964,1.0906604528427124,47.64146890225396,-122.14016472299556,124.72465515136719,1.5521844752168314,-24.091212953188073,-0.9639230040805686,0.9157443032881403,5.016115266916752,0.0,-0.07281150894206545,5.000170818332393,-2.271292266444535,0.7308373174018854,-0.2793066869746598,-0.004504946564107493,0.6753448486328137,0.9157443032881403,5.016115266916752,0.0,-0.0,-0.0,0.0,-0.9885558122302057,-0.015944448584359276,-2.271292266444535
14/04/2022,16:44:06,28.098019,0.045535693992860615,0.3136422913521528,2.8812713623046875,2.8812713623046875,0.18188072741031647,1.5599682331085205,0.6052152514457703,0.18188072741031647,1.5599682331085205,1.0906604528427124,47.641470859167626,-122.14016434024126,124.88311767578125,0.08740475163394276,-27.334989304385328,-0.9810094571426229,0.9142483824615543,5.016388132428195,0.0,-0.5307382417218934,4.993081896554268,-1.383287540649725,0.6035933841805939,-0.30857868134522487,-0.00497707550556814,0.5187286376953137,0.9142483824615543,5.016388132428195,0.0,-0.0,-0.0,0.0,-1.4449866241834477,-0.023306235873926766,-1.383287540649725
14/04/2022,16:44:06,28.274017,0.07365450530778617,0.6367215095087886,2.9250640869140625,2.9250640869140625,0.16691043972969055,2.043954849243164,-0.08471901714801788,0.18188072741031647,2.043954849243164,1.0906604528427124,47.641473721067364,-122.14016392549888,124.92506408691406,-0.58846413603156,-20.3060540538028,-1.0138421511172082,0.9113736484180807,5.016911208399956,0.0,0.9113736484180807,5.016911208399956,0.0,0.5852264438462756,-0.34189977945193106,-0.005514512571805685,0.47493591308593874,0.9113736484180807,5.016911208399956,0.0,-0.0,-0.0,0.0,-0.0,-0.0,0.0
14/04/2022,16:44:07,28.456015,0.09590707626193762,1.0759377144277096,2.9464263916015625,2.9464263916015625,0.12383982539176941,2.849327802658081,0.5824131965637207,0.18188072741031647,2.849327802658081,1.0906604528427124,47.641477746985586,-122.14016355945948,124.94815826416016,-0.6103432462791772,-17.064153092752385,-1.0395293082201944,0.909124347842303,5.017319296213897,0.0,-0.5103452995336251,4.994424624482026,-1.4205057921821407,0.5861533334974104,-0.3712288529116791,-0.005987562143736858,0.45357360839843874,0.909124347842303,5.017319296213897,0.0,-0.0,-0.0,0.0,-1.419469647375928,-0.022894671731871312,-1.4205057921821407
14/04/2022,16:44:07,28.638013,0.11057261540554464,1.629207900725305,3.0109024047851562,3.0109024047851562,0.10606499761343002,3.1349546909332275,-0.10011596977710724,0.18188072741031647,3.1349546909332275,1.0906604528427124,47.64148273097441,-122.14016328326824,125.0106201171875,-0.6455094641466689,-11.116489826811677,-1.1009128084903799,0.9037485512761207,5.018290401727097,0.0,0.9037485512761207,5.018290401727097,0.0,0.554359071910771,-0.3948119696915169,-0.006367934995024083,0.389097595214845,0.9037485512761207,5.018290401727097,0.0,-0.0,-0.0,0.0,-0.0,-0.0,0.0
14/04/2022,16:44:07,28.825016,0.12091346306260675,2.244676080532372,3.013885498046875,3.013885498046875,0.07723332941532135,3.5207369327545166,0.22796988487243652,0.18188072741031647,3.5207369327545166,1.0906604528427124,47.641488277508394,-122.1401630558959,125.01456451416016,-0.4580242408547067,-10.495371075279314,-1.1049248359994552,0.9033971528617522,5.018353672690007,0.0,0.9033971528617522,5.018353672690007,0.0,0.5669356482167519,-0.41507445227715667,-0.0066947492302769085,0.38611450195312624,0.9033971528617522,5.018353672690007,0.0,-0.0,-0.0,0.0,-0.0,-0.0,-0.0
14/04/2022,16:44:07,29.012531,0.12601600971538574,2.9263469660654664,3.0545730590820312,3.0545730590820312,0.05920867994427681,3.8181536197662354,0.18833769857883453,0.18188072741031647,3.8181536197662354,1.0906604528427124,47.64149431500198,-122.14016289042874,125.05457305908203,-0.25985552876868695,-9.229374724049269,-1.5089996312961447,0.867983364162682,5.0245999720909955,-1.0,0.867983364162682,5.0245999720909955,-1.0,0.5525156564207317,-0.43116750409414867,-0.006954314582164223,0.34542694091797,0.867983364162682,5.0245999720909955,-1.0,-0.0,-0.0,0.0,-0.0,-0.0,-0.0
14/04/2022,16:44:07,29.196535,0.1281495379516855,3.6386303221806884,3.032958984375,3.0545730590820312,0.05132042244076729,3.9608376026153564,-0.5666266083717346,0.18188072741031647,3.9608376026153564,1.0906604528427124,47.64150082973385,-122.14016275481505,125.03128051757812,0.01639840996477898,-8.238879089783135,-3.041652735428877,0.7332816066769433,5.046018042507307,-1.0,-0.2834509379616382,5.029619130497005,1.259394271322822,0.5767192533381145,-0.4447859307832202,-0.007173966625536821,0.36704101562500124,0.7332816066769433,5.046018042507307,-1.0,-0.0,-0.0,0.0,-1.0167325446385815,-0.016398912010302212,2.259394271322822
14/04/2022,16:44:08,29.353535,0.12837047793436795,4.246787568554282,2.9637069702148438,3.0545730590820312,0.039687372744083405,4.197444915771484,-0.028894944116473198,0.18188072741031647,4.197444915771484,1.0906604528427124,47.64150630747749,-122.14016266255179,124.96359252929688,0.22967646571898823,-6.249109513899811,-4.925295595100412,0.5670235247574793,5.067394233960053,0.0,0.5670235247574793,5.067394233960053,0.0,0.630286056260395,-0.4548132500468338,-0.007335697581400069,0.4362930297851575,0.5670235247574793,5.067394233960053,0.0,-0.0,-0.0,0.0,-0.0,-0.0,0.0
14/04/2022,16:44:08,29.526536,0.12617974705062807,5.018466982990503,2.9914779663085938,3.0545730590820312,0.032114267349243164,4.368386745452881,0.142677441239357,0.18188072741031647,4.368386745452881,1.0906604528427124,47.64151313724,-122.1401625793812,124.9914779663086,0.3364081416854116,-5.058938356810682,-6.6399454069673,0.4151439873928038,5.082091643185078,0.0,0.4151439873928038,5.082091643185078,0.0,0.6190582976661803,-0.4650662940463005,-0.007501069258812443,0.4085220336914075,0.4151439873928038,5.082091643185078,0.0,-0.0,-0.0,0.0,-0.0,-0.0,0.0
14/04/2022,16:44:08,29.681532,0.12336869083810598,5.680096789263189,3.0102920532226562,3.0545730590820312,0.028158774599432945,4.4676947593688965,0.10940715670585632,0.18188072741031647,4.4676947593688965,1.0906604528427124,47.641519210411154,-122.14016251799573,125.0106201171875,0.33507310105818333,-4.283266384110392,-7.37835083928531,0.34961533038758286,5.087019669782886,0.0,0.34961533038758286,5.087019669782886,0.0,0.612852498067742,-0.47292464200676126,-0.007627816806561327,0.389707946777345,0.34961533038758286,5.087019669782886,0.0,-0.0,-0.0,0.0,-0.0,-0.0,0.0
14/04/2022,16:44:08,29.855534,0.11919735150877386,6.478008487261832,3.0272216796875,3.0545730590820312,0.024685002863407135,4.561467170715332,0.08243378251791,0.18188072741031647,4.561467170715332,1.0906604528427124,47.64152639195665,-122.14016245586545,125.0274658203125,0.2938828408798329,-3.5086277275256856,-7.82858113940649,0.3096311414611359,5.089609862871365,0.0,0.3096311414611359,5.089609862871365,0.0,0.6090832504531931,-0.4816205839817842,-0.007768073935191744,0.37277832031250124,0.3096311414611359,5.089609862871365,0.0,-0.0,-0.0,0.0,-0.0,-0.0,0.0
14/04/2022,16:44:08,30.032532,0.11424876842647791,7.30447505787015,3.0402374267578125,3.0545730590820312,0.022156404331326485,4.634984493255615,0.06264488399028778,0.18188072741031647,4.634984493255615,1.0906604528427124,47.641533705044615,-122.14016240071571,125.04023742675781,0.24283146696451952,-2.883308400034166,-8.04999734258644,0.28996037750655035,5.0907684075664115,0.0,0.28996037750655035,5.0907684075664115,0.0,0.6079403741749528,-0.489999927027134,-0.007903224629469463,0.35976257324218874,0.28996037750655035,5.0907684075664115,0.0,-0.0,-0.0,0.0,-0.0,-0.0,0.0
14/04/2022,16:44:08,30.178534,0.10990990011487156,7.974163586273789,3.0484085083007812,3.0545730590820312,0.020672185346484184,4.6810479164123535,0.05075741931796074,0.18188072741031647,4.6810479164123535,1.0906604528427124,47.64153985662859,-122.14016235877905,125.0485610961914,0.2048511929592115,-2.48658542222613,-8.140805040882855,0.0,0.0,0.0,0.0,0.0,0.0,0.6084028498674727,-0.49646080582328767,-0.008007432351989863,0.35159149169922,0.0,0.0,0.0,-0.0,-0.0,0.0,-0.0,-0.0,0.0
14/04/2022,16:44:08,30.320532,0.10519389703404158,8.630697647109628,3.0599822998046875,3.0599822998046875,0.011977997608482838,4.544355869293213,0.3281528651714325,0.18188072741031647,4.6810479164123535,1.0906604528427124,47.64154576022661,-122.14016232497532,125.06094360351562,-2.237088871312763,12.415230843386807,-8.468236039896537,0.0,0.0,0.0,0.0,0.0,0.0,0.6066429395288331,-0.5023325342833947,-0.008102137649732555,0.34001770019531374,0.0,0.0,0.0,-0.0,-0.0,0.0,-0.0,-0.0,-0.0
14/04/2022,16:44:09,30.469531,0.0995644445065409,9.238301306031644,3.159759521484375,3.159759521484375,0.004880882333964109,3.8128879070281982,1.0893244743347168,0.18188072741031647,4.6810479164123535,1.0906604528427124,47.641551207645364,-122.14016231050098,125.16300201416016,-3.4137948675600067,21.741839030290496,-8.91626620329354,0.0,0.0,0.0,-0.7829484379894733,-0.01262820061273532,-2.3742379844965327,0.5606483383002001,-0.5065020560876736,-0.008169388001416422,0.24024047851562624,0.0,0.0,0.0,-0.0,-0.0,0.0,-0.7829484379894733,-0.01262820061273532,-2.3742379844965327
14/04/2022,16:44:09,30.652534,0.09362843562848866,9.857294671237469,3.329864501953125,3.329864501953125,0.0064429123885929585,3.2823328971862793,0.5201776623725891,0.18188072741031647,4.6810479164123535,1.0906604528427124,47.64155676269774,-122.14016229807679,125.33145141601562,-3.9291083131637494,25.98366464562818,-9.184148809672783,0.0,0.0,0.0,-1.1970574019201814,-0.019307377450328875,-1.8455995064602573,0.5154093833115196,-0.5105487584324144,-0.008234657394071476,0.07013549804687624,0.0,0.0,0.0,-0.0,-0.0,0.0,-1.1970574019201814,-0.019307377450328875,-1.8455995064602573
14/04/2022,16:44:09,30.819531,0.08733473822940141,10.364174636080861,3.3903274536132812,3.3903274536132812,-0.03529415279626846,2.618075132369995,0.24291016161441803,0.18188072741031647,4.6810479164123535,1.0906604528427124,47.64156123504331,-122.14016230728353,125.39032745361328,-7.026776317092211,22.24697600002187,-8.764213985975244,0.0,0.0,0.0,0.0,0.0,0.0,0.5125879725323325,-0.5124300549260943,-0.008265000885904428,0.009672546386719993,0.0,0.0,0.0,-0.0,-0.0,0.0,-0.0,-0.0,-0.0
14/04/2022,16:44:09,30.989532,0.06770942138973624,10.742168132215738,3.4544677734375,3.4544677734375,-0.13678304851055145,1.8718260526657104,0.6028422713279724,0.18188072741031647,4.6810479164123535,1.0906604528427124,47.64156468828257,-122.14016251819295,125.4562759399414,-3.58782467700203,17.115715101424392,-8.221455833416117,0.0,0.0,0.0,-0.513685702619882,-0.008285253268069212,-2.265140437456208,0.5019338753929221,-0.4989049258828405,-0.008046853643271845,-0.05446777343749876,0.0,0.0,0.0,-0.0,-0.0,-0.0,-0.513685702619882,-0.008285253268069212,-2.265140437456208
14/04/2022,16:44:09,31.128533,0.04485205432865769,10.98594184499234,3.5102996826171875,3.5102996826171875,-0.14435885846614838,1.623457431793213,0.04791828617453575,0.18188072741031647,4.6810479164123535,1.0906604528427124,47.64156687696994,-122.14016278680116,125.51046752929688,-2.063058966052402,15.60292710289302,-8.126124220491516,0.0,0.0,0.0,0.0,0.0,0.0,0.49255547534552785,-0.47998431501401434,-0.007741682500226332,-0.11029968261718626,0.0,0.0,0.0,-0.0,-0.0,-0.0,-0.0,-0.0,-0.0
14/04/2022,16:44:09,31.273532,0.022367049241438508,11.19509799964726,3.5114517211914062,3.5114517211914062,-0.1323128193616867,1.2618707418441772,0.07913727313280106,0.18188072741031647,4.6810479164123535,1.0906604528427124,47.64156875121127,-122.14016305477085,125.51168823242188,-1.0321699276005911,11.971914515475367,-8.018717630079646,0.0,0.0,0.0,0.0,0.0,0.0,0.47422047527823336,-0.4608777667782106,-0.00743351236739187,-0.111451721191405,0.0,0.0,0.0,-0.0,-0.0,-0.0,-0.0,-0.0,-0.0
14/04/2022,16:44:10,31.447535,-0.0011199567234143615,11.387740557081997,3.5190048217773438,3.5190048217773438,-0.11157248914241791,0.9661708474159241,0.0006751599721610546,0.18188072741031647,4.6810479164123535,1.0906604528427124,47.64157045262258,-122.14016333369437,125.51900482177734,-0.4532139299878065,8.644989979553163,-7.964228077956378,0.0,0.0,-2.0,0.0,0.0,-2.0,0.45635040875536936,-0.4405031991922702,-0.007104890309554079,-0.1190048217773425,0.0,0.0,-2.0,-0.0,-0.0,-0.0,-0.0,-0.0,-0.0
14/04/2022,16:44:10,31.621535,-0.020683015463873744,11.539225093089044,3.472137451171875,3.5190048217773438,-0.09815116226673126,0.8250423073768616,-0.6875107884407043,0.18188072741031647,4.6810479164123535,1.0906604528427124,47.64157183970513,-122.14016357568715,125.47010040283203,-0.2639370921538359,7.588122659517353,-7.950714925772154,0.0,0.0,-3.0,-0.4488202489389732,-0.007239036273208989,-0.6954692422387123,0.42954365538026357,-0.4233878918929493,-0.006828836966016993,-0.07213745117187376,0.0,0.0,-3.0,-0.0,-0.0,-0.0,-0.4488202489389732,-0.007239036273208989,2.3045307577612877
14/04/2022,16:44:10,31.792531,-0.037028965540230274,11.662775143049657,3.373199462890625,3.5190048217773438,-0.07237442582845688,0.5896280407905579,-0.31898224353790283,0.18188072741031647,4.6810479164123535,1.0906604528427124,47.641572946551996,-122.14016377401869,125.37223815917969,-0.13489249612194198,5.369703918380892,-7.939517918488161,0.0,0.0,-3.0,0.0,0.0,-3.0,0.40996856147169963,-0.40903841751168624,-0.006597393830835685,0.026800537109376243,0.0,0.0,-3.0,-0.0,-0.0,0.0,-0.0,-0.0,0.0
14/04/2022,16:44:10,31.939537,-0.047795075573958457,11.742511017248034,3.2991943359375,3.5190048217773438,-0.06292466074228287,0.508209228515625,-0.8476824760437012,0.18188072741031647,4.6810479164123535,1.0906604528427124,47.64157366276774,-122.14016390518553,125.29667663574219,-0.10183787597194721,4.98923587877804,-7.936890796234753,0.0,0.0,-3.0,-0.3981849352563849,-0.006422337665425482,-0.5349028146571992,0.41213125961033487,-0.39956083551705635,-0.006444529605115434,0.10080566406250124,0.0,0.0,-3.0,-0.0,-0.0,0.0,-0.3981849352563849,-0.006422337665425482,2.4650971853428008
14/04/2022,16:44:10,32.083541,-0.05654342228081077,11.806831817142665,3.1883010864257812,3.5190048217773438,-0.04734409600496292,0.37856388092041016,-0.5470767021179199,0.18188072741031647,4.6810479164123535,1.0906604528427124,47.64157422860642,-122.14016400962906,125.18830108642578,-0.06349679590472371,3.6121185811392587,-7.93391363125241,0.0,0.0,-3.0,-0.5435286218324566,-0.008766590674718418,-0.7059626063645843,0.4454259839147702,-0.391851926505958,-0.006320192363000743,0.21169891357422,0.0,0.0,-3.0,-0.0,-0.0,0.0,-0.5435286218324566,-0.008766590674718418,2.2940373936354157
14/04/2022,16:44:10,32.25753,-0.0642417527269572,11.862960442900658,3.1072158813476562,3.5190048217773438,-0.03573186323046684,0.28383708000183105,-0.4226076006889343,0.18188072741031647,4.6810479164123535,1.0906604528427124,47.64157474201574,-122.14016410525666,125.10594940185547,-0.03819025964157751,2.4968098199594153,-7.932208898506934,0.0,0.0,-3.0,-0.6077282437088906,-0.00980206844692001,-0.8573098715665486,0.4837693941537806,-0.3850606631930864,-0.006210655857953995,0.292784118652345,0.0,0.0,-3.0,-0.0,-0.0,0.0,-0.6077282437088906,-0.00980206844692001,2.1426901284334514
14/04/2022,16:44:11,32.435534,-0.0702194730984047,11.906346653588116,3.0397186279296875,3.5190048217773438,-0.027485273778438568,0.2175920158624649,-0.3530554175376892,0.18188072741031647,4.6810479164123535,1.0906604528427124,47.64157513115523,-122.1401641780971,125.03865814208984,-0.025478154317660578,1.8320098554915816,-7.931459427889997,0.0,0.0,-3.0,-0.640483457508987,-0.010330378346922724,-0.9417910970914187,0.5235228235585581,-0.3797840930902979,-0.006125549888553294,0.36028137207031374,0.0,0.0,-3.0,-0.0,-0.0,0.0,-0.640483457508987,-0.010330378346922724,2.0582089029085813
14/04/2022,16:44:11,32.618533,-0.07490584801416844,11.940282859839499,2.9824676513671875,3.5190048217773438,-0.021216873079538345,0.16767504811286926,-0.29348909854888916,0.18188072741031647,4.6810479164123535,1.0906604528427124,47.641575435589594,-122.1401642352215,124.9815902709961,-0.018224419928092133,1.3870780592163612,-7.931099658345471,0.0,0.0,-3.0,-0.6659735857457422,-0.010741509447512456,-1.0244641784890225,0.5616760662865635,-0.37564615280717434,-0.006058808916247216,0.41753234863281374,0.0,0.0,-3.0,-0.0,-0.0,0.0,-0.6659735857457422,-0.010741509447512456,1.9755358215109775
14/04/2022,16:44:11,32.794536,-0.07866394624579698,11.967460540123284,2.8878097534179688,3.5190048217773438,-0.018191196024417877,0.14368602633476257,-0.9480843544006348,0.18188072741031647,4.6810479164123535,1.0906604528427124,47.6415756798171,-122.14016428111549,124.8849868774414,-0.014715526559487014,1.1538391734961222,-7.930940928021938,0.0,0.0,-3.0,-0.35572130109510314,-0.005737440340245273,-0.4846319752343793,0.6332475868886891,-0.37232726765118335,-0.006005278510503587,0.5121902465820325,0.0,0.0,-3.0,-0.0,-0.0,0.0,-0.35572130109510314,-0.005737440340245273,2.5153680247656207
14/04/2022,16:44:11,32.938533,-0.08131480775773525,11.986631303094327,2.766204833984375,3.5190048217773438,-0.013670114800333977,0.10793003439903259,-0.39819788932800293,0.18188072741031647,4.6810479164123535,1.0906604528427124,47.641575851604905,-122.14016431339392,124.7649917602539,-0.011393676302357544,0.9046312715212064,-7.930856629459621,0.0,0.0,-3.0,-0.5707039073383147,-0.009204901731262422,-0.641907448635537,0.7339085280135093,-0.3699862210067917,-0.005967519693658829,0.6337951660156262,0.0,0.0,-3.0,-0.0,-0.0,0.0,-0.5707039073383147,-0.009204901731262422,2.358092551364463
14/04/2022,16:44:11,33.111532,-0.08353901270311326,12.002710185013711,2.7207183837890625,3.5190048217773438,-0.010391559451818466,0.08202190697193146,-0.20411288738250732,0.18188072741031647,4.6810479164123535,1.0906604528427124,47.64157599578735,-122.14016434049734,124.72010803222656,-0.00861984343543895,0.6900984804027349,-7.930776953503143,0.0,0.0,-4.0,-0.6690928390247102,-0.010791819984271547,-1.9203612536963615,0.7725922861219177,-0.36802186388558716,-0.0059358365142845315,0.6792816162109387,0.0,0.0,-4.0,-0.0,-0.0,0.0,-0.6690928390247102,-0.010791819984271547,2.0796387463036385
14/04/2022,16:44:11,33.288534,-0.08535405970178545,12.015827315859497,2.6400299072265625,3.5190048217773438,-0.008947332389652729,0.07061564177274704,-0.8772202730178833,0.18188072741031647,4.6810479164123535,1.0906604528427124,47.64157611175861,-122.14016436230648,124.64002990722656,-0.00715517996334261,0.5753288566334912,-7.930732894207971,0.0,0.0,-4.0,-0.35625380700387005,-0.005746029145224713,-1.4465429530683238,0.8437133441952372,-0.36641880054346565,-0.005909980653926894,0.7599700927734387,0.0,0.0,-4.0,-0.0,-0.0,0.0,-0.35625380700387005,-0.005746029145224713,2.553457046931676
14/04/2022,16:44:12,33.454532,-0.08689763746224344,12.02698175329715,2.44720458984375,3.5190048217773438,-0.007440106011927128,0.05871686339378357,-1.2245750427246094,0.18188072741031647,4.6810479164123535,1.0906604528427124,47.64157621385554,-122.14016438150631,124.44352722167969,-0.0058181376188836545,0.4690499045548992,-7.930700532617933,0.0,0.0,-4.0,-0.5500170999213272,-0.008871243547119202,0.29021467205653906,1.0203525229934385,-0.3650554877242027,-0.0058879917374881074,0.9527954101562512,0.0,0.0,-4.0,-0.14524987689979246,-0.0023427399499970376,0.3791024123446083,-0.4047672230215348,-0.006528503597122165,3.9111122597119308
14/04/2022,16:44:12,33.631535,-0.08809452946297824,12.035629876889288,2.29986572265625,3.5190048217773438,-0.005103015806525946,0.04027033969759941,-0.2995609939098358,0.18188072741031647,4.6810479164123535,1.0906604528427124,47.64157629127828,-122.14016439606931,124.2989501953125,-0.0042869990401630375,0.3457842092981674,-7.930671154134308,0.0,0.0,-4.0,-0.6478540786750765,-0.010449259333469511,-1.1437069754032825,1.1588031324354469,-0.36399835659595514,-0.005870941235420091,1.1001342773437512,0.0,0.0,-4.0,-0.13836042905412185,-0.0022316198234541332,0.4181751040139701,-0.5094936496209547,-0.008217639510015378,2.4381179205827475
14/04/2022,16:44:12,33.899057,-0.08940420113503933,12.045094884932041,2.1207656860351562,3.5190048217773438,-0.003913432825356722,0.030880922451615334,-1.129103660583496,0.18188072741031647,4.6810479164123535,1.0906604528427124,47.64157637547535,-122.14016441190178,124.12076568603516,-0.0030988944384441187,0.25029798788863933,-7.9306690535478825,0.0,0.0,-4.0,-0.5669276547541158,-0.009143994431519278,0.8111821812052344,1.329710021111603,-0.36284164725687784,-0.005852284633176552,1.279234313964845,0.0,0.0,-4.0,-0.1282187176585056,-0.0020680438332020923,0.45204784114875723,-0.4387089370956102,-0.007075950598317186,4.359134340056477
14/04/2022,16:44:12,34.053584,-0.08997091231867671,12.049189423210919,1.9929962158203125,3.5190048217773438,-0.0028084106743335724,0.02216079644858837,-0.33355969190597534,0.18188072741031647,4.6810479164123535,1.0906604528427124,47.64157641296865,-122.14016441895416,123.9919662475586,-0.002364155741879159,0.19089981555355073,-7.9306730145363895,0.0,0.0,-4.0,-0.5452809769585462,-0.008794854467074321,-1.0674186213205945,1.452922875272151,-0.3623411072265497,-0.0058442114068810724,1.4070037841796887,0.0,0.0,-4.0,-0.12061046589524652,-0.0019453300950850335,0.46834151174623556,-0.42467051106329967,-0.006849524371989288,2.4642398669331698
14/04/2022,16:44:12,34.229586,-0.09044419240672141,12.052608043886721,1.9120407104492188,3.5190048217773438,-0.002366933971643448,0.018676625564694405,-0.8662666082382202,0.18188072741031647,4.6810479164123535,1.0906604528427124,47.64157644368109,-122.1401644247319,123.90946197509766,-0.001921703505353677,0.15539955079229778,-7.930673573603979,0.0,0.0,0.0,-0.4971298146180197,-0.008018222816420026,3.9087349756259258,1.5313540529778535,-0.36192307493095954,-0.005837468950499414,1.4879592895507825,0.0,0.0,0.0,-0.11573830766466613,-0.0018667468978172167,0.47583009201438187,-0.38139150695335355,-0.006151475918602808,3.4329048836115437
14/04/2022,16:44:13,34.369361,-0.09077692171558738,12.055014601908624,1.8080673217773438,3.5190048217773438,-0.001813186565414071,0.014307922683656216,-0.26884427666664124,0.18188072741031647,4.6810479164123535,1.0906604528427124,47.641576465241684,-122.14016442878393,123.8072280883789,-0.0012306049184006578,0.09957879259468366,-7.9306754160742035,0.0,0.0,0.0,-0.5249667348130287,-0.008467205400213078,2.950049275997673,1.632500958086571,-0.36162923751459475,-0.005832729637331724,1.5919326782226575,0.0,0.0,0.0,-0.10965981446957053,-0.0017687066849929364,0.48273486773839114,-0.4153069203434581,-0.0066984987152201424,2.467314408259282
14/04/2022,16:44:13,34.54988,-0.09106907970272005,12.057126211002469,1.8592681884765625,3.5190048217773438,-0.0012789447791874409,0.010090869851410389,0.8945861458778381,0.18188072741031647,4.6810479164123535,1.0906604528427124,47.64157648388413,-122.1401644322887,123.85926818847656,-0.0009098507734674134,0.0735244653399621,-7.930676197915185,0.0,0.0,0.0,-0.11251231059212521,-0.0018147146869700232,0.4797042315039494,1.5825541491363013,-0.3613712048647327,-0.005828567820399755,1.5407318115234387,0.0,0.0,0.0,-0.11251231059212521,-0.0018147146869700232,0.4797042315039494,-0.0,-0.0,-0.0
14/04/2022,16:44:13,34.725882,-0.09128797519952059,12.0587064800784,2.0090560913085938,3.5190048217773438,-0.0010795252164825797,0.008516989648342133,0.47843268513679504,0.18188072741031647,4.6810479164123535,1.0906604528427124,47.64157649835121,-122.14016443501261,124.01050567626953,-0.0008300449940794352,0.06714219952179548,-7.930676887598264,0.300561443462111,5.090153516221684,0.0,0.1793809662766927,5.088198992396112,0.4666821278847146,1.4370832720419289,-0.3611778478798189,-0.005825449159353013,1.3909439086914075,0.300561443462111,5.090153516221684,0.0,-0.12118047718541829,-0.0019545238255716303,0.4666821278847146,-0.0,-0.0,0.0
14/04/2022,16:44:13,34.893879,-0.09113470511510968,12.07173466309905,2.09222412109375,3.5190048217773438,0.007394095417112112,0.31112366914749146,0.8214817047119141,0.18188072741031647,4.6810479164123535,1.0906604528427124,47.64157662350691,-122.14016443071267,124.09466552734375,2.6929430908375123,-17.46984684803085,-8.362461606358632,0.26219354403741035,5.0922740053403555,0.0,0.13605365766102673,5.0902394910439615,0.4562764108342858,1.356843307344977,-0.3615411554355421,-0.005831308958640591,1.3077758789062512,0.26219354403741035,5.0922740053403555,0.0,-0.12613988637638363,-0.0020345142963942666,0.4562764108342858,-0.0,-0.0,-0.0
14/04/2022,16:44:13,35.065883,-0.09107358322944492,12.204991091042757,2.3024139404296875,3.5190048217773438,0.008284066803753376,1.3392058610916138,1.6427600383758545,0.18188072741031647,4.6810479164123535,1.6427600383758545,47.64157784999881,-122.14016441018558,124.30732727050781,3.568736554724403,-24.831768259026756,-8.728495585640333,0.22965643202993946,5.093845102005682,0.0,-0.3849635927169115,5.0839318758000855,-2.0426892528195713,1.1563063474016309,-0.36375099966467217,-0.005866951607496063,1.0975860595703137,0.22965643202993946,5.093845102005682,0.0,-0.13839772967812783,-0.0022322214464219297,0.41760275273725045,-0.4762222950687231,-0.007681004759173847,-2.4602920055568216
14/04/2022,16:44:13,35.242881,-0.09312327555380762,12.490611247718334,2.5557708740234375,3.5190048217773438,0.004735253751277924,1.845283031463623,0.9709978699684143,0.18188072741031647,4.6810479164123535,1.6427600383758545,47.64158038404007,-122.14016439563738,124.55577087402344,3.8269763824105754,-27.46791582855952,-8.878476366977536,0.21632171377012144,5.094428811569709,0.0,-0.6038935253107545,5.0811995335200235,-2.068539937160077,0.9202928061308017,-0.36630741901942787,-0.005908184177734199,0.8442291259765637,0.21632171377012144,5.094428811569709,0.0,-0.0,-0.0,0.0,-0.8202152390808759,-0.01322927804968526,-2.068539937160077
14/04/2022,16:44:14,35.41288,-0.09647952776867896,12.835607890039682,2.6419219970703125,3.5190048217773438,0.0005239979363977909,2.207491874694824,0.012263400480151176,0.18188072741031647,4.6810479164123535,1.6427600383758545,47.64158354763776,-122.1401643893607,124.64198303222656,3.424178709181577,-25.360353460060207,-8.70936184042529,0.2313574927302362,5.0937681249304605,0.0,0.2313574927302362,5.0937681249304605,0.0,0.8429240372365803,-0.36851505447065236,-0.005943791201140414,0.7580780029296887,0.2313574927302362,5.0937681249304605,0.0,-0.0,-0.0,0.0,-0.0,-0.0,0.0
14/04/2022,16:44:14,35.583881,-0.10202566464431584,13.275251049548388,2.6545333862304688,3.5190048217773438,-0.00920712761580944,3.0557241439819336,0.4723449945449829,0.18188072741031647,4.6810479164123535,1.6427600383758545,47.641587526278194,-122.14016439867375,124.65592956542969,2.460737126319403,-18.40307244159983,-8.310669094111349,0.2667965966958179,5.092034915040502,0.0,0.2667965966958179,5.092034915040502,0.0,0.832286102689518,-0.37005953450695706,-0.005968702169468543,0.7454666137695325,0.2667965966958179,5.092034915040502,0.0,-0.0,-0.0,0.0,-0.0,-0.0,-0.0
14/04/2022,16:44:14,35.758882,-0.1103358807740733,13.85315627977252,2.7500534057617188,3.5190048217773438,-0.01154248882085085,3.5433928966522217,0.4806084930896759,0.18188072741031647,4.6810479164123535,1.6427600383758545,47.6415927396309,-122.14016442407836,124.75150299072266,1.8543990454161308,-13.461600893731465,-8.103685391112927,0.285190031815871,5.091037875104924,0.0,0.285190031815871,5.091037875104924,0.0,0.7484379869756481,-0.3710701075813676,-0.0059850017351834595,0.6499465942382825,0.285190031815871,5.091037875104924,0.0,-0.0,-0.0,0.0,-0.0,-0.0,-0.0
14/04/2022,16:44:14,35.932881,-0.11938031192403287,14.495483497157693,2.8171539306640625,3.5190048217773438,-0.010097650811076164,3.8493120670318604,0.29818424582481384,0.18188072741031647,4.6810479164123535,1.6427600383758545,47.641598423968716,-122.14016444918833,124.81715393066406,1.4394131061053697,-10.149172789597644,-7.997409073114915,0.29463275770078057,5.090500126518968,0.0,0.29463275770078057,5.090500126518968,0.0,0.6916766144995995,-0.3723854506600246,-0.006006216946129683,0.5828460693359387,0.29463275770078057,5.090500126518968,0.0,-0.0,-0.0,0.0,-0.0,-0.0,-0.0
14/04/2022,16:44:14,36.102882,-0.12839788000565022,15.172721586190164,2.8584671020507812,3.5190048217773438,-0.007264430169016123,4.082981109619141,0.19056902825832367,0.18188072741031647,4.6810479164123535,1.6427600383758545,47.641604627793186,-122.1401644695401,124.85903930664062,1.1302320585793113,-7.844617119976136,-7.939568407378241,0.2997715177775454,5.0902000979459885,0.0,0.2997715177775454,5.0902000979459885,0.0,0.658321930366866,-0.37429058195112375,-0.006036944870182026,0.54153289794922,0.2997715177775454,5.0902000979459885,0.0,-0.0,-0.0,0.0,-0.0,-0.0,0.0
14/04/2022,16:44:14,36.281881,-0.13743107172194868,15.898115212097764,2.8856353759765625,3.5190048217773438,-0.0039489371702075005,4.266737461090088,0.124883733689785,0.18188072741031647,4.6810479164123535,1.6427600383758545,47.64161115983381,-122.14016448256609,124.88601684570312,0.8846201054341916,-6.132047901056248,-7.905790991233961,0.3027722765391425,5.09002248998561,0.0,0.3027722765391425,5.09002248998561,0.0,0.6377336480419357,-0.37695659387539415,-0.006079945062509751,0.5143646240234387,0.3027722765391425,5.09002248998561,0.0,-0.0,-0.0,0.0,-0.0,-0.0,0.0
14/04/2022,16:44:15,36.449879,-0.14605363365262747,16.638503406196833,2.9034347534179688,3.5190048217773438,-0.0007875865558162332,4.405643939971924,0.08488636463880539,0.18188072741031647,4.6810479164123535,1.6427600383758545,47.64161782552408,-122.14016448791816,124.9036865234375,0.6951216697865037,-4.87965467083628,-7.886396068401005,0.3044952585540833,5.089919708356712,0.0,0.3044952585540833,5.089919708356712,0.0,0.6254787554833132,-0.38027491376424016,-0.006133466351037953,0.4965652465820325,0.3044952585540833,5.089919708356712,0.0,-0.0,-0.0,0.0,-0.0,-0.0,0.0
14/04/2022,16:44:15,36.62288,-0.15453586191870272,17.413367873989046,2.9158554077148438,3.5190048217773438,0.0020973552018404007,4.514152526855469,0.05887787044048309,0.18188072741031647,4.6810479164123535,1.6427600383758545,47.64162480055357,-122.14016448632312,124.91603088378906,0.5439346034864944,-3.9202977297937176,-7.874735535003672,0.30553112572521524,5.089857633688105,-1.0,0.30553112572521524,5.089857633688105,-1.0,0.6181527234079571,-0.38428945512921386,-0.006198217018216212,0.4841445922851575,0.30553112572521524,5.089857633688105,-1.0,-0.0,-0.0,0.0,-0.0,-0.0,0.0
14/04/2022,16:44:15,36.795401,-0.16242143185809255,18.17486639600247,2.8841400146484375,3.5190048217773438,0.004664731211960316,4.557377815246582,-0.5900498628616333,0.18188072741031647,4.6810479164123535,1.6427600383758545,47.641631653514885,-122.14016447877141,124.88239288330078,0.5359279900241443,-3.451244056475397,-9.070747512155817,0.19922482428411226,5.095126050392568,-1.0,-0.5640077129443116,5.082815848179197,1.3751283824313778,0.6459309845333258,-0.3886849759400899,-0.0062691125151630445,0.5158599853515637,0.19922482428411226,5.095126050392568,-1.0,-0.0,-0.0,0.0,-0.7632325372284239,-0.012310202213370444,2.375128382431378
14/04/2022,16:44:15,36.964398,-0.1701167153660208,18.95993952266872,2.8054656982421875,3.5190048217773438,0.007233618292957544,4.653256893157959,-0.010227812454104424,0.18188072741031647,4.6810479164123535,1.6427600383758545,47.64163871995871,-122.14016446520604,124.80540466308594,0.5598460272134458,-2.538674609391686,-12.973981386834676,-0.14807068065596074,5.096869144242382,-1.0,-0.14807068065596074,5.096869144242382,-1.0,0.7130724760777746,-0.39365087036111224,-0.00634920758647084,0.5945343017578137,-0.14807068065596074,5.096869144242382,-1.0,-0.0,-0.0,0.0,-0.0,-0.0,0.0
14/04/2022,16:44:15,37.130399,-0.17745664424728602,19.758072033524513,2.7916717529296875,3.5190048217773438,0.010711596347391605,4.684157371520996,-0.4636487066745758,0.18188072741031647,4.684157371520996,1.6427600383758545,47.6416457758893,-122.1401644453732,124.79167175292969,0.7178117863722104,-2.2852377357984204,-18.61180799908919,-0.32891585057978734,4.109965250855216,-1.0,-1.1928610021696386,4.096030651636022,1.320767397165576,0.7276341550759576,-0.3991826074361384,-0.006438429152193947,0.6083282470703137,-0.32891585057978734,4.109965250855216,-1.0,-0.0,-0.0,0.0,-0.8639451515898513,-0.013934599219193433,2.320767397165576
14/04/2022,16:44:15,37.268909,-0.18427994556259364,20.390520807355642,2.7345046997070312,3.5190048217773438,-0.03241504356265068,4.6863813400268555,-0.09078656136989594,0.18188072741031647,4.6863813400268555,1.6427600383758545,47.641651592860626,-122.1401644440826,124.73420715332031,-3.368571675150045,-0.20965552428648093,-24.135658029035646,0.0,0.0,-1.0,0.0,0.0,-1.0,0.7778046499132704,-0.4025592143858101,-0.006492890554611108,0.66549530029297,0.0,0.0,-1.0,-0.0,-0.0,0.0,-0.0,-0.0,0.0
14/04/2022,16:44:16,37.409908,-0.20185471302829683,21.04261596687138,2.7326202392578125,3.5190048217773438,-0.10601160675287247,4.479456901550293,0.03615383431315422,0.18188072741031647,4.6863813400268555,1.6427600383758545,47.641657335027745,-122.14016458052221,124.73262023925781,-9.865418500602837,12.891351141466576,-32.00004372178234,0.0,0.0,-1.0,0.0,0.0,-1.0,0.7757962421650944,-0.39550394618081985,-0.006379095906144272,0.6673797607421887,0.0,0.0,-1.0,-0.0,-0.0,0.0,-0.0,-0.0,0.0
14/04/2022,16:44:16,37.573908,-0.22965866653248668,21.71155267301947,2.8005752563476562,3.5190048217773438,-0.12685608863830566,3.6040308475494385,0.6835969090461731,0.18188072741031647,4.6863813400268555,1.6427600383758545,47.64166345336541,-122.14016485697512,124.80261993408203,-15.314754159608745,18.717981069300013,-41.43926002379193,0.0,0.0,-1.0,0.0,0.0,-1.0,0.7089462510246789,-0.378493719525703,-0.006104737411707362,0.599424743652345,0.0,0.0,-1.0,-0.0,-0.0,0.0,-0.0,-0.0,-0.0
14/04/2022,16:44:16,37.741909,-0.25492898270022124,22.248536719940603,2.9085159301757812,3.5190048217773438,-0.10428149998188019,2.9332222938537598,0.5358495116233826,0.18188072741031647,4.6863813400268555,1.6427600383758545,47.641668268869715,-122.14016511320263,124.9101333618164,-17.045463582730846,16.72077024822178,-49.48123507593453,0.0,0.0,-1.0,0.0,0.0,-1.0,0.6103721260439761,-0.36188875608235804,-0.005836915420687205,0.49148406982422,0.0,0.0,-1.0,-0.0,-0.0,0.0,-0.0,-0.0,-0.0
14/04/2022,16:44:16,37.876912,-0.27174553426448256,22.615604122169316,2.9608840942382812,3.5190048217773438,-0.08357852697372437,2.5083842277526855,0.2181810438632965,0.18188072741031647,4.6863813400268555,1.6427600383758545,47.64167156147927,-122.14016528204742,124.9615478515625,-16.772567311373887,13.409194267371785,-55.38780746431727,0.0,0.0,0.0,0.0,0.0,0.0,0.5621856057268543,-0.3509954803281734,-0.005661217424648868,0.43911590576172,0.0,0.0,0.0,-0.0,-0.0,0.0,-0.0,-0.0,0.0
14/04/2022,16:44:16,38.044919,-0.2872065423289314,22.98252293281257,3.0131607055664062,3.5190048217773438,-0.05004776641726494,1.8175902366638184,0.5813893675804138,0.18188072741031647,4.6863813400268555,1.6427600383758545,47.64167484549063,-122.14016543235728,125.014892578125,-13.996524127341084,8.871783325861163,-60.86058481137985,0.0,0.0,0.0,0.0,0.0,0.0,0.5160101619046865,-0.341454999511565,-0.005507338701800535,0.386839294433595,0.0,0.0,0.0,-0.0,-0.0,0.0,-0.0,-0.0,-0.0
14/04/2022,16:44:16,38.215919,-0.29704850958660245,23.250377665273845,3.1113662719726562,3.5190048217773438,-0.03327981010079384,1.4028515815734863,0.5043331980705261,0.18188072741031647,4.6863813400268555,1.6427600383758545,47.64167724506147,-122.14016552315489,125.11288452148438,-11.186880413324328,6.1305782467367385,-63.764805148695366,0.0,0.0,0.0,0.0,0.0,0.0,0.4429344348922176,-0.3359347059547668,-0.005418301708946416,0.288633728027345,0.0,0.0,0.0,-0.0,-0.0,0.0,-0.0,-0.0,-0.0
14/04/2022,16:44:17,38.381918,-0.30414548388216645,23.460819461382926,3.1811294555664062,3.5190048217773438,-0.02366449683904648,1.1073764562606812,0.33092865347862244,0.18188072741031647,4.6863813400268555,1.6427600383758545,47.64167910117497,-122.14016558522741,125.1811294555664,-8.813550656252477,4.438030585957041,-65.21994726743371,0.0,0.0,0.0,0.0,0.0,0.0,0.3978840798833628,-0.33223291718145465,-0.005358595438416103,0.218870544433595,0.0,0.0,0.0,-0.0,-0.0,0.0,-0.0,-0.0,-0.0
14/04/2022,16:44:17,38.546921,-0.309330633492209,23.623985432088375,3.2262496948242188,3.5190048217773438,-0.01736563630402088,0.8741834163665771,0.22026114165782928,0.18188072741031647,4.6863813400268555,1.6427600383758545,47.64168059327261,-122.14016563086076,125.22691345214844,-6.928948283787772,3.328317199646838,-65.93420304772063,0.0,0.0,0.0,0.0,0.0,0.0,0.3727015411901953,-0.32968014087007225,-0.005317421626937602,0.1737503051757825,0.0,0.0,0.0,-0.0,-0.0,0.0,-0.0,-0.0,-0.0
14/04/2022,16:44:17,38.689923,-0.3127526267198846,23.735761520452797,3.252838134765625,3.5190048217773438,-0.013574734330177307,0.7126526236534119,0.15805847942829132,0.18188072741031647,4.6863813400268555,1.6427600383758545,47.641681594856855,-122.14016565976088,125.25331115722656,-5.629013126249116,2.6411976912246002,-66.25254490662427,0.0,0.0,0.0,0.0,0.0,0.0,0.35959546795198377,-0.3280614088834426,-0.005291313046509316,0.14716186523437624,0.0,0.0,0.0,-0.0,-0.0,0.0,-0.0,-0.0,-0.0
14/04/2022,16:44:17,38.854917,-0.31593672640156,23.842234659940004,3.27508544921875,3.5190048217773438,-0.010302773676812649,0.5578600168228149,0.10857941955327988,0.18188072741031647,4.6863813400268555,1.6427600383758545,47.64168253384372,-122.14016568588484,125.27508544921875,-4.390159753137182,2.0269640329388166,-66.44952304689758,0.0,0.0,-1.0,0.0,0.0,-1.0,0.34970800230250154,-0.32659499938327263,-0.005267661280377922,0.12491455078125124,0.0,0.0,-1.0,-0.0,-0.0,0.0,-0.0,-0.0,-0.0
14/04/2022,16:44:17,38.992923,-0.318056799354963,23.913987138308585,3.2634201049804688,3.5190048217773438,-0.009031995199620724,0.4915843904018402,-0.4130209982395172,0.18188072741031647,4.6863813400268555,1.6427600383758545,47.641683192855474,-122.14016570387625,125.26220703125,-3.84944446176713,1.6823291753181622,-67.52029094929748,0.0,0.0,-1.0,-0.6442680029491505,-0.010391419402411303,0.9175492882821497,0.35315458562768365,-0.3256324748646695,-0.005252136691368037,0.1365798950195325,0.0,0.0,-1.0,-0.0,-0.0,0.0,-0.6442680029491505,-0.010391419402411303,1.9175492882821497
14/04/2022,16:44:17,39.135921,-0.31989170669112355,23.97615536302328,3.2151947021484375,3.5190048217773438,-0.006989846471697092,0.3791468143463135,-0.08361804485321045,0.18188072741031647,4.6863813400268555,1.6427600383758545,47.64168374934037,-122.14016571904334,125.21493530273438,-3.128710045834699,1.1471965725547342,-70.87641542143345,0.0,0.0,-1.0,0.0,0.0,-1.0,0.3737322641961673,-0.32480049726573845,-0.005238717697835682,0.18480529785156374,0.0,0.0,-1.0,-0.0,-0.0,0.0,-0.0,-0.0,0.0
14/04/2022,16:44:17,39.314919,-0.3216839946107939,24.036299717612565,3.1607131958007812,3.5190048217773438,-0.006076504942029715,0.32218360900878906,-0.7253834009170532,0.18188072741031647,4.6863813400268555,1.6427600383758545,47.64168428905883,-122.14016573398625,125.15856170654297,-2.622710007550762,0.6996864395363456,-76.00392411717982,0.0,0.0,-1.0,-0.4661598488498715,-0.0075187072395170845,1.4450303336942412,0.40279963293389437,-0.32397849342212925,-0.005225459571327917,0.23928680419922,0.0,0.0,-1.0,-0.0,-0.0,0.0,-0.4661598488498715,-0.0075187072395170845,2.445030333694241
14/04/2022,16:44:18,39.488921,-0.3232012983644381,24.086093700490892,3.055328369140625,3.5190048217773438,-0.004688008222728968,0.23113961517810822,-0.1287584751844406,0.18188072741031647,4.6863813400268555,1.6427600383758545,47.64168473475745,-122.14016574677824,125.05491638183594,-1.8340352078737985,0.28826538253734396,-81.88079288351551,0.0,0.0,-1.0,0.0,0.0,-1.0,0.4725734418911571,-0.3232645041658089,-0.005213943615579808,0.34467163085937624,0.0,0.0,-1.0,-0.0,-0.0,0.0,-0.0,-0.0,0.0
14/04/2022,16:44:18,39.663921,-0.32438348315190524,24.122944556176662,3.01348876953125,3.5190048217773438,-0.004139792174100876,0.1941440999507904,-0.6403214931488037,0.18188072741031647,4.6863813400268555,1.6427600383758545,47.641685065396715,-122.14016575705315,125.01158905029297,-1.5755416797612798,0.07732506073100702,-88.14709409809853,0.0,0.0,0.0,-0.4695844316820255,-0.0075739424464855674,2.4414284892278717,0.5035259292103802,-0.3226768408964966,-0.005204465175751238,0.38651123046875124,0.0,0.0,0.0,-0.0,-0.0,0.0,-0.4695844316820255,-0.0075739424464855674,2.4414284892278717
14/04/2022,16:44:18,39.81592,-0.32523108879104257,24.14863770455122,2.9311447143554688,3.5190048217773438,-0.0034209107980132103,0.1509414166212082,-0.2103521227836609,0.18188072741031647,4.6863813400268555,1.6427600383758545,47.64168529139869,-122.14016576437767,124.93114471435547,-1.0984510238919012,-0.01794443915059501,-91.89422791762456,0.0,0.0,0.0,0.0,0.0,0.0,0.5689405323678312,-0.32224375354210877,-0.005197479895841184,0.4688552856445325,0.0,0.0,0.0,-0.0,-0.0,0.0,-0.0,-0.0,0.0
14/04/2022,16:44:18,39.988919,-0.32601047412026674,24.17115173023194,2.9582901000976562,3.5190048217773438,-0.0026906048879027367,0.11148606985807419,0.34312212467193604,0.18188072741031647,4.6863813400268555,1.6427600383758545,47.641685497038594,-122.140165771537,124.95932006835938,-0.9125826640944668,-0.05092286899470199,-94.3645471163961,0.0,0.0,0.0,0.0,0.0,0.0,0.5465414784566871,-0.3218276059183549,-0.005190767837394361,0.441709899902345,0.0,0.0,0.0,-0.0,-0.0,0.0,-0.0,-0.0,-0.0
14/04/2022,16:44:18,40.133918,-0.32653872296214104,24.185979497618973,3.0075531005859375,3.5190048217773438,-0.0022428466472774744,0.09055840224027634,0.31505703926086426,0.18188072741031647,4.6863813400268555,1.6427600383758545,47.64168562993264,-122.14016577636218,125.00849914550781,-0.7717874715004199,-0.056354324088826464,-95.45209610440784,0.0,0.0,-4.0,0.0,0.0,-4.0,0.5073741511838445,-0.3215385898012759,-0.005186106287123238,0.39244689941406374,0.0,0.0,-4.0,-0.0,-0.0,0.0,-0.0,-0.0,-0.0
14/04/2022,16:44:18,40.280076,-0.32697581220418215,24.198085978627205,3.0228042602539062,3.5190048217773438,-0.0019710350316017866,0.07880004495382309,-0.2382189929485321,0.18188072741031647,4.6863813400268555,1.6427600383758545,47.64168573858243,-122.14016578038245,125.02210998535156,-0.8329665669186239,-0.06821451339489985,-96.04275729899082,0.0,0.0,-5.0,0.0,0.0,-5.0,0.49551501879692045,-0.3212968292749052,-0.005182206923791455,0.377195739746095,0.0,0.0,-5.0,-0.0,-0.0,0.0,-0.0,-0.0,0.0
14/04/2022,16:44:19,40.454078,-0.327432882389985,24.210686017759144,2.9110107421875,3.5190048217773438,-0.0016541624208912253,0.06565899401903152,-1.071303367614746,0.18188072741031647,4.6863813400268555,1.6427600383758545,47.64168584985074,-122.14016578452794,124.9110107421875,-0.8674375221243928,-0.07630541591143601,-96.42019868674215,0.0,0.0,-5.0,-0.31827960027513114,-0.005133541939927031,-2.381349739420589,0.5849837160671819,-0.3210430515458945,-0.0051781137346118555,0.48898925781250124,0.0,0.0,-5.0,-0.0,-0.0,0.0,-0.31827960027513114,-0.005133541939927031,2.618650260579411
14/04/2022,16:44:19,40.599074,-0.32775015698280185,24.21939095761627,2.7107391357421875,3.5190048217773438,-0.0014086682349443436,0.05551101267337799,-1.7317888736724854,0.18188072741031647,4.6863813400268555,1.6427600383758545,47.64168592968358,-122.14016578752282,124.70556640625,-0.6324007107193579,-0.05742308015463933,-96.58354643087318,0.0,0.0,-5.0,-0.5816747542183991,-0.009381850874495747,2.552534503540718,0.7603041870272836,-0.32086622520944563,-0.005175261696930278,0.6892608642578137,0.0,0.0,-5.0,-0.0,-0.0,0.0,-0.5816747542183991,-0.009381850874495747,7.552534503540718
14/04/2022,16:44:19,40.776077,-0.3280462685506791,24.227448860183358,2.4499053955078125,3.5190048217773438,-0.0009369310573674738,0.03636636957526207,-0.9273354411125183,0.18188072741031647,4.6863813400268555,1.6427600383758545,47.6416860016999,-122.14016579025623,124.44709777832031,-0.30279430116962025,-0.027683212045287946,-96.6881214939606,0.0,0.0,-5.0,-0.4431708005748518,-0.0071479161383058674,-1.8594558359916276,1.0027736943114571,-0.32070012302277184,-0.005172582629398903,0.9500946044921887,0.0,0.0,-5.0,-0.12819060539218188,-0.002067590409551064,0.37977285877452305,-0.31498019518266995,-0.005080325728754803,2.76077130523385
14/04/2022,16:44:19,40.949083,-0.32825610612053424,24.233125708065927,2.2934417724609375,3.5190048217773438,-0.0007405339274555445,0.028724195435643196,-0.9986760020256042,0.18188072741031647,4.6863813400268555,1.6427600383758545,47.64168605181688,-122.14016579217399,124.29344177246094,-0.2309035351866174,-0.02124773223404195,-96.74046602778681,0.0,0.0,-5.0,-0.4506869247335247,-0.007269143947318635,-1.3920459505754268,1.1520723013328158,-0.32058187827639895,-0.005170675456071194,1.1065582275390637,0.0,0.0,-5.0,-0.12216841753904888,-0.001970458347404107,0.4216909212089252,-0.3285185071944758,-0.005298685599914528,3.186263128215648
14/04/2022,16:44:19,41.101078,-0.32839773094747216,24.236959972418845,2.1449127197265625,3.5190048217773438,-0.0006036414415575564,0.023428723216056824,-1.0146613121032715,0.18188072741031647,4.6863813400268555,1.6427600383758545,47.64168608696523,-122.14016579351743,124.1418685913086,-0.1921869235451003,-0.017773338988593682,-96.76288663801695,0.0,0.0,-5.0,-0.4640510749422417,-0.00748469475714128,-0.96798882575062,1.2953734638314407,-0.32050211717240185,-0.005169388986654866,1.2550872802734387,0.0,0.0,-5.0,-0.11505440132970551,-0.001855716150480278,0.45055339079308665,-0.34899667361253617,-0.0056289786066610024,3.581457783456293
14/04/2022,16:44:19,41.272077,-0.3285249333130196,24.240403425879776,2.0306854248046875,3.5190048217773438,-0.0004094495379831642,0.015893416479229927,-0.11798550188541412,0.18188072741031647,4.6863813400268555,1.6427600383758545,47.64168611774933,-122.1401657946947,124.03031158447266,-0.1406380515768911,-0.013037464516398934,-96.77682384008456,0.0,0.0,-5.0,-0.5933947234809652,-0.009570882636798131,-2.105290000630918,1.4063160400553247,-0.32043047301672267,-0.0051682334357536774,1.3693145751953137,0.0,0.0,-5.0,-0.1091576979037658,-0.0017606080307059292,0.4664700748564349,-0.48423702557719944,-0.0078102746060922015,2.428239924512647
14/04/2022,16:44:20,41.421078,-0.32860360387712717,24.24253405444324,1.9973068237304688,3.5190048217773438,-0.0003490442759357393,0.01356317475438118,-0.5597198009490967,0.18188072741031647,4.6863813400268555,1.6427600383758545,47.64168613686075,-122.14016579542485,123.99564361572266,-0.12530359113004558,-0.011627216924950992,-96.78294605253015,0.0,0.0,-5.0,-0.4322359416888321,-0.0069715474465969944,-1.9705485002032468,1.4388266586596088,-0.32038617895235477,-0.005167519015358835,1.4026931762695325,0.0,0.0,-5.0,-0.10740081419620899,-0.0017322711967124695,0.4702150064382702,-0.3248351274926231,-0.005239276249884525,2.5592364933584832
14/04/2022,16:44:20,41.594077,-0.3286844294052571,24.24472113419324,1.8376083374023438,3.5190048217773438,-0.0002935215306933969,0.011408559046685696,-1.1483876705169678,0.18188072741031647,4.6863813400268555,1.6427600383758545,47.64168615649326,-122.14016579617584,123.83416748046875,-0.09682586555345865,-0.008995624294054818,-96.78674698592818,0.0,0.0,-5.0,-0.5770995664676245,-0.009308057523673884,1.2458363065686378,1.5949020437423604,-0.32034064075063007,-0.005166784528235269,1.5623916625976575,0.0,0.0,-5.0,-0.09909119474814404,-0.001598245076582752,0.4832957071839675,-0.47800837171948046,-0.007709812447091132,5.76254059938467
14/04/2022,16:44:20,41.870082,-0.3287716810591519,24.247086249291897,1.712860107421875,3.5190048217773438,-0.000156844369485043,0.006105032749474049,0.4655441641807556,0.18188072741031647,4.6863813400268555,1.6427600383758545,47.64168617746763,-122.14016579697638,123.71286010742188,-0.05180445883768611,-0.00480931942081811,-96.78925958849604,0.0,0.0,-5.0,-0.09283395049157026,-0.0014973217821242296,-4.510995960383751,1.7172811013042748,-0.32029154888549216,-0.005165992723966895,1.6871398925781262,0.0,0.0,-5.0,-0.09283395049157026,-0.0014973217821242296,0.48900403961624894,-0.0,-0.0,0.0
14/04/2022,16:44:20,42.025077,-0.32880309282336384,24.247937342152,1.779022216796875,3.5190048217773438,-0.00012970941315870732,0.00506547698751092,0.07631394267082214,0.18188072741031647,4.6863813400268555,1.6427600383758545,47.6416861852581,-122.1401657972741,123.7792739868164,-0.05620582982886525,-0.005227968486296588,-96.78979644186178,0.0,0.0,-4.0,-0.6156273993220268,-0.009929474182612447,-1.1310399884169873,1.6523229131598012,-0.3202738690248148,-0.005165707564920297,1.6209777832031262,0.0,0.0,-4.0,-0.09610162687669122,-0.0015500262399478115,0.4863918576033538,-0.5195257724453356,-0.008379447942664636,2.382568153979659
14/04/2022,16:44:20,42.208112,-0.32883343391586095,24.248762383125722,1.7192764282226562,3.5190048217773438,-0.00010965719411615282,0.0042830780148506165,-0.778044581413269,0.18188072741031647,4.6863813400268555,1.6427600383758545,47.641686192553536,-122.14016579755098,123.71927642822266,-0.04210666527313396,-0.003923624338725992,-96.79019212793624,0.0,0.0,0.0,-0.4359619533241168,-0.007031644408460823,3.954571313607323,1.7109713176016357,-0.320256839474961,-0.005165432894759903,1.680723571777345,0.0,0.0,0.0,-0.09313725236577672,-0.0015022137478358259,0.48878885996117816,-0.3428247009583401,-0.0055294306606249975,3.4657824536461446
14/04/2022,16:44:21,42.380113,-0.3288570726290345,24.249410837888718,1.6162796020507812,3.5190048217773438,-7.64161377446726e-05,0.002983225043863058,-0.04173048213124275,0.18188072741031647,4.6863813400268555,1.6427600383758545,47.64168619846803,-122.14016579777297,123.61612701416016,-0.02233985160720627,-0.0020678597467720288,-96.7901875989057,0.0,0.0,0.0,-0.5106737221314154,-0.008236672937604517,2.9549230579741232,1.8122475386495225,-0.3202436631373451,-0.00516522037318623,1.78372039794922,0.0,0.0,0.0,-0.08823843111164678,-0.0014232005018016485,0.4914779200154832,-0.4224352910197686,-0.006813472435802868,2.46344513795864
14/04/2022,16:44:21,42.554114,-0.32887348032090813,24.24985520262271,1.7134933471679688,3.5190048217773438,-5.1560928113758564e-05,0.002025791211053729,1.1565580368041992,0.18188072741031647,4.6863813400268555,1.6427600383758545,47.64168620244144,-122.14016579792487,123.71693420410156,-0.015577524770498964,-0.0014470151101877648,-96.79019568764987,-0.5911702638365409,4.964928772817938,0.0,-0.6840190343615944,4.963431212003016,0.4889857459487376,1.716648320122108,-0.3202344250218562,-0.005165071371326491,1.6865066528320325,-0.5911702638365409,4.964928772817938,0.0,-0.09284877052505348,-0.0014975608149220237,0.4889857459487376,-0.0,-0.0,-0.0
14/04/2022,16:44:21,42.703116,-0.3289021186064929,24.252258614636958,1.8799819946289062,3.5190048217773438,0.00013618665980175138,0.08133327215909958,0.9553280472755432,0.18188072741031647,4.6863813400268555,1.6427600383758545,47.641686226112505,-122.14016579794398,123.88284301757812,13.414374150831051,1.611386180191034,-96.62141054530373,-0.5765417523733299,4.9666487300563436,0.0,-0.6777842221402408,4.965015786995586,0.48054019193949116,1.5533956313011605,-0.3202445488125183,-0.005165234658267792,1.520018005371095,-0.5765417523733299,4.9666487300563436,0.0,-0.10124246976691088,-0.0016329430607570597,0.48054019193949116,-0.0,-0.0,-0.0
14/04/2022,16:44:21,42.885112,-0.3295811037532985,24.326826117932796,2.0909805297851562,3.5190048217773438,0.0015896044205874205,0.7952691912651062,1.319221019744873,0.18188072741031647,4.6863813400268555,1.6427600383758545,47.64168691623404,-122.14016579591618,124.09493255615234,21.070965624944773,2.520576574810265,-96.38824291072333,0.4374657278284466,5.080218867034719,0.0,-0.27962657098330174,5.06865286221517,-1.8408367721686176,1.3477577427057321,-0.3207681291246174,-0.005173679502011197,1.309019470214845,0.4374657278284466,5.080218867034719,0.0,-0.11239667627876387,-0.0018128496173998514,0.45867847918013577,-0.6046956225329845,-0.009753155202150015,-2.2995152513487533
14/04/2022,16:44:21,43.063114,-0.3312942135380581,24.51641516201198,2.2870635986328125,3.5190048217773438,0.002966756233945489,1.375289797782898,0.8702147603034973,0.18188072741031647,4.6863813400268555,1.6427600383758545,47.64168863769477,-122.14016579067666,124.28968048095703,25.768762535042644,3.0733830945304175,-96.17778747598135,0.4561230912114116,5.0785777266537675,0.0,0.33367566131193105,5.0766027681070005,0.4230701314124853,1.1586245832574396,-0.3221125574003765,-0.005195363829042066,1.1129364013671887,0.4561230912114116,5.0785777266537675,0.0,-0.12244742989948053,-0.001974958546767235,0.4230701314124853,-0.0,-0.0,-0.0
14/04/2022,16:44:21,43.245115,-0.3341788442339748,24.85219308640808,2.4778594970703125,3.5190048217773438,0.006474173627793789,2.371286630630493,1.262120008468628,0.18188072741031647,4.6863813400268555,1.6427600383758545,47.641691685751105,-122.140165779365,124.48165130615234,22.655688239153967,2.7375643080020384,-96.34624786837294,0.4411891653400698,5.079896861195761,0.0,-0.17922506398478544,5.069890180077609,-2.4005273367014826,0.9776316428100623,-0.3246430413841097,-0.0052361780868430685,0.9221405029296887,0.4411891653400698,5.079896861195761,0.0,-0.0,-0.0,0.0,-0.6204142293248552,-0.010006681118151731,-2.4005273367014826
14/04/2022,16:44:22,43.420114,-0.33799350971821696,25.314391157589853,2.64044189453125,3.5190048217773438,0.007981223054230213,2.735957622528076,0.4038904309272766,0.18188072741031647,4.6863813400268555,1.6427600383758545,47.6416957806494,-122.14016576216838,124.64044189453125,21.47610502607031,2.582535074761568,-96.41944046512255,0.4346994837244318,5.080456314038112,0.0,0.4346994837244318,5.080456314038112,0.0,0.8274815878716888,-0.32828223677860713,-0.005294874786756054,0.7595581054687512,0.4346994837244318,5.080456314038112,0.0,-0.0,-0.0,0.0,-0.0,0.0,-0.0
14/04/2022,16:44:22,43.573113,-0.3416193830780685,25.760726699605584,2.696502685546875,3.5190048217773438,0.00968699250370264,3.2514162063598633,0.4240935146808624,0.18188072741031647,4.6863813400268555,1.6427600383758545,47.641699796574684,-122.14016574454229,124.69650268554688,16.549810100118812,1.9882647992737823,-96.63074855935255,0.4159597353619936,5.082024940765008,0.0,0.4159597353619936,5.082024940765008,0.0,0.7778588944907749,-0.331854394492445,-0.0053524902337507285,0.7034973144531262,0.4159597353619936,5.082024940765008,0.0,-0.0,-0.0,0.0,-0.0,0.0,-0.0
14/04/2022,16:44:22,43.723114,-0.3456790369236842,26.261764030903578,2.74664306640625,3.5190048217773438,0.01059559267014265,3.573493480682373,0.2505040764808655,0.18188072741031647,4.6863813400268555,1.6427600383758545,47.64170430468088,-122.14016572461489,124.74664306640625,12.744812149461524,1.5085303665190724,-96.7636400973233,0.40417140442768873,5.082976045176974,0.0,0.40417140442768873,5.082976045176974,0.0,0.7346540729388126,-0.335874941997758,-0.005417337774161979,0.6533569335937512,0.40417140442768873,5.082976045176974,0.0,-0.0,-0.0,0.0,-0.0,0.0,0.0
14/04/2022,16:44:22,43.906112,-0.35133393527939916,26.954812824726105,2.77874755859375,3.5190048217773438,0.011149189434945583,3.8865773677825928,0.10663685202598572,0.18188072741031647,4.6863813400268555,1.6427600383758545,47.64171054042286,-122.1401656975762,124.77874755859375,9.494695096464042,1.0959647248407256,-96.85184111185278,0.39634620492375006,5.083592202944935,0.0,0.39634620492375006,5.083592202944935,0.0,0.7088982301195169,-0.341396813502993,-0.005506400217793583,0.6212524414062512,0.39634620492375006,5.083592202944935,0.0,-0.0,-0.0,0.0,-0.0,0.0,0.0
14/04/2022,16:44:22,44.084144,-0.35717653774190694,27.66203286126256,2.7910842895507812,3.5190048217773438,0.011411353945732117,4.114968776702881,0.038070473819971085,0.18188072741031647,4.6863813400268555,1.6427600383758545,47.641717014516914,-122.14016567048775,124.79119873046875,7.352759215160548,0.8270342131162703,-96.89593918156429,0.3924334680836141,5.083895747665157,-1.0,0.3924334680836141,5.083895747665157,-1.0,0.7008498986992262,-0.3469595387043922,-0.005596121592013503,0.60891571044922,0.3924334680836141,5.083895747665157,-1.0,-0.0,-0.0,0.0,-0.0,0.0,0.0
