date,fly_time,fly_time_s,x,y,z,z_max,vx,vy,vz,vx_max,vy_max,vz_max,latitude,longitude,altitude,pitch,roll,yaw,cx,cy,cz,scx,scy,scz,d,dx,dy,dz,gc_pow_x,gc_pow_y,gc_pow_z,gpc_pow_x,gpc_pow_y,gpc_pow_z,gfc_pow_x,gfc_pow_y,gfc_pow_z
22/04/2022,11:37:08,15.988071,-1.076841726899147e-07,-6.314367055892944e-07,2.85321044921875,2.85321044921875,-7.817878611149354e-08,2.439593345116009e-07,-0.23988254368305206,0,2.439593345116009e-07,0,47.64146799999433,-122.14016500000156,124.85248565673828,-1.3010488981951033e-06,1.0359353552466915e-06,-5.136099761651233e-07,0.0,0.0,0.0,-0.5076401700877949,-0.00818774467883564,2.0198688457902545,0.6046145267988284,-0.2579972813817853,-0.004161246473899927,0.5467895507812512,0.0,0.0,0.0,-0.0,-0.0,0.0,-0.5076401700877949,-0.00818774467883564,2.0198688457902545
22/04/2022,11:37:08,16.138071,-1.2328382581472397e-07,-5.969777703285217e-07,2.81988525390625,2.85321044921875,-1.1641117225735798e-07,2.1718696530115267e-07,-0.20393043756484985,0,2.439593345116009e-07,0,47.64146799999464,-122.14016500000173,124.81988525390625,-1.502270024354842e-06,1.2423596632829216e-06,-5.219509726203074e-07,0.0,0.0,0.0,-0.513158834452718,-0.00827675539439868,1.9650939293978684,0.6349118238349908,-0.257997266341834,-0.0041612462313198595,0.5801147460937512,0.0,0.0,0.0,-0.0,-0.0,0.0,-0.513158834452718,-0.00827675539439868,1.9650939293978684
22/04/2022,11:37:08,16.29707,-1.4470424503087997e-07,-5.662441253662109e-07,2.7905120849609375,2.85321044921875,-1.5657467145047121e-07,1.8658218436939933e-07,-0.17229843139648438,0,2.439593345116009e-07,0,47.64146799999493,-122.14016500000201,124.78999328613281,-1.44282001132927e-06,9.93884757310002e-07,-5.464364563402578e-07,-9.537115316067742e-09,1.0,0.0,-9.537115316067742e-09,1.0,0.0,0.6618575475067756,-0.2579972454225608,-0.004161245893912313,0.6094879150390637,-9.537115316067742e-09,1.0,0.0,-0.0,-0.0,0.0,-0.0,-0.0,0.0
22/04/2022,11:37:08,16.451074,-1.5744008123874664e-05,0.0014036186039447784,2.7679290771484375,2.85321044921875,-1.8608776031214802e-07,0.039346978068351746,-0.11104673892259598,0,0.039346978068351746,0,47.64146801366453,-122.14016500000237,124.76759338378906,-5.05465563894548e-07,-3.521314472819302,-5.166197369389369e-07,-4.5083576951857105e-08,5.0,0.0,-4.5083576951857105e-08,5.0,0.0,0.6827131047073313,-0.2580042924281447,-0.004161359555292732,0.6320709228515637,-4.5083576951857105e-08,5.0,0.0,-0.0,-0.0,0.0,-0.0,-0.0,0.0
22/04/2022,11:37:08,16.607071,-0.00028950965497642756,0.026086573489010334,2.7789382934570312,2.85321044921875,-1.8563861203801935e-07,0.42294400930404663,0.44784948229789734,0,0.42294400930404663,0.44784948229789734,47.641468245923356,-122.14016500000278,124.78025817871094,6.544648769057592e-07,-18.340196703857636,-5.252913660430455e-07,-1.0000000458403193,4.999999990831936,0.0,-1.0000000458403193,4.999999990831936,0.0,0.6725811136904701,-0.25812860661705833,-0.004163364622855825,0.62106170654297,-1.0000000458403193,4.999999990831936,0.0,-0.0,-0.0,0.0,-0.0,-0.0,-0.0
22/04/2022,11:37:08,16.765073,-0.003908786457031965,0.15185701753944159,2.8975296020507812,2.8975296020507812,-0.06038222834467888,1.2994250059127808,1.1234992742538452,0,1.2994250059127808,1.1234992742538452,47.64146940136645,-122.14016503197374,124.90087890625,-3.489837696691265,-24.062978882339078,0.0849633172292222,-0.9925844550913913,5.0014773916824735,0.0,-1.2451840973372494,4.997403203904313,-2.4796803860197385,0.5641857144498321,-0.2565382990758425,-0.004137714501223355,0.50247039794922,-0.9925844550913913,5.0014773916824735,0.0,-0.0,-0.0,0.0,-0.2525996422458582,-0.004074187778159966,-2.4796803860197385
22/04/2022,11:37:09,16.951076,-0.03480314032640308,0.4818223249167204,3.1521377563476562,3.1521377563476562,-0.23075497150421143,2.2259109020233154,1.4146676063537598,0,2.2259109020233154,1.4146676063537598,47.64147239815244,-122.14016540135707,125.15638732910156,-4.8519658853797845,-22.9891221587766,-0.035191446261587316,-1.0030708442110543,4.9993848503084575,0.0,-0.8435522570034519,5.001957730747289,-2.595894253377395,0.3388184174729946,-0.23097261709496575,-0.0037253647918544797,0.247862243652345,-1.0030708442110543,4.9993848503084575,0.0,-0.0,-0.0,0.0,0.15951858720760242,0.002572880438831517,-2.595894253377395
22/04/2022,11:37:09,17.105072,-0.08232198201585561,0.8562965057790279,3.34478759765625,3.34478759765625,-0.33796483278274536,2.6852402687072754,1.0801419019699097,0,2.6852402687072754,1.4146676063537598,47.641475712088486,-122.14016596946465,125.34478759765625,-4.711005163387605,-20.065755357812993,-0.3082175610665269,-1.0268824575429571,4.99454826970273,0.0,-0.5603137344853129,5.0020735716875295,-2.457543699996049,0.1974074355170127,-0.18950446930802362,-0.003056523698516722,0.05521240234375124,-1.0268824575429571,4.99454826970273,0.0,-0.0,-0.0,0.0,0.46656872305764435,0.007525301984799129,-2.457543699996049
22/04/2022,11:37:09,17.290077,-0.16391687572468072,1.40666214376688,3.5125274658203125,3.5125274658203125,-0.4624199867248535,3.1579556465148926,0.7005324959754944,0,3.1579556465148926,1.4146676063537598,47.641480756739284,-122.14016699287399,125.51464080810547,-4.149607619600475,-16.080284247861286,-0.6408401959366727,-1.055860142090718,4.9885027172834295,0.0,-0.006736463668643333,5.0054240669354,-2.2493708225386615,0.16220194317382844,-0.11680535308917395,-0.0018839573078901495,-0.11252746582031126,-1.055860142090718,4.9885027172834295,0.0,-0.0,-0.0,-0.0,1.0491236784220748,0.016921349651970254,-2.2493708225386615
22/04/2022,11:37:09,17.450072,-0.24740150209981948,1.912538436241448,3.6023788452148438,3.6023788452148438,-0.5565875768661499,3.480590581893921,0.4776826500892639,0,3.480590581893921,1.4146676063537598,47.641485325014024,-122.1401680333195,125.60381317138672,-3.494448062150976,-13.204942394030086,-1.5898787485134815,-1.1383403217722075,4.970330100891443,0.0,0.4174504705399573,4.995423500767445,-1.8779440147762971,0.20659105215909296,-0.04149961221723375,-0.000669348584149354,-0.2023788452148425,-1.1383403217722075,4.970330100891443,0.0,-0.0,-0.0,-0.0,1.5557907923121648,0.025093399876001343,-1.8779440147762971
22/04/2022,11:37:09,17.603071,-0.3453399195568636,2.4636819642037153,3.6633682250976562,3.6633682250976562,-0.6449835896492004,3.750784397125244,0.3236578404903412,0,3.750784397125244,1.4146676063537598,47.641490300576436,-122.140169259261,125.66434478759766,-2.9364472073087153,-10.778934944296068,-3.583336055474861,-1.3105461986912756,4.927724491192243,0.0,0.6460435638334625,4.959282390587799,-1.4650881142415293,0.26762315388130503,0.0475262338090906,0.0007665521582107537,-0.263368225097655,-1.3105461986912756,4.927724491192243,0.0,0.0,0.0,-0.0,1.9565897625247382,0.031557899395556366,-1.4650881142415293
22/04/2022,11:37:09,17.757071,-0.4594990329351276,3.064077570103109,3.7056198120117188,3.7056198120117188,-0.7362484931945801,3.974287509918213,0.222088024020195,0,3.974287509918213,1.4146676063537598,47.64149571960157,-122.1401706939742,125.70628356933594,-3.020819712795085,-8.659782977828716,-5.225725541168159,-2.4470858020267006,4.797058586000315,0.0,-0.22790721681972403,4.832851788987522,-1.112313572923294,0.34132929648566235,0.15197437535922959,0.0024511996025675664,-0.3056198120117175,-2.4470858020267006,4.797058586000315,0.0,0.0,0.0,-0.0,2.2191785852069765,0.035793202987207284,-1.112313572923294
22/04/2022,11:37:10,17.942072,-0.6194443552521989,3.820628022775054,3.7496795654296875,3.7496795654296875,-0.927603006362915,4.18726110458374,0.27957671880722046,0,4.18726110458374,1.4146676063537598,47.64150243499183,-122.14017268208782,125.74967956542969,-7.1234389952216155,-6.990416315461554,-8.838433438719441,-2.7444945533907115,4.633330297573087,0.0,-0.46047596758086096,4.670169307021629,-1.0279429085316085,0.4605502930548563,0.2996788463400258,0.004833529779677548,-0.34967956542968626,-2.7444945533907115,4.633330297573087,0.0,0.0,0.0,-0.0,2.2840185858098505,0.03683900944854222,-1.0279429085316085
22/04/2022,11:37:10,18.089071,-0.778758707572706,4.441853609867394,3.7935562133789062,3.7935562133789062,-1.1599860191345215,4.296809196472168,0.3141517639160156,0,4.296809196472168,1.4146676063537598,47.641508155669825,-122.14017475749017,125.79449462890625,-8.806822550395848,-5.981251545195365,-12.45582134952167,-3.031359031037347,4.450939499133673,0.0,-0.4429129410619357,4.492688629617145,-1.0058166690101853,0.5970604668800186,0.44893460288626885,0.007240880691712803,-0.393556213378905,-3.031359031037347,4.450939499133673,0.0,0.0,0.0,-0.0,2.5884460899754114,0.041749130483472306,-1.0058166690101853
22/04/2022,11:37:10,18.271071,-1.0240795516874641,5.218266525305808,3.8516921997070312,3.8516921997070312,-1.4802912473678589,4.363190174102783,0.3230496346950531,0,4.363190174102783,1.4146676063537598,47.64151516713056,-122.14017792142327,125.85266876220703,-9.874748799014313,-4.580059838809722,-14.983608906380987,-3.224713177948484,4.312913738989616,-5.0,1.3794416518399242,4.387174300760396,-6.443795888365749,0.8178163582121635,0.6816721123843048,0.010994711490069697,-0.45169219970703,-3.224713177948484,4.312913738989616,-5.0,0.0,0.0,-0.0,4.604154829788408,0.07426056177077972,-1.4437958883657485
22/04/2022,11:37:10,18.429073,-1.2732778361532837,5.88273842073977,3.8687286376953125,3.8687286376953125,-1.6674401760101318,4.365699291229248,-0.25853830575942993,0,4.365699291229248,1.4146676063537598,47.64152117015447,-122.14018114821569,125.86798095703125,-13.609561481024471,-4.847410386184359,-15.678724360812138,-3.2767990794385664,4.273474908431143,0.0,4.311207362732173,4.395862109111317,-0.10096129508230559,1.0327121431293773,0.9200910845480772,0.014840178783033231,-0.46872863769531126,-3.2767990794385664,4.273474908431143,0.0,0.364839059894177,0.005884500966035005,-0.18586259381725362,7.2231673822765625,0.11650269971413836,0.08490129873494803
22/04/2022,11:37:10,18.612077,-1.6230528666637838,6.675731301307678,3.8075790405273438,3.8687286376953125,-2.076523780822754,4.351982116699219,-0.2750815153121948,0,4.365699291229248,1.4146676063537598,47.64152822173965,-122.14018562078283,125.80757904052734,-10.456321171412975,-2.969131857672196,-16.013988596273567,-3.3017489265734827,4.254227782555942,0.0,17.13666017089215,4.583879542192469,0.39648484898935177,1.3215714917384485,1.2569882649608606,0.02027400427356163,-0.4075790405273425,-3.3017489265734827,4.254227782555942,0.0,0.4458659936782873,0.007191386994810859,-0.14457225972020107,19.992543103787344,0.32246037264171645,0.5410571087095528
22/04/2022,11:37:10,18.75407,-1.9530236151767895,7.309091723524034,3.7662124633789062,3.8687286376953125,-2.3092479705810547,4.325467586517334,-0.2867248058319092,0,4.365699291229248,1.4146676063537598,47.64153395283899,-122.14018991990476,125.7662124633789,-8.06922066378808,-1.983289840375763,-16.135244961477312,-3.3107448451851074,4.2472306942383335,-4.0,33.07701234151154,4.8341300037011745,-2.8828305598628514,1.61883172349229,1.5766603614775263,0.0254300058302821,-0.366212463378905,-3.3107448451851074,4.2472306942383335,-4.0,0.4815810554916606,0.007767436378897573,-0.1118573086234895,35.90617613120499,0.5791318730839435,1.2290267487606377
22/04/2022,11:37:11,18.906071,-2.3098469614051282,7.93806873075664,3.6949539184570312,3.8687286376953125,-2.4310643672943115,4.2980875968933105,-0.8339401483535767,0,4.365699291229248,1.4146676063537598,47.64153976302184,-122.1401946743401,125.69247436523438,-8.415520259979258,-1.8824177544854757,-15.688146344504217,-3.277501785161901,4.272935998615068,0.0,53.36097341214966,5.186459792120066,11.523347598729236,1.9459819711752884,1.9232487537930822,0.03102014119020957,-0.29495391845703,-3.277501785161901,4.272935998615068,0.0,0.49414335618368277,0.007970054131994515,-0.07578297861804617,56.14433184112788,0.905553739373003,11.599130577347282
22/04/2022,11:37:11,19.08607,-2.778830463765189,8.701995668932796,3.5596694946289062,3.8687286376953125,-2.6921327114105225,4.259941101074219,-0.47708168625831604,0,4.365699291229248,1.4146676063537598,47.641546681633756,-122.14020081516679,125.5582275390625,-5.580900907203855,-1.2592597460918158,-14.430407701175515,-3.182921549047725,4.343847420502661,0.0,90.32965101369079,5.852114719901652,9.656857965092323,2.385451326805883,2.3797920861481283,0.03838374332496741,-0.159669494628905,-3.182921549047725,4.343847420502661,0.0,0.5045269701191224,0.008137531776114369,-0.03385067410488005,93.0080455926194,1.5001297676228764,9.690708639197203
22/04/2022,11:37:11,19.266086,-3.28590417036321,9.459747156128287,3.4838943481445312,3.8687286376953125,-2.8301236629486084,4.237094402313232,-0.38338157534599304,0,4.365699291229248,1.4146676063537598,47.64155354889058,-122.14020745910234,125.48274230957031,-3.300319414976905,-1.1729442040842843,-13.760729846990605,-3.131934044695271,4.380752120318921,0.0,132.1151316328066,6.5621564054399,10.93650157672304,2.8761129987191034,2.8745152944593566,0.04636314991063273,-0.08389434814453,-3.131934044695271,4.380752120318921,0.0,0.5669330437246776,0.00914408135039762,-0.016546260246572034,134.6801326337772,2.172260203770581,10.953047836969613
22/04/2022,11:37:11,19.446077,-3.794241080759093,10.189464515075088,3.42193603515625,3.8687286376953125,-2.9065845012664795,4.22976541519165,-0.3270573318004608,0,4.365699291229248,1.4146676063537598,47.64156016448727,-122.14021412151922,125.42095184326172,-1.965713585968696,-1.2338915390930614,-13.439066187066778,-2.8748797605648613,3.4256483126985655,-3.0,176.57846736933976,6.320057137374414,9.482903346581093,3.371463227665026,3.3709534237979972,0.05437021651287033,-0.021936035156248757,-2.8748797605648613,3.4256483126985655,-3.0,0.7578454676320349,0.012223313994064944,-0.0049315795061475425,178.6955016622726,2.8821855106817833,12.48783492608724
22/04/2022,11:37:11,19.621073,-4.3293606251245365,10.941968630999327,3.320648193359375,3.8687286376953125,-2.9281845092773438,4.194708824157715,-0.9784234166145325,0,4.365699291229248,1.4146676063537598,47.64156698703256,-122.14022113491923,125.31773376464844,-1.4679554501976775,2.8070745647688047,-12.74400524617343,-1.4165561773635382,1.730135427177075,0.0,236.80299459260823,5.572386246047612,50.23113526938452,3.8951146002472568,3.8937997887793916,0.06280322239966729,0.07935180664062624,-1.4165561773635382,1.730135427177075,0.0,1.1802241807697171,0.01903587388338244,0.024051806991953213,237.03932658920206,3.8232149449871553,50.20708346239256
22/04/2022,11:37:12,19.80207,-4.860551426536404,11.671436882577837,3.15533447265625,3.8687286376953125,-2.8139748573303223,3.887495994567871,-0.4818171560764313,0,4.365699291229248,1.4146676063537598,47.64157359468149,-122.1402280940608,125.15386199951172,3.3493878416162985,11.09595214855657,-11.05914355415455,0.0,0.0,0.0,257.42185860194326,4.151965461321598,31.246234815143065,4.420440018782202,4.413089882155035,0.07117886906701543,0.24466552734375124,0.0,0.0,0.0,1.9148328055730754,0.030884400089887767,0.10615999008882021,255.5070257963702,4.121081061231711,31.140074825054246
22/04/2022,11:37:12,19.985071,-5.345081934938207,12.314860051497817,3.1349105834960938,3.8687286376953125,-2.41316556930542,3.2509994506835938,0.22894985973834991,0,4.365699291229248,1.4146676063537598,47.64157941463897,-122.14023443329512,125.13558197021484,9.521934082164348,19.491666740298797,-7.793469869223403,0.0,0.0,0.0,225.74968555253398,3.6411239605247014,-4.313479635039528,4.894938259683077,4.88711928080874,0.07882450452917311,0.2650894165039075,0.0,0.0,0.0,2.921477389121141,0.04712060305034092,0.15846814696188935,222.82820816341282,3.5940033574743606,-4.471947782001417
22/04/2022,11:37:12,20.128073,-5.665260559762828,12.731991108506918,3.207489013671875,3.8687286376953125,-1.9348307847976685,2.5639917850494385,0.8149938583374023,0,4.365699291229248,1.4146676063537598,47.64158318091469,-122.14023861487901,125.20991516113281,11.691371070559788,19.489830959512666,-3.456668493159765,0.0,0.0,0.0,183.08157411429727,2.952928614746661,-28.539591769688176,5.204726352266086,5.200488463719346,0.08387884618902142,0.19251098632812624,0.0,0.0,0.0,3.7882537539578136,0.06110086699931937,0.1402330707439105,179.29332036033946,2.891827747747342,-28.679824840432087
22/04/2022,11:37:12,20.302072,-5.969691453152336,13.12147434707731,3.3836746215820312,3.8687286376953125,-1.4950605630874634,1.9457428455352783,0.9615863561630249,0,4.365699291229248,1.4146676063537598,47.64158664605854,-122.1402425324234,125.38367462158203,11.989566493445707,16.306741964531856,1.3084637802505428,0.0,0.0,0.0,149.9269894942434,2.4181772499071372,-32.83563932812265,5.499299226248241,5.498559827411908,0.08868644882922361,0.016325378417969993,0.0,0.0,0.0,4.7842818231666095,0.07716583585752534,0.014204666980621594,145.14270767107678,2.341011414049612,-32.84984399510328
22/04/2022,11:37:12,20.48407,-6.213272351888008,13.428458984941244,3.5263442993164062,3.8687286376953125,-1.2133632898330688,1.558653473854065,0.6426447629928589,0,4.365699291229248,1.4146676063537598,47.64158947431179,-122.14024577831768,125.52828216552734,10.565665622252542,12.974312511641275,3.3189758604774187,0.0,0.0,0.0,127.6245101983169,2.0584598419083515,-21.33610823740251,5.739264336349059,5.7371272987233155,0.09253431126973055,-0.126344299316405,0.0,0.0,0.0,5.726143010463205,0.09235714533005136,-0.12610240086593452,121.8983671878537,1.9661026965783,-21.210005836536574
22/04/2022,11:37:12,20.636073,-6.385786601458676,13.643412995152175,3.6075363159179688,3.8687286376953125,-1.0035505294799805,1.276705026626587,0.42143821716308594,0,4.365699291229248,1.4146676063537598,47.64159138331558,-122.14024799450785,125.60753631591797,8.988972267508615,10.486045500335823,4.0447848789437195,0.0,0.0,0.0,112.93342418693456,1.8215068417246987,-14.433780938456932,5.910543484478789,5.906130582654803,0.09526017068797898,-0.2075363159179675,0.0,0.0,0.0,6.475301928673385,0.10444035368827856,-0.22753650430284247,106.45812225826117,1.7170664880364201,-14.20624443415409
22/04/2022,11:37:12,20.785071,-6.522747467737645,13.812589388340712,3.6581649780273438,3.8687286376953125,-0.828669548034668,1.0461986064910889,0.27037283778190613,0,4.365699291229248,1.4146676063537598,47.641592947271846,-122.14024982599041,125.65898132324219,7.586656744899804,8.43691765618087,4.785694560677976,0.0,0.0,-1.0,101.982741855809,1.6448829331581472,-11.193702925702294,6.046627299116754,6.040327886581634,0.09742464333196033,-0.2581649780273425,0.0,0.0,-1.0,7.119005741493121,0.11482267324988725,-0.3042679131561508,94.86373611431587,1.53006025990826,-9.889435012546143
22/04/2022,11:37:13,20.93207,-6.63582603901159,13.951427957974374,3.6672134399414062,3.8687286376953125,-0.7291631698608398,0.9171813130378723,-0.28165724873542786,0,4.365699291229248,1.4146676063537598,47.641594228817084,-122.14025133594389,125.66551971435547,6.946116589214371,7.070410389284908,6.844958844540153,0.0,0.0,0.0,97.26305219861955,1.5687589064292973,3.1660925482848183,6.157738903325193,6.151138299236968,0.09921190805220803,-0.267213439941405,0.0,0.0,0.0,7.679156813491611,0.12385736795954068,-0.33359254956714485,89.58389538512793,1.4449015384697566,3.4996850978519634
22/04/2022,11:37:13,21.08307,-6.737880013883114,14.076280629262328,3.6249313354492188,3.8687286376953125,-0.562398374080658,0.7039200663566589,-0.041221797466278076,0,4.365699291229248,1.4146676063537598,47.64159533185892,-122.14025264029394,125.62480163574219,5.801605936375305,5.24425673190541,9.845082458666583,0.0,0.0,0.0,87.4702380161519,1.410810290583065,-1.8312240990041917,6.256010502806747,6.251152503082555,0.10082504037229789,-0.2249313354492175,0.0,0.0,0.0,8.202803295545355,0.13230327896040714,-0.295156372970332,79.26743472060654,1.278507011622658,-1.5360677260338598
22/04/2022,11:37:13,21.264071,-6.829164040274918,14.187451560981572,3.6250381469726562,3.8687286376953125,-0.4255017936229706,0.5308825969696045,0.002129725180566311,0,4.365699291229248,1.4146676063537598,47.641596336464644,-122.14025383357155,125.62504577636719,4.489754074508525,3.7449918258611414,11.768914990938686,0.0,0.0,0.0,80.60349041502822,1.3000562970165956,-2.606883137172617,6.3454365596574185,6.340620175301932,0.10226806734357652,-0.225038146972655,0.0,0.0,0.0,8.698801479941979,0.1403032496764794,-0.30873354842389933,71.90468893508624,1.1597530473401163,-2.2981495887487178
22/04/2022,11:37:13,21.452072,-6.898875250364654,14.272154258564115,3.623443603515625,3.8687286376953125,-0.32612141966819763,0.4062732756137848,-0.018260573968291283,0,4.365699291229248,1.4146676063537598,47.64159710210618,-122.14025474509299,125.6233901977539,3.455902971396391,2.771891721065755,12.678471043520982,0.0,0.0,0.0,76.00319210231137,1.2258579371340734,-2.0915765863305076,6.413674429391932,6.408947437807738,0.10337011996463907,-0.22344360351562376,0.0,0.0,0.0,9.091362731145006,0.14663488276040068,-0.3169641925179451,66.91182937116636,1.0792230543736727,-1.7746123938125624
22/04/2022,11:37:13,21.638069,-6.954590651206672,14.339774815365672,3.6189117431640625,3.8687286376953125,-0.24674569070339203,0.307167649269104,-0.027614491060376167,0,4.365699291229248,1.4146676063537598,47.64159771334533,-122.14025547362378,125.61882781982422,2.621110147270355,2.0614582331752414,13.120129961468274,0.0,0.0,0.0,72.52579893034991,1.1697709504894833,-1.8058485058105584,6.468104230862575,6.463557977811646,0.10425093512599304,-0.21891174316406126,0.0,0.0,0.0,9.413482234452196,0.1518303586201949,-0.3188215859224871,63.11231669589772,1.0179405918692885,-1.4870269198880712
22/04/2022,11:37:14,21.828071,-6.995593325351365,14.389516074210405,3.6135025024414062,3.8687286376953125,-0.18827830255031586,0.23432715237140656,-0.0298208799213171,0,4.365699291229248,1.4146676063537598,47.641598162977836,-122.1402560097765,125.61341094970703,2.003473068503775,1.5616903209058586,13.315039196730348,0.0,0.0,0.0,70.07049667801296,1.130169301258251,-1.6694996958265649,6.508096813795337,6.503747918348401,0.10489915997336041,-0.213502502441405,0.0,0.0,0.0,9.655320426649626,0.15573097462337976,-0.31696109671587674,60.415176251363334,0.9744383266348713,-1.3525385991106882
22/04/2022,11:37:14,21.978069,-7.021463978220709,14.420896148309112,3.6090621948242188,3.8687286376953125,-0.15135574340820312,0.18837334215641022,-0.029122021049261093,0,4.365699291229248,1.4146676063537598,47.64159844154572,-122.14025634198856,125.60906219482422,1.6124653553155035,1.2523774551518512,13.392175113933787,0.0,0.0,0.0,68.56494971301454,1.1058862856937743,-1.6123511863842461,6.533300845272565,6.529105844235433,0.10530815877799071,-0.2090621948242175,0.0,0.0,0.0,9.810000404230646,0.15822581297146182,-0.31411655204604555,58.7549493087839,0.9476604727223126,-1.2982346343382005
22/04/2022,11:37:14,22.125075,-7.041888001724146,14.445671341381967,3.6048965454101562,3.8687286376953125,-0.12218721210956573,0.15208539366722107,-0.02737041749060154,0,4.365699291229248,1.4146676063537598,47.641598670582894,-122.14025661512113,125.60481262207031,1.3030466075846778,1.010147794550182,13.43254284695472,0.0,0.0,0.0,67.39983123266163,1.0870940521396806,-1.5818775513885122,6.553180873714507,6.549125059938085,0.10563104935383727,-0.204896545410155,0.0,0.0,0.0,9.933255350667325,0.160213795978501,-0.31077276543073296,57.4665758819943,0.9268802561611795,-1.2711047859577793
22/04/2022,11:37:14,22.283075,-7.0589758433634415,14.466397190466523,3.6008758544921875,3.8687286376953125,-0.09776731580495834,0.12171269208192825,-0.025034960359334946,0,4.365699291229248,1.4146676063537598,47.641598857944956,-122.14025683855195,125.60079956054688,1.0436177241968692,0.8082291219328964,13.45473972997501,0.0,0.0,0.0,66.44065314970469,1.0716234378984542,-1.5658352810078193,6.569799915081431,6.565874256457775,0.105901197684803,-0.20087585449218626,0.0,0.0,0.0,10.037144638668678,0.1618894296559467,-0.3070756348967864,56.40350851103601,0.9097340082425075,-1.2587596461110329
22/04/2022,11:37:14,22.469073,-7.075216527096927,14.48610722925514,3.5964889526367188,3.8687286376953125,-0.07454393059015274,0.09283322840929031,-0.022008711472153664,0,4.365699291229248,1.4146676063537598,47.6415990361096,-122.14025705091323,125.59642028808594,0.7965188524228863,0.6165926736185056,13.467848473741075,0.0,0.0,0.0,65.54211636817288,1.057130909164068,-1.558252764507885,6.5855808501461945,6.581792895174712,0.10615794992217076,-0.1964889526367175,0.0,0.0,0.0,10.13652008294872,0.16349225940239562,-0.30260967584376985,55.40559628522416,0.8936386497616724,-1.2556430886641152
22/04/2022,11:37:14,22.61507,-7.085274421842769,14.498316978104413,3.5934219360351562,3.8687286376953125,-0.0601622499525547,0.07493888586759567,-0.019692469388246536,0,4.365699291229248,1.4146676063537598,47.64159914646588,-122.14025718243296,125.5933609008789,0.6432572409644125,0.49792316836305184,13.472774516652063,0.0,0.0,0.0,64.99254048633743,1.0482667820376872,-1.5572173535743672,6.5953454890926535,6.591651293867654,0.10631695635270333,-0.193421936035155,0.0,0.0,0.0,10.19836752469787,0.1644897987854483,-0.299255513236911,54.79417296163956,0.883776983252239,-1.2579618403374562
22/04/2022,11:37:14,22.76907,-7.0936884745024145,14.508527852594852,3.590576171875,3.8687286376953125,-0.048128046095371246,0.059962935745716095,-0.017457054927945137,0,4.365699291229248,1.4146676063537598,47.641599238766,-122.14025729244202,125.59052276611328,0.514905868113677,0.3985985443682063,13.475401973337032,0.0,0.0,0.0,64.53659254292856,1.0409127829504492,-1.558318448564267,6.603507493045516,6.599898509525722,0.1064499759600892,-0.19057617187499876,0.0,0.0,0.0,10.25027744895398,0.16532705562828523,-0.29598313277981847,54.286315093974586,0.875585727322164,-1.2623353157844486
22/04/2022,11:37:15,22.92107,-7.100416866247542,14.516701216809452,3.5880508422851562,3.8687286376953125,-0.03849799558520317,0.04797651246190071,-0.015442563220858574,0,4.365699291229248,1.4146676063537598,47.64159931264517,-122.14025738042798,125.58800506591797,0.41210872028832596,0.319068201772687,13.476708648422449,0.0,0.0,-3.0,64.1741577440228,1.035067060387446,-4.560320636903796,6.610028127964961,6.606493357194633,0.1065563444708797,-0.188050842285155,0.0,0.0,-3.0,10.291890810601723,0.16599823888067064,-0.2929540122117589,53.882266933421086,0.8690688215067752,-1.267366624692038
22/04/2022,11:37:15,23.107071,-7.106948726577684,14.524637836962938,3.5365447998046875,3.8687286376953125,-0.03241267055273056,0.04041045531630516,-0.7145063281059265,0,4.365699291229248,1.4146676063537598,47.641599385586375,-122.14025746726351,125.53225708007812,0.4002455024373115,0.30975921918295524,13.477813141270065,0.0,0.0,-4.0,67.10297124694151,1.0823059878538839,6.7779615802339945,6.6151650171020915,6.6128955420215645,0.1066596055164748,-0.13654479980468626,0.0,0.0,-4.0,10.326641253690648,0.16655872989823306,-0.2132271943023844,56.776329993250854,0.9157472579556507,10.99118877453638
22/04/2022,11:37:15,23.294071,-7.112681870232336,14.531604441814125,3.3199996948242188,3.8687286376953125,-0.027172889560461044,0.03388390690088272,-1.5964125394821167,0,4.365699291229248,1.4146676063537598,47.64159944757141,-122.14025754103793,125.31523132324219,0.36842485169329514,0.2975911038204233,12.344071249069867,0.0,0.0,-4.0,84.54583397892262,1.3636424835310095,32.517953537675254,6.619859107600946,6.618514859240735,0.10675023966517116,0.0800003051757825,0.0,0.0,-4.0,10.35810687308161,0.16706623988841,0.12520206247371946,74.187727105841,1.1965762436425995,36.392751475201536
22/04/2022,11:37:15,23.448071,-7.116598927299492,14.536364119499922,3.0261306762695312,3.8687286376953125,-0.023147644475102425,0.028857413679361343,-2.262320041656494,0,4.365699291229248,1.4146676063537598,47.64159949065348,-122.14025759232521,125.01936340332031,0.3020049438980795,0.26935865443200596,9.615495837169467,0.0,0.0,0.0,111.96889110611903,1.805949856550283,75.18454890143373,6.633759234265448,6.622354148538427,0.10681216368610258,0.37386932373047,0.0,0.0,0.0,10.431514971876474,0.16825024148187692,0.588917983022771,101.53737613424256,1.637699615068406,74.59563091841096
22/04/2022,11:37:15,23.634077,-7.120088188326918,14.540595665574074,2.6568679809570312,3.8687286376953125,-0.01512061059474945,0.01876920834183693,-1.5826698541641235,0,4.365699291229248,1.4146676063537598,47.64159952829004,-122.14025763722213,124.65686798095703,0.15956312130617123,0.15952276743494012,6.338607663794822,0.0,0.0,0.0,93.39733383238034,1.5064086101996748,49.81033216852175,6.6681744494476645,6.625774269093128,0.10686732692085599,0.74313201904297,0.0,0.0,0.0,10.604952937406226,0.17104762802267962,1.1894277963847724,82.79238089497412,1.3353609821769952,48.62090437213698
22/04/2022,11:37:16,23.810073,-7.122348724165931,14.54332619998604,2.4667129516601562,3.8687286376953125,-0.009459824301302433,0.011702844873070717,-0.4535782039165497,0,4.365699291229248,1.4146676063537598,47.6415995533941,-122.14025766729843,124.46532440185547,0.09544427082055247,0.10098259379290452,4.576143355543288,0.0,0.0,0.0,69.74237251828839,1.124876976101404,17.850668506318403,6.694229373667782,6.627990187592902,0.10690306754182011,0.933287048339845,0.0,0.0,0.0,10.736802920330883,0.17317424065049664,1.5118488142725217,59.00556959795751,0.9517027354509072,16.33881969204588
22/04/2022,11:37:16,23.960071,-7.123564720037393,14.544792599976063,2.4366378784179688,3.8687286376953125,-0.007052646484225988,0.008714346215128899,-0.08967941254377365,0,4.365699291229248,1.4146676063537598,47.64159956639559,-122.1402576828828,124.43663787841797,0.0697791270014236,0.0754902505177824,3.8433145600145404,0.0,0.0,0.0,65.74721964277997,1.0604390264964392,11.02233998653881,6.699668341297635,6.629182221749083,0.10692229389917784,0.9633621215820325,0.0,0.0,0.0,10.765634468941936,0.17363926562809423,1.5644772032590408,54.981585173838035,0.8867997608683449,9.457862783279769
22/04/2022,11:37:16,24.107072,-7.124490650487132,14.545904555357993,2.4262008666992188,3.8687286376953125,-0.005617717746645212,0.006938278675079346,-0.062003348022699356,0,4.365699291229248,1.4146676063537598,47.641599576674324,-122.14025769526718,124.42601776123047,0.05342434662974202,0.05848456154751394,3.4451870791392274,0.0,0.0,0.0,65.51085038557667,1.0566266191221863,10.630613018038154,6.702075306952135,6.630089981284875,0.10693693518201286,0.9737991333007825,0.0,0.0,0.0,10.77902726889416,0.1738552785305489,1.5831772180926644,54.73182311668252,0.8827713405916373,9.04743579994549
22/04/2022,11:37:16,24.285075,-7.125391601934098,14.546990723349154,2.416107177734375,3.8687286376953125,-0.004276690538972616,0.005282147321850061,-0.05062088370323181,0,4.365699291229248,1.4146676063537598,47.641599586353784,-122.1402577068781,124.41610717773438,0.0408090529536405,0.042366549878346135,4.874623567226479,0.0,0.0,0.0,65.41517405312948,1.055083452469813,10.528897449007006,6.704423092956497,6.630973184131866,0.10695118038922402,0.9838928222656262,0.0,0.0,0.0,10.79209761314264,0.17406609053455935,1.6013135755353225,54.62307643998684,0.8810173619352536,8.927583873471685
22/04/2022,11:37:16,24.438071,-7.12598856294062,14.54771101474762,2.4089202880859375,3.8687286376953125,-0.003404923714697361,0.004208981059491634,-0.04321731999516487,0,4.365699291229248,1.4146676063537598,47.64159959299783,-122.14025771485397,124.4087905883789,0.03394594852177978,0.03154179845173315,7.994513661422424,0.0,0.0,0.0,65.35675084208492,1.0541411426142668,10.469659092372291,6.706060397460633,6.631558375300232,0.10696061895645492,0.9910797119140637,0.0,0.0,0.0,10.801168692610224,0.17421239826790616,1.6142237691940253,54.5555821494747,0.8799287443463606,8.855435323178266
22/04/2022,11:37:16,24.621072,-7.126537666539662,14.548372466117144,2.40179443359375,3.8687286376953125,-0.002610052702948451,0.003230916103348136,-0.03598470240831375,0,4.365699291229248,1.4146676063537598,47.641599598977464,-122.14025772202743,124.40168762207031,0.026957678960687605,0.022819370815888175,10.661812902845051,0.0,0.0,0.0,65.3027946736121,1.0532708818324383,10.413372629459737,6.707649590453423,6.632096670293679,0.10696930113376624,0.9982055664062512,0.0,0.0,0.0,10.80992954909497,0.17435370240475304,1.627016671318845,54.49286512451713,0.8789171794276852,8.786355958140891
22/04/2022,11:37:16,24.779073,-7.126907182857394,14.548818706534803,2.3965835571289062,3.8687286376953125,-0.0020751862321048975,0.002572257537394762,-0.030778471380472183,0,4.365699291229248,1.4146676063537598,47.64159960295087,-122.14025772678396,124.3965835571289,0.022067147579133535,0.017286520039890712,12.870286844897041,0.0,0.0,0.0,65.26591338356212,1.0526760223155032,10.373998864198187,6.708785227774112,6.632458894954139,0.10697514346700032,1.003416442871095,0.0,0.0,0.0,10.816156276708032,0.17445413349528774,1.6363628073095333,54.449757106854086,0.8782218888202153,8.737636056888654
22/04/2022,11:37:17,24.966071,-7.127247252385132,14.549229071475565,2.3914108276367188,3.8687286376953125,-0.0015868963673710823,0.0019697954412549734,-0.025709183886647224,0,4.365699291229248,1.4146676063537598,47.641599606728846,-122.14025773130845,124.3913345336914,0.017161630405178548,0.012834881108544104,14.2213081643789,0.9693540536218537,-0.24566790333065583,0.0,66.20128147916226,0.8064599583715973,10.33695130117441,6.709890468627373,6.632792258969301,0.10698052030595484,1.0085891723632825,0.9693540536218537,-0.24566790333065583,0.0,10.822187286789761,0.1745514078514451,1.645632863592787,54.40974013875065,0.8775764538508081,8.691318437581623
22/04/2022,11:37:17,25.149072,-7.124536817893386,14.548823274672031,2.3898544311523438,3.8687286376953125,0.058747291564941406,-0.01378040760755539,0.027821481227874756,0.058747291564941406,4.365699291229248,1.4146676063537598,47.641599602390706,-122.1402576929276,124.38993072509766,4.078522871187443,-0.033451221366668664,14.870847504736554,5.089174986941227,-0.31669851956042994,0.0,65.99868802897193,0.6657129811174666,8.989140435942307,6.707451877473493,6.630089072809495,0.1069369205291828,1.0101455688476575,5.089174986941227,-0.31669851956042994,0.0,10.805676529883682,0.1742851053207003,1.6463287514232112,50.10383651214702,0.8081263953571962,7.342811684519096
22/04/2022,11:37:17,25.335073,-7.081228390918113,14.54250072222203,2.4354324340820312,3.8687286376953125,0.6106483340263367,-0.06890494376420975,0.6904536485671997,0.6106483340263367,4.365699291229248,1.4146676063537598,47.64159954155251,-122.14025711963222,124.43543243408203,20.397076533778257,-3.9637232694708326,14.391413427540387,5.091646828179782,-0.27410322341548954,0.0,37.40866270449425,0.24713896813796885,-0.15602151153290755,6.657991310530281,6.5868938595348405,0.10624022354088325,0.96456756591797,5.091646828179782,-0.27410322341548954,0.0,10.493128798319214,0.16924401287611432,1.5365864274869723,21.823887077995252,0.35199817867734406,-1.6926079390198798
22/04/2022,11:37:17,25.527072,-6.858219111105427,14.525681814178824,2.650146484375,3.8687286376953125,1.7940306663513184,-0.13384248316287994,1.5573387145996094,1.7940306663513184,4.365699291229248,1.5573387145996094,47.641599364393215,-122.14025408194021,124.6548080444336,24.105007757522444,-5.2410375867072245,14.119557103568845,5.336836120598952,0.7198473601190278,0.0,17.963473538787472,0.9235028023478724,-2.015649774185855,6.40905875234393,6.364213781693153,0.10264860938214682,0.7498535156250012,5.336836120598952,0.7198473601190278,0.0,9.007649877162349,0.14528467543810125,1.0613122311099257,3.618987541026173,0.058370766790743364,-3.0769620052957807
22/04/2022,11:37:17,25.682071,-6.532070951652713,14.507979485206306,2.89080810546875,3.8687286376953125,2.448523759841919,-0.12503273785114288,1.5151433944702148,2.448523759841919,4.365699291229248,1.5573387145996094,47.64159917280031,-122.14024971652336,124.89535522460938,22.23491706599734,-8.38868652474462,12.862152502467648,5.31975461337925,0.8367860260724875,0.0,13.618364846093176,0.9706345782130298,-1.8785967108589177,6.060649308450956,6.038435893386278,0.09739412731267905,0.5091918945312512,5.31975461337925,0.8367860260724875,0.0,7.169179946090938,0.11563193461436658,0.604542034301262,1.1294302866229884,0.018216617526175607,-2.4831387451601796
22/04/2022,11:37:18,25.873081,-5.994058147538453,14.500101502984762,3.1506423950195312,3.8687286376953125,3.0511515140533447,-0.001695598941296339,1.120152473449707,3.0511515140533447,4.365699291229248,1.5573387145996094,47.64159905155794,-122.14024253140255,125.15400695800781,17.990870434180867,-9.910892613425066,12.32230978405876,5.311634376508968,0.8868710449034831,0.0,9.398149703792932,0.9527825824403187,-2.175935926477232,5.507053801837153,5.500690045761446,0.08872080718970032,0.24935760498047,5.311634376508968,0.8868710449034831,0.0,4.807912719765179,0.0775469793510509,0.217952582454557,-0.7213973924812146,-0.011635441814215379,-2.393888508931789
22/04/2022,11:37:18,26.060073,-5.383165052509867,14.520105601288378,3.3249359130859375,3.8687286376953125,3.509371280670166,0.15129590034484863,0.7559873461723328,3.509371280670166,4.365699291229248,1.5573387145996094,47.64159917471259,-122.14023437776589,125.32720947265625,14.048829355573883,-9.171651596932763,12.550367645925961,0.0,0.0,0.0,0.7648398954670652,0.012336127346239782,-1.4043897350417682,4.890845305971795,4.889633267768023,0.07886505270593247,0.07506408691406374,0.0,0.0,0.0,2.9151529378991405,0.04701859577256476,0.044752496049286716,-2.1503130424320753,-0.034682468426324976,-1.4491422310910549
22/04/2022,11:37:18,26.209075,-4.817271541105583,14.557314272038639,3.40802001953125,3.8687286376953125,3.6670801639556885,0.22549596428871155,0.17975395917892456,3.6670801639556885,4.365699291229248,1.5573387145996094,47.64159944895981,-122.14022697924051,125.40802001953125,-3.0975797077980274,-0.7190399513828114,13.555881648203295,0.0,0.0,0.0,-1.2831240002529543,-0.020695548391179985,-0.373416168295344,4.323856692602272,4.32328694906202,0.06973043466228823,-0.008020019531248757,0.0,0.0,0.0,1.754723390888327,0.0283019901756172,-0.0032551426802508885,-3.0378473911412813,-0.048997538566797186,-0.3701610256150931
22/04/2022,11:37:18,26.36807,-4.2782229440053925,14.599351259879768,3.46539306640625,3.8687286376953125,3.2668795585632324,0.23717142641544342,0.7107701897621155,3.6670801639556885,4.365699291229248,1.5573387145996094,47.64159977977215,-122.14021966622118,125.46751403808594,-15.238322616667705,4.164421245752156,13.0100008132951,0.0,0.0,0.0,-1.769771182896773,-0.028544696498337272,-1.5496224622729382,3.7847578048063286,3.7837007070596056,0.06102743075902595,-0.06539306640624876,0.0,0.0,0.0,1.0682112484359838,0.017229213684451367,-0.01846171632300191,-2.837982431332757,-0.04577391018278864,-1.5311607459499363
22/04/2022,11:37:18,26.567072,-3.708625274593942,14.6487384038046,3.6369476318359375,3.8687286376953125,2.5754292011260986,0.20126619935035706,0.9178232550621033,3.6670801639556885,4.365699291229248,1.5573387145996094,47.64160016087044,-122.14021220724352,125.63694763183594,-17.819927514228542,5.576798267498359,12.787296452520716,0.0,0.0,-5.0,-1.2319308381433192,-0.019869852228116526,-7.090984332465178,3.2225955977463934,3.213454817816184,0.051829916416389565,-0.23694763183593626,0.0,0.0,-5.0,0.68080966792496,0.010980801095563765,-0.050200251035568494,-1.9127405060682792,-0.03085065332368029,-2.040784081429609
22/04/2022,11:37:18,26.756071,-3.267645703162998,14.688348363153636,3.749420166015625,3.8687286376953125,2.178635597229004,0.17290079593658447,0.12708909809589386,3.6670801639556885,4.365699291229248,1.5573387145996094,47.64160047791122,-122.14020624373025,125.74983215332031,-23.121993718242056,7.427597925374894,12.195325107197016,0.0,0.0,-5.0,-1.7786958143324125,-0.0286886421666531,-5.951318237284396,2.7942453303493835,2.7719512313245875,0.044708890827813264,-0.34942016601562376,0.0,0.0,-5.0,0.5457139933546441,0.008801838602493737,-0.06879034234087514,-2.3244098076870565,-0.037490480769146836,-0.8825278949435209
22/04/2022,11:37:19,26.910073,-2.963755557546392,14.715728342533112,3.712371826171875,3.8687286376953125,1.8556822538375854,0.14592698216438293,-0.6485987305641174,3.6670801639556885,4.365699291229248,1.5573387145996094,47.64160069319289,-122.14020220715855,125.71044921875,-23.480963688832045,7.735152994883804,12.112049440650834,0.0,0.0,-5.0,-1.4273841115382795,-0.02302232437965055,-3.5366632216253495,2.4877091508157307,2.467698623139474,0.03980159069579514,-0.31237182617187376,0.0,0.0,-5.0,0.5074854690375259,0.008185249500604674,-0.06423967709527796,-1.9348695805758054,-0.031207573880255225,1.5275764554699287
22/04/2022,11:37:19,27.094075,-2.6540893408237025,14.743059436790645,3.5084457397460938,3.8687286376953125,1.4658002853393555,0.11052873730659485,-1.5616004467010498,3.6670801639556885,4.365699291229248,1.5573387145996094,47.641600907223804,-122.1401980963944,125.5037841796875,-20.065010123844015,6.7580348546862234,12.538539582672744,0.0,0.0,0.0,-0.29611608794954214,-0.00477606593467352,3.0637912561913123,2.160676067903296,2.157672234342079,0.03480116507003217,-0.1084457397460925,0.0,0.0,0.0,0.49971912320914913,0.008059985858211768,-0.025116145593915642,-0.7958352111586913,-0.012836051792885288,3.088907401785228
22/04/2022,11:37:19,27.284069,-2.434954239288345,14.760940163396299,3.23419189453125,3.8687286376953125,0.8074820637702942,0.04995708167552948,-0.9414718747138977,3.6670801639556885,4.365699291229248,1.5573387145996094,47.64160104460014,-122.14019520286521,125.23133850097656,-9.663861156266444,3.2514109299866427,13.516884391293193,0.0,0.0,0.0,0.8864648451998371,0.014297820083866203,2.512455851589366,1.945635906806237,1.9383058012207615,0.031262996793881115,0.16580810546875124,0.0,0.0,0.0,0.4981002634369971,0.008033875216725212,0.04260889120899246,0.3883645817628401,0.006263944867140991,2.4698469603803734
22/04/2022,11:37:19,27.471071,-2.319286110927351,14.768589930608869,3.1459808349609375,3.8687286376953125,0.4556281566619873,0.02208237536251545,-0.20467469096183777,3.6670801639556885,4.365699291229248,1.5573387145996094,47.6416011005278,-122.14019369441456,125.14598083496094,-5.025444724544463,1.6118694429040894,13.782077991324028,0.0,0.0,0.0,2.246406277342156,0.036232359311969185,1.3447342910911926,1.8403961420385084,1.8225444043451202,0.02939587748943495,0.25401916503906374,0.0,0.0,0.0,0.4947474069983986,0.007979796887070274,0.06895597327085862,1.751658870343757,0.028252562424898913,1.275778317820334
22/04/2022,11:37:19,27.659072,-2.2487055239034817,14.772578620351851,3.1124038696289062,3.8687286376953125,0.322280615568161,0.013748792000114918,-0.1703561395406723,3.6670801639556885,4.365699291229248,1.5573387145996094,47.64160112973581,-122.14019274132076,125.11189270019531,-3.0981496881020876,0.928186963944923,13.492846363405164,0.0,0.0,0.0,2.4992298550798653,0.04031015895289628,1.219854450262772,1.775591775870281,1.751917856807066,0.02825673962591857,0.287596130371095,0.0,0.0,0.0,0.4922184820298135,0.007939007774673892,0.08080294985228771,2.0070113730500516,0.03237115117822239,1.1390515004104842
22/04/2022,11:37:20,27.811073,-2.2050336173269898,14.774867195636034,3.0876846313476562,3.8687286376953125,0.24922259151935577,0.010012962855398655,-0.15166246891021729,3.6670801639556885,4.365699291229248,1.5573387145996094,47.6416011456035,-122.14019217253787,125.08768463134766,-2.2300362717086,0.6212013760601831,12.845582935204417,-2.9249183636180685,0.6669726877240176,0.0,-0.3253806623978295,0.7089007151630464,1.1632804118294817,1.7367547185859626,1.7082204054292627,0.02755194202304878,0.312315368652345,-2.9249183636180685,0.6669726877240176,0.0,0.48999089564337706,0.00790307896198885,0.08958544618877698,2.109546805576862,0.034024948477040004,1.0736949656407047
22/04/2022,11:37:20,27.963072,-2.1773088632617146,14.777503098361194,3.0802230834960938,3.8687286376953125,0.040967028588056564,0.03990506753325462,0.23973362147808075,3.6670801639556885,4.365699291229248,1.5573387145996094,47.64160116760713,-122.14019180125663,125.08091735839844,-11.813450061801877,0.3972967395952565,12.500110392169919,-2.9288867703073143,0.6493244849216688,0.0,0.01658259062870382,0.6968320552593439,-0.15261233346107994,1.710829895198935,1.6804603584602438,0.02710419933000452,0.3197769165039075,-2.9288867703073143,0.6493244849216688,0.0,0.4887492275658855,0.007883052057514453,0.09300470561405567,2.4567201333701325,0.0396245182801605,-0.2456170390751356
22/04/2022,11:37:20,28.151074,-2.2225160234374925,14.794811075553298,3.1743392944335938,3.8687286376953125,-0.528367817401886,0.15243951976299286,0.6218565702438354,3.6670801639556885,4.365699291229248,1.5573387145996094,47.64160133086826,-122.14019242328698,125.17620849609375,-16.23834511821971,0.23998694501420612,12.284370766115146,0.0,0.0,0.0,3.253631624255905,0.05247792942348186,-0.947115068247804,1.7402936107500802,1.7253766729283269,0.027828656014971642,0.2256607055664075,0.0,0.0,0.0,0.4939776088034299,0.007967380787151703,0.06460695654786992,2.759654015452475,0.04451054863633016,-1.011722024795674
22/04/2022,11:37:20,28.342073,-2.351765501429327,14.827919004485011,3.2413864135742188,3.8687286376953125,-0.7540489435195923,0.19677525758743286,-0.06200515478849411,3.6670801639556885,4.365699291229248,1.5573387145996094,47.64160163753641,-122.14019411802742,125.24138641357422,-2.822802478456232,0.2190509077065035,12.172212696382106,0.0,0.0,0.0,4.263337003051447,0.06876350004921206,0.35975436981219194,1.8610712246877326,1.8540586759990276,0.029904172193532474,0.1586135864257825,0.0,0.0,0.0,0.49784885243768245,0.00802982020060772,0.04259066501255778,3.7654881506137645,0.06073367984860433,0.3171637047996342
22/04/2022,11:37:20,28.524072,-2.4914408604381606,14.861987195909023,3.2209701538085938,3.8687286376953125,-0.7381596565246582,0.18666619062423706,-0.09241610765457153,3.6670801639556885,4.365699291229248,1.5573387145996094,47.64160196301628,-122.14019600193599,125.22069549560547,2.757957601590469,0.20298420168343395,12.119050448543591,0.0,0.0,0.0,4.604166412564041,0.07426074858973986,0.47616520106608873,2.001430876611145,1.993148364467602,0.032147554265606004,0.1790298461914075,0.0,0.0,0.0,0.4979308526033768,0.008031142783925312,0.04472546326442221,4.106235559960664,0.06622960580581454,0.4314397378016665
22/04/2022,11:37:20,28.707072,-2.6158598092151806,14.891689352691174,3.2088775634765625,3.8687286376953125,-0.6288108825683594,0.15711204707622528,-0.04882975295186043,3.6670801639556885,4.365699291229248,1.5573387145996094,47.64160224184452,-122.14019764947626,125.20873260498047,4.018506903018415,0.17275321973018393,12.092264990522123,0.0,0.0,0.0,4.303632297193715,0.06941342414828551,0.371140119918075,2.1259397682206345,2.1170560121602864,0.034146064712262,0.19112243652343874,0.0,0.0,0.0,0.49810954462578805,0.008034024913319003,0.044968063800691446,3.805522752567927,0.061379399234966506,0.32617205611738354
22/04/2022,11:37:21,28.895072,-2.723466899478808,14.91715277172625,3.2008819580078125,3.8687286376953125,-0.5023969411849976,0.12485536932945251,-0.038581881672143936,3.6670801639556885,4.365699291229248,1.5573387145996094,47.64160248080849,-122.1401990731437,125.20075988769531,3.8173974643031254,0.13855404320624434,12.07747977240417,0.0,0.0,0.0,3.9325104091676657,0.06342758724463601,0.33884173160218145,2.233407644862707,2.22422452269168,0.03587458907567154,0.19911804199218874,0.0,0.0,0.0,0.499210501658564,0.008051782284815387,0.04469055017516797,3.4332999075091015,0.055375804959820626,0.29415118142701346
22/04/2022,11:37:21,29.04607,-2.792484353412874,14.933421993628144,3.1951980590820312,3.8687286376953125,-0.41246283054351807,0.1022934764623642,-0.03747053071856499,3.6670801639556885,4.365699291229248,1.5573387145996094,47.641602630690215,-122.14019996938183,125.19519805908203,3.329154245808074,0.11401669724194297,12.071017461623919,0.0,0.0,-5.0,3.70371607823497,0.05973735610055811,-4.667573529786313,2.302386783167746,2.2929616881441204,0.036983253034581054,0.20480194091797,0.0,0.0,-5.0,0.5007068288677106,0.008075916594640159,0.04472195541391166,3.2030092493672595,0.05166143950591795,0.28770451479977577
22/04/2022,11:37:21,29.232072,-2.862012878409587,14.949788355268538,3.1374588012695312,3.8687286376953125,-0.3473764657974243,0.08608074486255646,-0.7519847750663757,3.6670801639556885,4.365699291229248,1.5573387145996094,47.64160278718991,-122.14020090645879,125.13522338867188,3.9876191645055736,0.13218008783834587,12.069091583151577,0.0,0.0,-5.0,4.211325827920857,0.06792461012774886,-2.7987370377830674,2.3770585186707742,2.362208225378362,0.03810013266739176,0.26254119873047,0.0,0.0,-5.0,0.5022035982522858,0.00810005803632694,0.05581605096256568,3.7091222296685706,0.05982455209142193,2.145446911254367
22/04/2022,11:37:21,29.416071,-2.9210356526309624,14.963673460297287,2.918731689453125,3.8687286376953125,-0.282277375459671,0.06990586221218109,-1.6193504333496094,3.6670801639556885,4.365699291229248,1.5573387145996094,47.641602917569394,-122.14020168752785,124.91389465332031,3.8665427141241313,0.12702251584896895,12.06724111421312,0.0,0.0,0.0,8.702398226907135,0.14036126172429864,10.327290212975253,2.468672725550577,2.4209917540117005,0.03904825409695789,0.48126831054687624,0.0,0.0,0.0,0.5004385477875218,0.008071589480442861,0.09948204657332707,8.201959679119614,0.13228967224385577,10.227808166401926
22/04/2022,11:37:21,29.605071,-2.962364010629244,14.97338464204222,2.6636734008789062,3.8687286376953125,-0.15391665697097778,0.03804169222712517,-0.7718601822853088,3.6670801639556885,4.365699291229248,1.5573387145996094,47.641603008201905,-122.14020223114098,124.66133117675781,1.9709907188079612,0.06411905629971253,12.063221770237837,0.0,0.0,-2.0,3.968859689301342,0.06401386595647011,1.0078944833774786,2.5702043086755,2.4621527721852265,0.03971214148685753,0.736326599121095,0.0,0.0,-2.0,0.4967398025214646,0.008011932298733105,0.14855403513978138,3.4721198867798773,0.05600193365773701,2.859340448237697
22/04/2022,11:37:21,29.763072,-2.983010684256442,14.978225224651396,2.5419235229492188,3.8687286376953125,-0.11937156319618225,0.029482020065188408,-1.108532428741455,3.6670801639556885,4.365699291229248,1.5573387145996094,47.641603053576766,-122.14020250386957,124.53861999511719,1.36824513990415,0.06777097744267106,11.10191405927801,0.0,0.0,-2.0,5.246541100330876,0.08462163065049225,3.5414879716951804,2.6271234449688037,2.4827160224586153,0.04004380681384667,0.8580764770507825,0.0,0.0,-2.0,0.4958240928058742,0.007997162787191127,0.17136675598139484,4.750717007525002,0.07662446786330113,5.370121215713786
22/04/2022,11:37:22,29.906071,-2.999481571256183,14.98208690714091,2.3311386108398438,3.8687286376953125,-0.10378012806177139,0.025603335350751877,-1.7803502082824707,3.6670801639556885,4.365699291229248,1.5573387145996094,47.641603089858435,-122.14020272193937,124.32582092285156,1.0238800544402216,0.1043909624985208,8.184095979013776,0.0,0.0,0.0,11.346491406604843,0.18300792591297452,18.779955679966747,2.718398792165123,2.4991203567401903,0.0403083928506458,1.0688613891601575,0.0,0.0,0.0,0.4937533088033656,0.007963763045215093,0.21117584278269116,10.852738097801478,0.17504416286775942,18.568779837184056
22/04/2022,11:37:22,30.059074,-3.013269208255224,14.985309362411499,2.0795974731445312,3.8687286376953125,-0.07598511129617691,0.01864250935614109,-1.2798558473587036,3.6670801639556885,4.365699291229248,1.5573387145996094,47.64160311953514,-122.14020290085007,124.07959747314453,0.6727463819810996,0.10558447184461756,5.1442561086534875,0.0,0.0,0.0,7.523183949412939,0.12134167660342376,10.49610439548471,2.838931651322157,2.5128524463104207,0.04052987816629461,1.32040252685547,0.0,0.0,0.0,0.4948327790531615,0.007981173855695661,0.2600146509963423,7.028351170359778,0.1133605027477281,10.236089744488368
22/04/2022,11:37:22,30.211072,-3.022787725669332,14.987519201822579,1.95257568359375,3.8687286376953125,-0.05350720137357712,0.013035918585956097,-0.43561020493507385,3.6670801639556885,4.365699291229248,1.5573387145996094,47.64160314071789,-122.14020302938232,123.95125579833984,0.4805826736645885,0.08939507627378443,3.3966486719700573,0.0,0.0,0.0,3.6530817519221626,0.058920673418099,3.068306100675719,2.90841112494412,2.522332854866037,0.04068278798171043,1.4474243164062512,0.0,0.0,0.0,0.4986393483526409,0.008042570134720045,0.28614094945090507,3.1544424035695218,0.05087810328337895,2.782165151224814
22/04/2022,11:37:22,30.387071,-3.0309825770091265,14.989407777786255,1.9012985229492188,3.8687286376953125,-0.039619531482458115,0.009607311338186264,-0.22249022126197815,3.6670801639556885,4.365699291229248,1.5573387145996094,47.64160315843533,-122.14020313763655,123.90062713623047,0.345372071809672,0.07028326092738346,2.2844349747039727,0.0,0.0,0.0,3.2973627747165626,0.053183270559940266,2.379523129187041,2.9412884077735577,2.5304951219246643,0.04081443745039337,1.4987014770507825,0.0,0.0,0.0,0.5019201316923861,0.008095485995037606,0.2972653202179526,2.7954426430241766,0.04508778456490266,2.0822578089690884
22/04/2022,11:37:22,30.566073,-3.037280145799741,14.99085402302444,1.8652877807617188,3.8687286376953125,-0.03023047186434269,0.007312355097383261,-0.17966489493846893,3.6670801639556885,4.365699291229248,1.5573387145996094,47.64160317201001,-122.14020322088038,123.86474609375,0.2570256670862266,0.054391311639764406,1.7348989252128153,0.0,0.0,0.0,3.24811122061013,0.05238889065499823,2.3061795659980726,2.965165460979111,2.5367677323866555,0.040915608586878705,1.5347122192382825,0.0,0.0,0.0,0.5046811938184431,0.008140019255135616,0.30532570447205326,2.7434300267916867,0.04424887139986261,2.000853861526019
22/04/2022,11:37:22,30.709069,-3.0412356392480433,14.99176151305437,1.8412551879882812,3.8687286376953125,-0.024457240477204323,0.005909491330385208,-0.15376752614974976,3.6670801639556885,4.365699291229248,1.5573387145996094,47.641603180543036,-122.14020327317064,123.84078979492188,0.20606224510523607,0.044265395012509624,1.5085121539937534,0.0,0.0,0.0,3.2217740870772413,0.05196409817866157,2.2677173791533276,2.9810333117336154,2.5407075639688186,0.04097915425755794,1.55874481201172,0.0,0.0,0.0,0.50661639742322,0.00817123221650282,0.310813291683971,2.7151576896540215,0.04379286596215875,1.9569040874693564
22/04/2022,11:37:23,30.866073,-3.044558048946783,14.99252253305167,1.81988525390625,3.8687286376953125,-0.019648773595690727,0.004744790960103273,-0.130873903632164,3.6670801639556885,4.365699291229248,1.5573387145996094,47.64160318779937,-122.1402033178814,123.81909942626953,0.16492816757662304,0.03572373573617399,1.3782925435358473,0.0,0.0,0.0,3.200478170283205,0.051620615649729217,2.2353039461954616,2.99507394777706,2.5440168382580572,0.04103252964932125,1.5801147460937512,0.0,0.0,0.0,0.5083911219157234,0.008199856805091861,0.3157668991971879,2.6920870483674815,0.04342075884463736,1.9195370469982738
22/04/2022,11:37:23,31.035075,-3.0476494987960905,14.993232534267008,1.7987136840820312,3.8687286376953125,-0.015192377381026745,0.003667581593617797,-0.10827837139368057,3.6670801639556885,4.365699291229248,1.5573387145996094,47.64160319435222,-122.14020335796857,123.79838562011719,0.1274475970223841,0.027742514760002723,1.2985429071414856,0.0,0.0,0.0,3.181196839335498,0.05130962644089335,2.204638840049962,3.0089040905201023,2.547096035435011,0.041082194119919535,1.60128631591797,0.0,0.0,0.0,0.5101931498247442,0.008228921771366842,0.32074381881322445,2.6710036895107536,0.04308070466952651,1.8838950212367378
22/04/2022,11:37:23,31.185072,-3.04967793810647,14.993698026053607,1.783935546875,3.8687286376953125,-0.012274294160306454,0.0029629976488649845,-0.09262792021036148,3.6670801639556885,4.365699291229248,1.5573387145996094,47.64160319871644,-122.1402033847844,123.78365325927734,0.10307217128753177,0.0224845286218044,1.2643900153085974,0.0,0.0,0.0,3.1688418193770778,0.05111035192543547,2.184237404293464,3.0185011798509205,2.54911644121351,0.041114781309893544,1.6160644531250012,0.0,0.0,0.0,0.5114729627357116,0.008249563915091766,0.32425873547707407,2.6573688566413662,0.0428607880103437,1.8599786688163897
22/04/2022,11:37:23,31.466074,-3.052493227296509,14.994341587647796,1.7616958618164062,3.8687286376953125,-0.00822385959327221,0.001985564362257719,-0.06915294378995895,3.6670801639556885,4.365699291229248,1.5573387145996094,47.64160320476122,-122.14020342200507,123.76148986816406,0.06927547669598252,0.015140888326663228,1.2361309279910067,0.0,0.0,0.0,3.1518503223187997,0.05083629552126774,2.1547321081152746,3.032825984276006,2.5519206208826053,0.04116001001423086,1.638304138183595,0.0,0.0,0.0,0.5134211926285721,0.008280986977879249,0.3296105911882284,2.638429129690228,0.042555308543388494,1.8251215169270463
22/04/2022,11:37:23,31.626076,-3.053690347704105,14.994613572955132,1.7513656616210938,3.8687286376953125,-0.006499952170997858,0.0015696270857006311,-0.058342646807432175,3.6670801639556885,4.365699291229248,1.5573387145996094,47.64160320731461,-122.14020343783113,123.75119018554688,0.0548589209277278,0.0119970566683172,1.2295198279006163,0.0,0.0,0.0,3.1446692277224004,0.05072047141487457,2.141662066135316,3.0394205250848914,2.553113044226622,0.04117924264881623,1.6486343383789075,0.0,0.0,0.0,0.5143306807957959,0.008295656141867624,0.3321212993522601,2.6303385469266045,0.04242481527300695,1.8095407667830559
22/04/2022,11:37:23,31.773072,-3.054558038478717,14.994812466204166,1.7433853149414062,3.8687286376953125,-0.005249718204140663,0.0012679563369601965,-0.05006972700357437,3.6670801639556885,4.365699291229248,1.5573387145996094,47.641603209177546,-122.14020344930186,123.74323272705078,0.044378766473014274,0.009708795162486338,1.2263199616556537,0.0,0.0,0.0,3.13947167468318,0.0506366399142456,2.1319322988819613,3.0444817544594573,2.5539773022126218,0.04119318229375146,1.656614685058595,0.0,0.0,0.0,0.5150323153704713,0.008306972828555886,0.33407113531638644,2.6244393593127087,0.042329667085689714,1.797861163565575
22/04/2022,11:37:24,31.95407,-3.055396405979991,14.995002996176481,1.735137939453125,3.8687286376953125,-0.004040606319904327,0.0009761684923432767,-0.04160473868250847,3.6670801639556885,4.365699291229248,1.5573387145996094,47.641603210949285,-122.14020346022397,123.73513793945312,0.03421788045649612,0.007488519414216479,1.2242831196956987,0.0,0.0,0.0,3.134435505640119,0.05055541138128884,2.122241003369465,3.049677025970954,2.5548123794080997,0.041206651280774054,1.6648620605468762,0.0,0.0,0.0,0.5157545582400038,0.008318621907096483,0.3360952074166916,2.618680947400115,0.042236789474192356,1.7861457959527733
22/04/2022,11:37:24,32.132072,-3.056032622465864,14.995153776369989,1.7283782958984375,3.8687286376953125,-0.003122941358014941,0.00075466965790838,-0.034767355769872665,3.6670801639556885,4.365699291229248,1.5573387145996094,47.64160321239535,-122.14020346879681,123.728271484375,0.02648617392898518,0.005798343145336947,1.2233113103028117,0.0,0.0,0.0,3.13060144564174,0.050493571703894104,2.1146644808300508,3.053902782752412,2.555445999121935,0.041216870953578066,1.6716217041015637,0.0,0.0,0.0,0.5163421664355666,0.008328099458637862,0.3377605210413723,2.6142592792061734,0.04216547224525624,1.7769039597886784
22/04/2022,11:37:24,32.282073,-3.0564570223214105,14.995244639925659,1.7235183715820312,3.8687286376953125,-0.0025100756902247667,0.0006067108479328454,-0.02993026375770569,3.6670801639556885,4.365699291229248,1.5573387145996094,47.64160321325517,-122.14020347440893,123.72342681884766,0.02131146825303842,0.00466671170526752,1.222889050479151,2.0849117543705082,3.9564053099357364,0.0,5.212942718144431,4.006857422254668,2.1094772543447236,3.0569192802120675,2.555868823440341,0.04122369070064913,1.67648162841797,2.0849117543705082,3.9564053099357364,0.0,0.5167607974061694,0.00833485157106694,0.33896105120603254,2.611270166367754,0.042117260747864184,1.7705162031386912
