date,fly_time,fly_time_s,x,y,z,z_max,vx,vy,vz,vx_max,vy_max,vz_max,latitude,longitude,altitude,pitch,roll,yaw,cx,cy,cz,scx,scy,scz,d,dx,dy,dz,gc_pow_x,gc_pow_y,gc_pow_z,gpc_pow_x,gpc_pow_y,gpc_pow_z,gfc_pow_x,gfc_pow_y,gfc_pow_z
22/04/2022,11:54:23,22.24059,0.0,0.0,2.5700454711914062,2.5700454711914062,0.0,0.0,0.008310901001095772,0,0,0.008310901001095772,47.641468,-122.140165,124.5700454711914,0.0,0.0,0.0,0.0,0.0,0.0,0.0,0.0,0.0,0.8691400887556013,-0.25799739921976594,-0.004161248374512427,0.829954528808595,0.0,0.0,0.0,-0.0,-0.0,0.0,-0.0,-0.0,0.0
22/04/2022,11:54:23,22.433587,0.0,0.0,2.5714492797851562,2.5714492797851562,0.0,0.0,0.006119363009929657,0,0,0.008310901001095772,47.641468,-122.140165,124.57147216796875,0.0,0.0,0.0,0.0,0.0,0.0,0.0,0.0,0.0,0.8677996715606293,-0.25799739921976594,-0.004161248374512427,0.828550720214845,0.0,0.0,0.0,-0.0,-0.0,0.0,-0.0,-0.0,0.0
22/04/2022,11:54:23,22.589588,0.0,0.0,2.5722808837890625,2.5722808837890625,0.0,0.0,0.004700956866145134,0,0,0.008310901001095772,47.641468,-122.140165,124.57228088378906,0.0,0.0,0.0,0.0,0.0,0.0,0.0,0.0,0.0,0.8670057147062037,-0.25799739921976594,-0.004161248374512427,0.8277191162109387,0.0,0.0,0.0,-0.0,-0.0,0.0,-0.0,-0.0,0.0
22/04/2022,11:54:23,22.756587,0.0,0.0,2.5729446411132812,2.5729446411132812,0.0,0.0,0.0034380427096039057,0,0,0.008310901001095772,47.641468,-122.140165,124.57295227050781,0.0,0.0,0.0,0.0,0.0,0.0,0.0,0.0,0.0,0.8663720567143419,-0.25799739921976594,-0.004161248374512427,0.82705535888672,0.0,0.0,0.0,-0.0,-0.0,0.0,-0.0,-0.0,0.0
22/04/2022,11:54:24,22.917589,0.0,0.0,2.5734176635742188,2.5734176635742188,0.0,0.0,0.002363787731155753,0,0,0.008310901001095772,47.641468,-122.140165,124.57342529296875,0.0,0.0,0.0,0.0,0.0,0.0,0.0,0.0,0.0,0.8659205118735225,-0.25799739921976594,-0.004161248374512427,0.8265823364257825,0.0,0.0,0.0,-0.0,-0.0,0.0,-0.0,-0.0,0.0
22/04/2022,11:54:24,23.080591,0.0,0.0,2.57373046875,2.57373046875,0.0,0.0,0.0014832033775746822,0,0,0.008310901001095772,47.641468,-122.140165,124.57373809814453,0.0,0.0,0.0,0.0,0.0,0.0,0.0,0.0,0.0,0.8656219222410523,-0.25799739921976594,-0.004161248374512427,0.8262695312500012,0.0,0.0,0.0,-0.0,-0.0,0.0,-0.0,-0.0,0.0
22/04/2022,11:54:24,23.247593,0.0,0.0,2.5739212036132812,2.5739212036132812,0.0,0.0,0.0007217527600005269,0,0,0.008310901001095772,47.641468,-122.140165,124.57392120361328,0.0,0.0,0.0,0.0,0.0,0.0,0.0,0.0,0.0,0.8654398603207097,-0.25799739921976594,-0.004161248374512427,0.82607879638672,0.0,0.0,0.0,-0.0,-0.0,0.0,-0.0,-0.0,0.0
22/04/2022,11:54:24,23.410592,0.0,0.0,2.5739822387695312,2.5739822387695312,0.0,0.0,0.00013043262879364192,0,0,0.008310901001095772,47.641468,-122.140165,124.57398223876953,0.0,0.0,0.0,0.0,0.0,0.0,0.0,0.0,0.0,0.8653816012952872,-0.25799739921976594,-0.004161248374512427,0.82601776123047,0.0,0.0,0.0,-0.0,-0.0,0.0,-0.0,-0.0,0.0
22/04/2022,11:54:24,23.579588,0.0,0.0,2.5739593505859375,2.5739822387695312,0.0,0.0,-0.0004023913643322885,0,0,0.008310901001095772,47.641468,-122.140165,124.57395935058594,0.0,0.0,0.0,0.0,1.0,0.0,0.0,1.0,0.0,0.8654034483849748,-0.25799739921976594,-0.004161248374512427,0.8260406494140637,0.0,1.0,0.0,-0.0,-0.0,0.0,-0.0,-0.0,0.0
22/04/2022,11:54:24,23.741591,-1.5344936400651932e-05,0.0013836612924933434,2.575225830078125,2.575225830078125,5.0292031823773176e-12,0.038837630301713943,0.03500072658061981,5.0292031823773176e-12,0.038837630301713943,0.03500072658061981,47.64146801347146,-122.140165,124.57533264160156,-1.239952727101593e-10,-3.539299660978143,1.4950285462448017e-08,2.60931705432761e-10,1.0,0.0,2.60931705432761e-10,1.0,0.0,0.8641967386078009,-0.25800436958767503,-0.004161360799801339,0.8247741699218762,2.60931705432761e-10,1.0,0.0,-0.0,-0.0,0.0,-0.0,-0.0,0.0
22/04/2022,11:54:25,23.899587,-0.00018926896154880524,0.01706644706428051,2.5846939086914062,2.5846939086914062,5.6745354942711046e-11,0.166543111205101,0.07275194674730301,5.6745354942711046e-11,0.166543111205101,0.07275194674730301,47.64146815356123,-122.140165,124.5846939086914,4.792471705932917e-10,-5.100522434259266,2.7370189418556643e-08,4.776999222483258e-10,1.0,0.0,4.776999222483258e-10,1.0,0.0,0.855189088775742,-0.2580833731676962,-0.004162635051092045,0.815306091308595,4.776999222483258e-10,1.0,0.0,-0.0,-0.0,0.0,-0.0,-0.0,0.0
22/04/2022,11:54:25,24.077589,-0.0006425206083804369,0.057936305180191994,2.5969161987304688,2.5969161987304688,1.668966492784918e-10,0.31662359833717346,0.06567436456680298,1.668966492784918e-10,0.31662359833717346,0.07275194674730301,47.64146852130183,-122.140165,124.59691619873047,3.409756467276419e-09,-5.003777614582093,1.3944593397847652e-08,0.0,0.0,5.0,0.0,0.0,5.0,0.8436078997246514,-0.25828925922043106,-0.004165955793878018,0.8030838012695325,0.0,0.0,5.0,-0.0,-0.0,0.0,-0.0,-0.0,0.0
22/04/2022,11:54:25,24.250586,-0.001387641066685319,0.125349510461092,2.6435317993164062,2.6435317993164062,6.689161091344431e-05,0.41751375794410706,0.6883261799812317,6.689161091344431e-05,0.41751375794410706,0.6883261799812317,47.641469139128546,-122.14016499996413,124.64556884765625,0.0023590084562196178,0.17885045450128756,-0.5189955738930265,0.0,0.0,5.0,0.0,0.0,5.0,0.7994696491854425,-0.25863135952880345,-0.004171473540787285,0.756468200683595,0.0,0.0,5.0,-0.0,-0.0,0.0,-0.0,-0.0,-0.0
22/04/2022,11:54:25,24.409588,-0.0020593033405020833,0.18795483000576496,2.81805419921875,2.81805419921875,0.00022075604647397995,0.37552371621131897,1.5893495082855225,0.00022075604647397995,0.41751375794410706,1.5893495082855225,47.64146970132247,-122.14016499965658,124.82279968261719,-0.05369061572361063,1.4826881135212795,-2.1712352995785476,0.0,0.0,5.0,-0.2718423769521197,-0.004384554466969716,2.4001759757022745,0.6369799821553362,-0.25896937254082375,-0.004176925363561623,0.5819458007812512,0.0,0.0,5.0,-0.0,-0.0,0.0,-0.2718423769521197,-0.004384554466969716,-2.5998240242977255
22/04/2022,11:54:25,24.573588,-0.002639119978994131,0.24418438971042633,3.15045166015625,3.15045166015625,0.00030218111351132393,0.3058009147644043,2.3163959980010986,0.00030218111351132393,0.41751375794410706,2.3163959980010986,47.64147019712617,-122.1401649990826,125.15045166015625,-0.15463868039109513,1.9216706961628396,-4.641618207053976,0.0,0.0,5.0,-0.5736837603079213,-0.00925296387593445,-4.321513986627014,0.35989788462676986,-0.2592963992100892,-0.0041821999872595494,0.24954833984375124,0.0,0.0,5.0,-0.0,-0.0,0.0,-0.5736837603079213,-0.00925296387593445,-9.321513986627014
22/04/2022,11:54:25,24.735589,-0.0030927902553230524,0.2896561427041888,3.4855499267578125,3.4855499267578125,0.0003383471630513668,0.2695547044277191,1.7005223035812378,0.0003383471630513668,0.41751375794410706,2.3163959980010986,47.64147061354251,-122.14016499839528,125.49067687988281,-0.35731391947359775,2.7796273810744547,-7.4108019126645575,0.0,0.0,0.0,-0.3212656074013747,-0.005181703345183524,-4.164867311430847,0.2733423776817347,-0.2595760715490762,-0.004186710831436846,-0.08554992675781126,0.0,0.0,0.0,-0.0,-0.0,-0.0,-0.3212656074013747,-0.005181703345183524,-4.164867311430847
22/04/2022,11:54:26,24.905589,-0.0034878263249993324,0.3308321703225374,3.6988525390625,3.6988525390625,0.00040980579797178507,0.2273310273885727,0.8621774911880493,0.00040980579797178507,0.41751375794410706,2.3163959980010986,47.64147098289599,-122.14016499757221,125.70146179199219,-0.5622355318080685,3.214465228425411,-9.989738780302615,0.0,0.0,-3.0,-0.3282884470996544,-0.0052949749532204575,-5.478380420573132,0.3960427734278789,-0.2598450949718335,-0.0041910499189006245,-0.29885253906249876,0.0,0.0,-3.0,-0.0,-0.0,-0.0,-0.3282884470996544,-0.0052949749532204575,-2.4783804205731323
22/04/2022,11:54:26,25.06659,-0.0037860567681491375,0.36405270639806986,3.7764663696289062,3.7764663696289062,0.00044987964793108404,0.18141911923885345,0.06922468543052673,0.00044987964793108404,0.41751375794410706,2.3163959980010986,47.64147128056516,-122.14016499663627,125.77669525146484,-0.6480039670559559,3.2408215890676,-11.338029044975858,0.0,0.0,-5.0,0.0,0.0,-5.0,0.4575887810994735,-0.26008261783612874,-0.0041948809328408165,-0.376466369628905,0.0,0.0,-5.0,-0.0,-0.0,-0.0,-0.0,-0.0,-0.0
22/04/2022,11:54:26,25.22259,-0.0039985086768865585,0.38988222274929285,3.7263870239257812,3.7764663696289062,0.00045650856918655336,0.1371612399816513,-0.7146137356758118,0.00045650856918655336,0.41751375794410706,2.3163959980010986,47.64147150806694,-122.14016499566912,125.72638702392578,-0.6064981334782397,2.8419074989013047,-12.033250400794929,0.0,0.0,0.0,-0.509453246655287,-0.008216987849279194,2.115200308805201,0.41748687353671865,-0.2602867179340713,-0.004198172869904426,-0.32638702392578,0.0,0.0,0.0,-0.0,-0.0,-0.0,-0.509453246655287,-0.008216987849279194,2.115200308805201
22/04/2022,11:54:26,25.388589,-0.004104315536096692,0.4060364104807377,3.6271820068359375,3.7764663696289062,0.00046353862853720784,0.06427378952503204,-0.1933733969926834,0.00046353862853720784,0.41751375794410706,2.3163959980010986,47.64147165515981,-122.14016499467415,125.62657928466797,-0.2750864407965974,1.2371483715853355,-12.375891968805538,0.0,0.0,0.0,0.0,0.0,0.0,0.3456284772166366,-0.2604414222442263,-0.004200668100713512,-0.22718200683593626,0.0,0.0,0.0,-0.0,-0.0,-0.0,-0.0,-0.0,0.0
22/04/2022,11:54:26,25.548592,-0.0041264938190579414,0.413822497241199,3.61529541015625,3.7764663696289062,0.0003410725621506572,0.03816390410065651,-0.16784797608852386,0.00046353862853720784,0.41751375794410706,2.3163959980010986,47.64147172449691,-122.14016499382481,125.61479187011719,-0.1337099084272484,0.5830466011075317,-12.56879984680848,0.0,0.0,0.0,0.0,0.0,0.0,0.338013854157556,-0.2605447991127427,-0.004202335469560503,-0.21529541015624876,0.0,0.0,0.0,-0.0,-0.0,-0.0,-0.0,-0.0,0.0
22/04/2022,11:54:26,25.71859,-0.004135671188123524,0.41900838259607553,3.5865936279296875,3.7764663696289062,0.00024396069056820124,0.025489410385489464,-0.1661859154701233,0.00046353862853720784,0.41751375794410706,2.3163959980010986,47.64147177149502,-122.14016499317555,125.5855941772461,-0.07444364663189175,0.3178459018796744,-12.670961503973729,-1.0967587914561558,4.87822920262708,0.0,-1.0967587914561558,4.87822920262708,0.0,0.3205577060751643,-0.2606192456888972,-0.004203536220788728,-0.18659362792968626,-1.0967587914561558,4.87822920262708,0.0,-0.0,-0.0,-0.0,-0.0,-0.0,0.0
22/04/2022,11:54:26,25.87859,-0.005750703276135027,0.42845923360437155,3.5739517211914062,3.7764663696289062,-0.0490616038441658,0.21184231340885162,0.24725046753883362,0.00046353862853720784,0.41751375794410706,2.3163959980010986,47.64147186087951,-122.14016501520926,125.57466888427734,-0.3761870459454502,-13.330922437560494,-12.671194944318401,-2.0724236136409555,4.658869000693555,0.0,-2.0724236136409555,4.658869000693555,0.0,0.3121522673073818,-0.25915702707152355,-0.004179952049540803,-0.173951721191405,-2.0724236136409555,4.658869000693555,0.0,-0.0,-0.0,-0.0,-0.0,-0.0,-0.0
22/04/2022,11:54:27,26.043587,-0.031994094722904265,0.5209571411833167,3.6832199096679688,3.7764663696289062,-0.3036884069442749,0.9683589935302734,1.0623841285705566,0.00046353862853720784,0.9683589935302734,2.3163959980010986,47.64147271600557,-122.14016536101838,125.68639373779297,-3.987192396849801,-20.89321035605132,-12.535038769214896,-2.0613465593413225,4.663780694060526,0.0,-1.7045673421181848,4.669535197564125,-2.5151535266702036,0.3676639577701733,-0.23441197467841912,-0.003780838301264966,-0.2832199096679675,-2.0613465593413225,4.663780694060526,0.0,-0.0,-0.0,-0.0,0.3567792172231376,0.00575450350359849,-2.5151535266702036
22/04/2022,11:54:27,26.201591,-0.09717306517995894,0.706580507569015,3.8319015502929688,3.8319015502929688,-0.4659314751625061,1.3529298305511475,0.5678429007530212,0.00046353862853720784,1.3529298305511475,2.3163959980010986,47.64147440300434,-122.14016620786869,125.83363342285156,-2.3532221948529473,-22.87534223143813,-12.43103867290268,-2.052877734157295,4.667514650068193,0.0,-1.0189397421496433,4.684191069294122,-2.2644740543867807,0.46498855190994676,-0.17224310244928914,-0.002778114555634037,-0.4319015502929675,-2.052877734157295,4.667514650068193,0.0,-0.0,-0.0,-0.0,1.0339379920076517,0.01667641922592915,-2.2644740543867807
22/04/2022,11:54:27,26.369592,-0.184007867006585,0.9518784219399095,3.8557510375976562,3.8557510375976562,-0.5507829189300537,1.6460626125335693,-0.3054521977901459,0.00046353862853720784,1.6460626125335693,2.3163959980010986,47.641476626450824,-122.14016733101576,125.8548583984375,-0.6071893932370312,-21.375464581256672,-12.480700407621557,-2.0569225811668934,4.665733543086845,0.0,-2.0569225811668934,4.665733543086845,0.0,0.4644362094957853,-0.08938627344264283,-0.0014417140877847068,-0.455751037597655,-2.0569225811668934,4.665733543086845,0.0,-0.0,-0.0,-0.0,0.0,0.0,0.0
22/04/2022,11:54:27,26.561587,-0.31588061922229826,1.3358199894428253,3.810455322265625,3.8557510375976562,-0.815043032169342,2.399691104888916,0.19101136922836304,0.00046353862853720784,2.399691104888916,2.3163959980010986,47.64148011408032,-122.14016904034713,125.8110122680664,-3.6091304597376292,-15.762435852119399,-12.68213580747259,-2.0733132059190775,4.658473178001732,0.0,0.1584613545245923,4.694469541879856,-1.1133739207202733,0.41205434988556755,0.03626118620157592,0.0005848578419609396,-0.41045532226562376,-2.0733132059190775,4.658473178001732,0.0,0.0,0.0,-0.0,2.23177456044367,0.03599636387812417,-1.1133739207202733
22/04/2022,11:54:27,26.724592,-0.46099728695116937,1.7384554566815495,3.8183059692382812,3.8557510375976562,-0.9100817441940308,2.6431827545166016,-0.31799399852752686,0.00046353862853720784,2.6431827545166016,2.3163959980010986,47.6414837576154,-122.14017091661377,125.81736755371094,2.4245318300732364,-11.64446671624462,-12.786280451881508,-2.0817773289356873,4.654696891606305,0.0,0.4015756522292824,4.694750971947674,0.28313122359540716,0.4533867537597322,0.17484768081301405,0.0028201238840805942,-0.41830596923828,-2.0817773289356873,4.654696891606305,0.0,0.0,0.0,-0.0,2.4833529811649697,0.04005408034136956,0.28313122359540716
22/04/2022,11:54:28,26.898589,-0.6121211833087727,2.1966142933815718,3.7686767578125,3.8557510375976562,-0.8338013291358948,2.9671947956085205,-0.08920255303382874,0.00046353862853720784,2.9671947956085205,2.3163959980010986,47.641487823436094,-122.14017282435724,125.7686767578125,5.527902652315527,-8.016975188686697,-12.538872068852763,-2.0616585789116257,4.663642771911255,0.0,0.4249480900931708,4.703749331088749,-0.250330764894978,0.48725719139281465,0.31854453639772823,0.005137815103188448,-0.36867675781249876,-2.0616585789116257,4.663642771911255,0.0,0.0,0.0,-0.0,2.4866066690047965,0.04010655917749377,-0.250330764894978
22/04/2022,11:54:28,27.06259,-0.7453826657729223,2.703317169100046,3.759063720703125,3.8557510375976562,-0.70643550157547,3.1905274391174316,-0.05427965894341469,0.00046353862853720784,3.1905274391174316,2.3163959980010986,47.64149248134435,-122.14017455185241,125.75890350341797,5.865764346290163,-5.737760599613392,-12.327729921779888,-2.044458509378361,4.671208559187912,-2.0,0.424166289630556,4.711025088204185,-2.3527250312571475,0.5707535979045436,0.44360085897188833,0.007154852564062342,-0.35906372070312376,-2.044458509378361,4.671208559187912,-2.0,0.0,0.0,-0.0,2.468624799008917,0.03981652901627303,-0.3527250312571477
22/04/2022,11:54:28,27.232627,-0.8641151833580807,3.257463720627129,3.7133560180664062,3.8557510375976562,-0.6170369386672974,3.299057722091675,-0.6643223762512207,0.00046353862853720784,3.299057722091675,2.3163959980010986,47.64149748165574,-122.14017604703213,125.71138763427734,5.975928961077728,-5.01082548840127,-11.998399262391167,-2.0175752245699226,4.682882681981434,-4.0,0.12207396432518447,4.7173931527700645,-2.707486374201168,0.6359926589441192,0.5533669737710222,0.008925273770499675,-0.313356018066405,-2.0175752245699226,4.682882681981434,-4.0,0.0,0.0,-0.0,2.139649188895107,0.034510470788630114,1.292513625798832
22/04/2022,11:54:28,27.391156,-0.9630012391135097,3.7854785658419132,3.548919677734375,3.8557510375976562,-0.5492836236953735,3.3674001693725586,-1.428589105606079,0.00046353862853720784,3.3674001693725586,2.3163959980010986,47.64150224377629,-122.14017728275533,125.5446548461914,5.390211989361694,-4.4068029387450425,-11.056993478261713,-1.9403636394936932,4.715399129080251,0.0,-0.24327933930240953,4.742771456502688,2.8138552161087422,0.6607961075406334,0.6437131578856001,0.010382470288476497,-0.14891967773437376,-1.9403636394936932,4.715399129080251,0.0,0.0,0.0,-0.0,1.6970843001912836,0.027372327422437625,2.8138552161087422
22/04/2022,11:54:28,27.553153,-1.0503817029530182,4.34950864315033,3.322845458984375,3.8557510375976562,-0.4132939279079437,3.513188123703003,-0.92328280210495,0.00046353862853720784,3.513188123703003,2.3163959980010986,47.641507236188126,-122.14017834071407,125.32284545898438,3.4057948168137377,-2.8411885249753084,-9.898033369940574,-1.8445916624903234,4.75368084737198,0.0,-0.33067538994908263,4.7780988517678065,2.0294427565141726,0.7261802616440606,0.721976002672583,0.011644774236653888,0.07715454101562624,-1.8445916624903234,4.75368084737198,0.0,0.0,0.0,0.0,1.5139162725412407,0.024418004395826906,2.0294427565141726
22/04/2022,11:54:28,27.719152,-1.1134558381745592,4.915991546586156,3.25360107421875,3.8557510375976562,-0.3016304075717926,3.629441738128662,0.09569080173969269,0.00046353862853720784,3.629441738128662,2.3163959980010986,47.641512338979176,-122.14017909673642,125.25360107421875,2.4327351769009122,-2.097148171887546,-9.304618663630206,-1.7952595456392433,4.772530058971989,0.0,0.5027596501770124,4.809594884710958,-0.0819134324018932,0.7896891571414905,0.7758992889609009,0.012514504660659398,0.14639892578125124,-1.7952595456392433,4.772530058971989,0.0,0.0,0.0,0.0,2.2980191958162557,0.03706482573897003,-0.0819134324018932
22/04/2022,11:54:29,27.880157,-1.1641002402175218,5.519135253503919,3.3070755004882812,3.8557510375976562,-0.23672950267791748,3.6911869049072266,0.3343408703804016,0.00046353862853720784,3.6911869049072266,2.3163959980010986,47.64151786982304,-122.1401796913677,125.3080825805664,2.163713959851132,-1.9584216012780744,-8.997024360015686,-1.7696123112261426,4.782099148695776,0.0,0.32313581775655553,4.81585315077614,-1.0288733990120429,0.8221793052797547,0.816804925274099,0.01317427298829088,0.09292449951172,-1.7696123112261426,4.782099148695776,0.0,0.0,0.0,0.0,2.092748128982698,0.03375400208036341,-1.0288733990120429
22/04/2022,11:54:29,28.046159,-1.206239364342764,6.118084942921996,3.3251800537109375,3.8557510375976562,-0.20421184599399567,3.7154409885406494,-0.26920247077941895,0.00046353862853720784,3.7154409885406494,2.3163959980010986,47.64152336341462,-122.14018017075415,125.32356262207031,2.0002314544412148,-1.911883040535508,-8.84240597464414,-1.7567009110175065,4.786857205853362,0.0,0.2880184868384734,4.819836550980069,1.1020433912532934,0.8526745537837437,0.8492751235558963,0.01369798586380444,0.07481994628906374,-1.7567009110175065,4.786857205853362,0.0,0.0,0.0,0.0,2.04471939785598,0.03297934512670722,1.1020433912532934
22/04/2022,11:54:29,28.201152,-1.2417440590215847,6.711063765920699,3.2910003662109375,3.8557510375976562,-0.14955703914165497,3.772303342819214,0.2384033203125,0.00046353862853720784,3.772303342819214,2.3163959980010986,47.64152850157226,-122.14018053952152,125.29100036621094,1.5104565184772771,-1.5392036235009725,-8.752505546620954,-1.74918789281604,4.78960767867534,0.0,0.28360765668795174,4.822394703667337,-0.7103209343270331,0.8820832176720634,0.8752088971110242,0.014116272534048235,0.10899963378906374,-1.74918789281604,4.78960767867534,0.0,0.0,0.0,0.0,2.0327955495039918,0.0327870249919964,-0.7103209343270331
22/04/2022,11:54:29,28.376153,-1.2710743580246344,7.35819935798645,3.3527908325195312,3.8557510375976562,-0.11359384655952454,3.805365800857544,0.27290189266204834,0.00046353862853720784,3.805365800857544,2.3163959980010986,47.6415343266076,-122.14018083443402,125.35279083251953,1.2036503839139165,-1.3379797889882405,-8.703959939785959,-1.2911417074893312,1.825637721778758,0.0,0.636486523896278,1.8567284997043272,-0.9625455990813583,0.8954582175134016,0.8940966117169141,0.014420913092208387,0.04720916748046999,-1.2911417074893312,1.825637721778758,0.0,0.0,0.0,0.0,1.9276282313856092,0.031090777925569024,-0.9625455990813583
22/04/2022,11:54:29,28.543158,-1.2945380070013925,7.981459720060229,3.3996124267578125,3.8557510375976562,-0.08438166975975037,3.6802139282226562,0.46338212490081787,0.00046353862853720784,3.805365800857544,2.3163959980010986,47.64154003552836,-122.14018105816086,125.40098571777344,-0.6566719105655818,9.553940625730425,-8.621351996673615,0.0,0.0,0.0,1.6897254355149347,0.027253636056684828,-1.6347365278160968,0.9076223030083637,0.9075041862859867,0.014637164294933669,0.00038757324218874345,0.0,0.0,0.0,0.0,0.0,0.0,1.6897254355149347,0.027253636056684828,-1.6347365278160968
22/04/2022,11:54:29,28.699154,-1.3116725240834057,8.54100886080414,3.4676971435546875,3.8557510375976562,-0.0344473235309124,3.3340344429016113,0.27930206060409546,0.00046353862853720784,3.805365800857544,2.3163959980010986,47.64154497208467,-122.14018120026428,125.46769714355469,1.3990307895616496,18.89384439415562,-8.607127226654308,0.0,0.0,-4.0,1.7151192530520087,0.02766321375890185,-5.224882566583835,0.9182296073936789,0.9156116081161911,0.01476792916316505,-0.06769714355468626,0.0,0.0,-4.0,0.0,0.0,-0.0,1.7151192530520087,0.02766321375890185,-1.2248825665838354
22/04/2022,11:54:29,28.858153,-1.3146611807169393,9.019293568097055,3.483856201171875,3.8557510375976562,0.061630118638277054,2.953491687774658,-0.2641613781452179,0.061630118638277054,3.805365800857544,2.3163959980010986,47.64154935507426,-122.14018116701358,125.48308563232422,3.2692345806399836,26.610945403132593,-8.26695901766457,0.0,0.0,0.0,0.0,0.0,0.0,0.9148569531850741,0.9108872243053049,0.014691729424278321,-0.08385620117187376,0.0,0.0,0.0,0.0,0.0,-0.0,0.0,0.0,0.0
22/04/2022,11:54:30,29.041153,-1.2913908080663532,9.495753915980458,3.425262451171875,3.8557510375976562,0.24817174673080444,2.0261971950531006,0.04972349852323532,0.24817174673080444,3.805365800857544,2.3163959980010986,47.641553614478035,-122.14018077942822,125.42538452148438,-0.8424286982664475,19.272903981841313,-8.426028482332635,-0.14653242279545714,0.9892058678908519,-2.0,-0.14653242279545714,0.9892058678908519,-2.0,0.8804170186168485,0.8799400581056628,0.01419258158234804,-0.025262451171873757,-0.14653242279545714,0.9892058678908519,-2.0,0.0,0.0,-0.0,0.0,0.0,-0.0
22/04/2022,11:54:30,29.200162,-1.2529740779427812,9.774279328994453,3.4321823120117188,3.8557510375976562,0.26928579807281494,1.6441761255264282,-0.2935203015804291,0.26928579807281494,3.805365800857544,2.3163959980010986,47.64155610601043,-122.14018022601941,125.43132019042969,-2.683148149035538,15.789150695336174,-8.38098315602177,-0.14575467456414293,0.9893207643846867,-3.0,-0.14575467456414293,0.9893207643846867,-3.0,0.8377693701587698,0.8370421423184382,0.01350067971481117,-0.03218231201171751,-0.14575467456414293,0.9893207643846867,-3.0,0.0,0.0,-0.0,0.0,0.0,0.0
22/04/2022,11:54:30,29.363157,-1.2128960596164688,10.023595391772687,3.322540283203125,3.8557510375976562,0.25583168864250183,1.427513599395752,-1.0832138061523438,0.26928579807281494,3.805365800857544,2.3163959980010986,47.64155833919349,-122.14017965621886,125.3193130493164,-3.378631723364216,13.854206176307617,-8.310732308061178,-0.14454155061189325,0.9894987317559885,-3.0,0.11715799783315353,0.99371969221478,-0.5052837589795267,0.7968313551004964,0.7929543664176332,0.012789586555122412,0.07745971679687624,-0.14454155061189325,0.9894987317559885,-3.0,0.0,0.0,0.0,0.2616995484450468,0.0042209604587914624,2.4947162410204733
22/04/2022,11:54:30,29.51915,-1.1781375127611682,10.21984584722668,3.1558914184570312,3.8557510375976562,0.2060699313879013,1.0172607898712158,-0.6685775518417358,0.26928579807281494,3.805365800857544,2.3163959980010986,47.64156009034404,-122.14017916650904,125.15385437011719,-2.727941982255322,9.487960479645862,-8.084515042643005,-0.1406336595456377,0.9900617020180115,-3.0,0.33497593791327196,0.9977328245576693,-0.5755612032093493,0.7936140367565978,0.7550403528025686,0.012178070206491753,0.24410858154297,-0.1406336595456377,0.9900617020180115,-3.0,0.0,0.0,0.0,0.4756095974589096,0.007671122539657806,2.4244387967906507
22/04/2022,11:54:30,29.686154,-1.1497357577318326,10.360942717641592,3.090789794921875,3.8557510375976562,0.16021357476711273,0.7263548374176025,-0.28505632281303406,0.26928579807281494,3.805365800857544,2.3163959980010986,47.641561349027086,-122.14017876943379,125.08993530273438,-2.0960794051477625,6.415215942932938,-7.958209085424347,-0.13845077331087832,0.990369316653954,-3.0,-0.13845077331087832,0.990369316653954,-3.0,0.7876931751229646,0.7243708203452239,0.011683400328147187,0.30921020507812624,-0.13845077331087832,0.990369316653954,-3.0,0.0,0.0,0.0,0.0,0.0,0.0
22/04/2022,11:54:30,29.841153,-1.127678937627934,10.46452893782407,3.0204696655273438,3.8557510375976562,0.13926754891872406,0.6157869100570679,-0.8006086945533752,0.26928579807281494,3.805365800857544,2.3163959980010986,47.64156227574855,-122.14017846136174,125.0180892944336,-2.0272846489187124,5.775228702729959,-7.936755781099704,-0.13807993884278633,0.9904210874618797,0.0,0.3595545477937556,0.9984474501495633,2.449963129074686,0.7969194442588955,0.7006494257728701,0.011300797189882417,0.3795303344726575,-0.13807993884278633,0.9904210874618797,0.0,0.0,0.0,0.0,0.497634486636542,0.008026362687683516,2.449963129074686
22/04/2022,11:54:31,30.002156,-1.1086135802324861,10.551967575214803,2.9011993408203125,3.8557510375976562,0.10234346240758896,0.43863818049430847,-0.2847338914871216,0.26928579807281494,3.805365800857544,2.3163959980010986,47.64156304389213,-122.14017820022877,124.90119934082031,-1.2929900844162334,3.5289582519217406,-7.870591650810553,0.0,0.0,0.0,0.8752859370634819,0.01411751511392129,2.0265310587100855,0.8435437457211031,0.6801790930430063,0.010970630532950665,0.49880065917968874,0.0,0.0,0.0,0.0,0.0,0.0,0.8752859370634819,0.01411751511392129,2.0265310587100855
22/04/2022,11:54:31,30.160155,-1.095862551825121,10.608721194788814,2.9320907592773438,3.8557510375976562,0.07287131994962692,0.3061806857585907,0.7288438677787781,0.26928579807281494,3.805365800857544,2.3163959980010986,47.64156356150283,-122.1401780191818,124.93424987792969,-0.8923040922895725,2.360294234294836,-7.846062747040762,0.0,0.0,0.0,0.9871628245357522,0.015921981040898262,-1.9123140597783148,0.8144314097653174,0.6665162380075056,0.010750261903346825,0.4679092407226575,0.0,0.0,0.0,0.0,0.0,0.0,0.9871628245357522,0.015921981040898262,-1.9123140597783148
22/04/2022,11:54:31,30.329154,-1.0853817217284814,10.654694389551878,3.0556106567382812,3.8557510375976562,0.060751792043447495,0.25373226404190063,0.37539196014404297,0.26928579807281494,3.805365800857544,2.3163959980010986,47.641563972626344,-122.1401778733639,125.05675506591797,-0.8173534761602989,2.126359965762516,-7.841036063303622,0.0,0.0,0.0,0.0,0.0,0.0,0.7403577896915094,0.6552968234517726,0.010569303604059499,0.34438934326172,0.0,0.0,0.0,0.0,0.0,0.0,0.0,0.0,-0.0
22/04/2022,11:54:31,30.484153,-1.077010704553686,10.691289181821048,3.0640869140625,3.8557510375976562,0.05270599573850632,0.21956339478492737,-0.16037917137145996,0.26928579807281494,3.805365800857544,2.3163959980010986,47.64156430010644,-122.14017775684518,125.06360626220703,-0.6788859660918848,1.7523801132563865,-7.835364852605094,0.0,0.0,0.0,0.0,0.0,0.0,0.7284908761687583,0.6463378983176761,0.010424804811574262,0.33591308593750124,0.0,0.0,0.0,0.0,0.0,0.0,0.0,0.0,0.0
22/04/2022,11:54:31,30.756155,-1.0655315857147798,10.741314901039004,3.0166778564453125,3.8557510375976562,0.0358368381857872,0.1488226056098938,-0.15775486826896667,0.26928579807281494,3.805365800857544,2.3163959980010986,47.64156474310184,-122.14017759876018,125.01667785644531,-0.4596130524116552,1.1775988431052637,-7.828900262443796,0.0,0.0,0.0,0.0,0.0,0.0,0.7409901021380269,0.6340551083545372,0.010226695296040589,0.38332214355468874,0.0,0.0,0.0,0.0,0.0,0.0,0.0,0.0,0.0
22/04/2022,11:54:32,30.929676,-1.060318472678773,10.763984438963234,2.9918594360351562,3.8557510375976562,0.028018992394208908,0.11626584827899933,-0.13229158520698547,0.26928579807281494,3.805365800857544,2.3163959980010986,47.64156494967323,-122.14017752489292,124.991455078125,-0.36051914318964884,0.9219204648667133,-7.826825185082737,0.0,0.0,0.0,0.0,0.0,0.0,0.7494436798257619,0.6284778085205418,0.01013673884710542,0.408140563964845,0.0,0.0,0.0,0.0,0.0,0.0,0.0,0.0,0.0
22/04/2022,11:54:32,31.089674,-1.056433855323121,10.780870290473104,2.972076416015625,3.8557510375976562,0.022180797532200813,0.09201966226100922,-0.11173855513334274,0.26928579807281494,3.805365800857544,2.3163959980010986,47.64156510055183,-122.14017747092056,124.97174072265625,-0.28639466970246114,0.7316801868645417,-7.825622744539349,0.0,0.0,0.0,0.0,0.0,0.0,0.7569662161363323,0.6243219198576709,0.01006970838479937,0.42792358398437624,0.0,0.0,0.0,0.0,0.0,0.0,0.0,0.0,0.0
22/04/2022,11:54:32,31.244674,-1.0535117614781484,10.793572966940701,2.9562225341796875,3.8557510375976562,0.017780909314751625,0.07377135008573532,-0.0952640175819397,0.26928579807281494,3.805365800857544,2.3163959980010986,47.641565212054665,-122.14017743103526,124.95622253417969,-0.23032484922195254,0.588192909304208,-7.8249060864678786,0.0,0.0,0.0,0.0,0.0,0.0,0.7634939385952553,0.6211957573918541,0.010019286409544748,0.44377746582031374,0.0,0.0,0.0,0.0,0.0,0.0,0.0,0.0,0.0
22/04/2022,11:54:32,31.439674,-1.050690348027274,10.805842285044491,2.9398345947265625,3.8557510375976562,0.013524367474019527,0.05612533539533615,-0.07819949835538864,0.26928579807281494,3.805365800857544,2.3163959980010986,47.64156532215701,-122.14017739166478,124.93983459472656,-0.17582314774557725,0.4489490974852559,-7.824366584777716,-0.4084107076463135,2.9720701024504517,1.0,-0.4084107076463135,2.9720701024504517,1.0,0.7707105224354938,0.6181772369685521,0.0099706005962652,0.46016540527343874,-0.4084107076463135,2.9720701024504517,1.0,0.0,0.0,0.0,0.0,0.0,0.0
22/04/2022,11:54:32,31.597676,-1.0488748659845442,10.816614772193134,2.94366455078125,3.8557510375976562,0.01070543471723795,0.13235671818256378,0.2979884147644043,0.26928579807281494,3.805365800857544,2.3163959980010986,47.641565422391,-122.14017736547738,124.94453430175781,0.7063718256313785,-6.144433935277432,-7.177002461649224,-0.6246750286890164,4.960824639969888,0.0,-0.6246750286890164,4.960824639969888,0.0,0.7668305625956113,0.6161885224885861,0.009938524556265094,0.45633544921875124,-0.6246750286890164,4.960824639969888,0.0,0.0,0.0,0.0,0.0,0.0,-0.0
22/04/2022,11:54:32,31.760676,-1.0478184948442504,10.866343900561333,3.0395355224609375,3.8557510375976562,0.008907200768589973,0.5750389695167542,0.9003520607948303,0.26928579807281494,3.805365800857544,2.3163959980010986,47.64156586618759,-122.1401773445022,125.03953552246094,1.4518864651982881,-16.900359915313903,-5.164904016175441,-0.4501127186672028,4.979698639525691,0.0,0.4642042860926002,4.994445687989553,-2.278357025336433,0.7123446119441234,0.6143305519756816,0.00990855728992912,0.36046447753906374,-0.4501127186672028,4.979698639525691,0.0,0.0,0.0,0.0,0.914317004759803,0.014747048463862478,-2.278357025336433
22/04/2022,11:54:33,31.937673,-1.0479060597717762,10.996531749144197,3.1666412353515625,3.8557510375976562,0.007611319422721863,0.9533746242523193,0.365919291973114,0.26928579807281494,3.805365800857544,2.3163959980010986,47.6415670630744,-122.14017732614352,125.16776275634766,1.4399358772792799,-22.470569987880467,-4.020677038165355,-0.3505823624903688,4.987694057087972,1.0,-0.3505823624903688,4.987694057087972,1.0,0.6553534983486753,0.6123188362329695,0.009876110261819449,0.23335876464843874,-0.3505823624903688,4.987694057087972,1.0,0.0,0.0,0.0,0.0,0.0,-0.0
22/04/2022,11:54:33,32.128672,-1.0496347250882536,11.255191681906581,3.23236083984375,3.8557510375976562,0.003112836042419076,1.7893637418746948,0.6857389211654663,0.26928579807281494,3.805365800857544,2.3163959980010986,47.64156936473016,-122.14017731127392,125.23236083984375,0.5396338519121501,-17.496059360947626,-2.103888557026149,-0.18355765582358147,4.996629522687123,0.0,0.7845665208508477,5.012244428762516,-2.1347639971857264,0.632573024579648,0.6098762025906473,0.009836712945007875,0.16763916015625124,-0.18355765582358147,4.996629522687123,0.0,0.0,0.0,0.0,0.9681241766744291,0.015614906075392811,-2.1347639971857264
22/04/2022,11:54:33,32.319673,-1.0535357322078198,11.640400612726808,3.3459320068359375,3.8557510375976562,0.0014708858216181397,2.213101625442505,0.15071597695350647,0.26928579807281494,3.805365800857544,2.3163959980010986,47.64157289031792,-122.14017730627656,125.3464126586914,-0.2594193410509623,-20.740966654253477,0.6443952861401876,0.056232911627515154,4.9996837759652255,0.0,0.056232911627515154,4.9996837759652255,0.0,0.6100445220606466,0.6075647637497522,0.009799431673382486,0.05406799316406374,0.056232911627515154,4.9996837759652255,0.0,0.0,0.0,0.0,0.0,0.0,-0.0
22/04/2022,11:54:33,32.509676,-1.0585840898565948,12.11379202734679,3.368560791015625,3.8557510375976562,0.0005857915384694934,2.8278889656066895,0.24186870455741882,0.26928579807281494,3.805365800857544,2.3163959980010986,47.64157716635132,-122.14017730362859,125.36929321289062,-0.4708790087902922,-13.516800365909907,1.950956206524039,0.17022014892531617,4.997101670058339,0.0,0.17022014892531617,4.997101670058339,0.0,0.6058733864742272,0.6049784488200909,0.009757716916453774,0.03143920898437624,0.17022014892531617,4.997101670058339,0.0,0.0,0.0,0.0,0.0,0.0,-0.0
22/04/2022,11:54:33,32.674677,-1.0637648769188672,12.585201066918671,3.39727783203125,3.8557510375976562,-2.6831576178665273e-06,3.102057933807373,0.11518432199954987,0.26928579807281494,3.805365800857544,2.3163959980010986,47.64158141543069,-122.14017730302535,125.39762878417969,-0.39616459214889066,-9.07407641602888,2.468421753837072,0.2153438048403157,4.99536055212403,0.0,0.2153438048403157,4.99536055212403,0.0,0.6026410136103691,0.6025564943373649,0.0097186531344704,0.0027221679687512434,0.2153438048403157,4.99536055212403,0.0,0.0,0.0,0.0,0.0,0.0,-0.0
22/04/2022,11:54:33,32.868671,-1.070892654825002,13.221963034942746,3.4106369018554688,3.8557510375976562,-0.0006727098952978849,3.332214117050171,0.030910290777683258,0.26928579807281494,3.805365800857544,2.3163959980010986,47.641587151136136,-122.14017730393185,125.41072845458984,-0.2945654148502143,-6.0736994303475145,2.7826830187691214,0.1941915602445062,3.9952834239800565,0.0,0.1941915602445062,3.9952834239800565,0.0,0.5995870565048887,0.5994147352355935,0.009667979600575194,-0.010636901855467507,0.1941915602445062,3.9952834239800565,0.0,0.0,0.0,-0.0,0.0,0.0,-0.0
22/04/2022,11:54:34,33.031672,-1.0771173686953261,13.769904124550521,3.4071578979492188,3.8557510375976562,-0.0011796698672696948,3.4218227863311768,-0.06185079738497734,0.26928579807281494,3.805365800857544,2.3163959980010986,47.64159208388842,-122.14017730592336,125.40696716308594,-0.05746391078335007,-1.043583022012467,3.1358753135322917,0.21881611372665535,3.9940104542143557,0.0,0.21881611372665535,3.9940104542143557,0.0,0.5969229098146354,0.5968023691918599,0.009625844664382655,-0.0071578979492175066,0.21881611372665535,3.9940104542143557,0.0,0.0,0.0,-0.0,0.0,0.0,0.0
22/04/2022,11:54:34,33.220671,-1.084553569322452,14.41401287727058,3.3980484008789062,3.8557510375976562,-0.0019426087383180857,3.3894336223602295,-0.03355368971824646,0.26928579807281494,3.805365800857544,2.3163959980010986,47.641597787298565,-122.14017730977727,125.3980484008789,0.11724313887312898,1.6414600599904206,3.9268732724735695,0.34241612058186366,4.988261340423702,0.0,0.34241612058186366,4.988261340423702,0.0,0.5939309320757709,0.593850486888096,0.009578233659485846,0.0019515991210949934,0.34241612058186366,4.988261340423702,0.0,0.0,0.0,0.0,0.0,0.0,0.0
22/04/2022,11:54:34,33.385672,-1.0909594140248373,14.958722854964435,3.3921432495117188,3.8557510375976562,-0.002552218735218048,3.363142728805542,-0.031185824424028397,0.26928579807281494,3.805365800857544,2.3163959980010986,47.641602779182904,-122.140177314738,125.39205169677734,-0.09695107683967252,-1.4878536054394067,4.274173460140229,-0.6245726800239508,5.060623377348654,0.0,-0.6245726800239508,5.060623377348654,0.0,0.5916004081691841,0.5914713057226735,0.009539859769718717,0.007856750488282493,-0.6245726800239508,5.060623377348654,0.0,0.0,0.0,0.0,0.0,0.0,0.0
22/04/2022,11:54:34,33.549676,-1.0976302364142612,15.518919474445283,3.395843505859375,3.8557510375976562,-0.0029832585714757442,3.4749069213867188,0.10778405517339706,0.26928579807281494,3.805365800857544,2.3163959980010986,47.64160782276056,-122.14017732085644,125.39616394042969,-0.5119523782830394,-6.822960896062615,4.483586219489123,-0.6060722638318177,5.062872347888477,0.0,-0.6060722638318177,5.062872347888477,0.0,0.5891985967772808,0.5891073137479357,0.009501730866901426,0.0041564941406262434,-0.6060722638318177,5.062872347888477,0.0,0.0,0.0,0.0,0.0,0.0,-0.0
22/04/2022,11:54:34,33.73678,-1.1057482179021463,16.197270940057933,3.425018310546875,3.8557510375976562,-0.003320263931527734,3.728142023086548,0.17310398817062378,0.26928579807281494,3.805365800857544,2.3163959980010986,47.64161393334684,-122.14017732879144,125.425537109375,-0.6550784140807242,-8.486082376708339,4.601152694053417,-0.595682375709899,5.064105301755544,0.0,-0.595682375709899,5.064105301755544,0.0,0.5868946178846367,0.5862848768094301,0.009456207690469398,-0.025018310546873757,-0.595682375709899,5.064105301755544,0.0,0.0,0.0,-0.0,0.0,0.0,-0.0
22/04/2022,11:54:35,33.898776,-1.1130463626468554,16.805348427966237,3.450775146484375,3.8557510375976562,-0.0036737099289894104,3.9373722076416016,0.14463642239570618,0.26928579807281494,3.9373722076416016,2.3163959980010986,47.6416194104163,-122.14017733618854,125.45121002197266,-0.6147487404730331,-7.942239462768442,4.63654062183358,-0.5925544892810962,5.064472250613367,0.0,-0.5925544892810962,5.064472250613367,0.0,0.5860555930341873,0.5837759728168026,0.009415741497040386,-0.05077514648437376,-0.5925544892810962,5.064472250613367,0.0,0.0,0.0,-0.0,0.0,0.0,-0.0
22/04/2022,11:54:35,34.089772,-1.1224038773216307,17.580947476439178,3.4739761352539062,3.8557510375976562,-0.004227491095662117,4.154533863067627,0.09619783610105515,0.26928579807281494,4.154533863067627,2.3163959980010986,47.64162639507315,-122.14017734627602,125.4742660522461,-0.512204552716623,-6.668036387882125,4.6485335073919964,0.0,0.0,0.0,0.0,0.0,0.0,0.5853931574895596,0.5806246452236983,0.009364913632637695,-0.073976135253905,0.0,0.0,0.0,0.0,0.0,-0.0,0.0,0.0,-0.0
22/04/2022,11:54:35,34.281772,-1.1314397419337183,18.344004354439676,3.4842605590820312,3.8557510375976562,0.00025649365852586925,4.0472283363342285,0.2991642355918884,0.26928579807281494,4.154533863067627,2.3163959980010986,47.641633367223555,-122.14017735372182,125.48605346679688,1.1805665496637374,12.39944521206305,4.7822232835665295,0.0,0.0,0.0,0.0,0.0,0.0,0.5835445054779909,0.5773539916821726,0.009312161156163512,-0.08426055908203,0.0,0.0,0.0,0.0,0.0,-0.0,0.0,0.0,-0.0
22/04/2022,11:54:35,34.470789,-1.1387649804819375,19.038688262924552,3.6370697021484375,3.8557510375976562,0.0022663837298750877,3.147223472595215,1.178929090499878,0.26928579807281494,4.154533863067627,2.3163959980010986,47.64163948467536,-122.14017734860904,125.6406021118164,1.7502092407100212,20.781829243053,4.96712764034471,0.0,0.0,0.0,0.4660914199393421,0.0075176035474061025,-2.5874019209654264,0.6206141567173734,0.5734756599925217,0.009249607419231864,-0.23706970214843626,0.0,0.0,0.0,0.0,0.0,-0.0,0.4660914199393421,0.0075176035474061025,-2.5874019209654264
22/04/2022,11:54:35,34.619785,-1.1434897956205532,19.486711599864066,3.7893218994140625,3.8557510375976562,0.0008455959032289684,2.7648732662200928,0.6147830486297607,0.26928579807281494,4.154533863067627,2.3163959980010986,47.64164350551204,-122.14017734541963,125.79118347167969,1.88630212957392,22.974500325821648,5.023661880406564,0.0,0.0,0.0,0.7065294282672416,0.011395635939786585,-2.3823147328579477,0.6911358313783549,0.5709749428280454,0.009209273271416407,-0.38932189941406126,0.0,0.0,0.0,0.0,0.0,-0.0,0.7065294282672416,0.011395635939786585,-2.3823147328579477
22/04/2022,11:54:35,34.777786,-1.1480895404238254,19.901356319896877,3.8238754272460938,3.8557510375976562,-0.0009534605778753757,2.4489693641662598,-0.20674480497837067,0.26928579807281494,4.154533863067627,2.3163959980010986,47.64164716182478,-122.14017734547248,125.8238754272461,1.7477841447912092,21.79208940624356,4.972681998162885,0.0,0.0,0.0,0.0,0.0,0.0,0.7094980322511153,0.5688874126282388,0.009175603429486756,-0.4238754272460925,0.0,0.0,0.0,0.0,0.0,-0.0,0.0,0.0,-0.0
22/04/2022,11:54:36,34.93679,-1.1521450654836372,20.233842913992703,3.794830322265625,3.8557510375976562,-0.004252831917256117,1.7993438243865967,0.14964748919010162,0.26928579807281494,4.154533863067627,2.3163959980010986,47.641650202194846,-122.14017735054392,125.7952651977539,1.3124188515448718,16.56814767162122,4.818476781771338,0.0,0.0,0.0,0.0,0.0,0.0,0.6914640378238331,0.5675805906505991,0.009154525655656442,-0.39483032226562376,0.0,0.0,0.0,0.0,0.0,-0.0,0.0,0.0,-0.0
22/04/2022,11:54:36,35.12079,-1.1562910438515246,20.521222349256277,3.8311767578125,3.8557510375976562,-0.0057228198274970055,1.334389328956604,0.14112868905067444,0.26928579807281494,4.154533863067627,2.3163959980010986,47.641652775449025,-122.14017736336875,125.83160400390625,0.5827690958534452,11.852718122305157,2.9210397623966022,0.0,0.0,0.0,0.0,0.0,0.0,0.7124534207970591,0.5670915440601747,0.009146637807418756,-0.43117675781249876,0.0,0.0,0.0,0.0,0.0,-0.0,0.0,0.0,-0.0
22/04/2022,11:54:36,35.275785,-1.1592316314345226,20.70510122552514,3.8447494506835938,3.8557510375976562,-0.005957960616797209,1.0725045204162598,0.041287701576948166,0.26928579807281494,4.154533863067627,2.3163959980010986,47.641654422991415,-122.14017737537766,125.84487915039062,-0.2630824817284201,9.245916068434802,-1.636887257001971,0.0,0.0,0.0,0.0,0.0,0.0,0.7207287787985447,0.5670663498704152,0.009146231449520315,-0.4447494506835925,0.0,0.0,0.0,0.0,0.0,-0.0,0.0,0.0,-0.0
22/04/2022,11:54:36,35.439784,-1.1619553876807913,20.86313370987773,3.8464508056640625,3.8557510375976562,-0.005726824048906565,0.846714973449707,-0.016104554757475853,0.26928579807281494,4.154533863067627,2.3163959980010986,47.641655816066624,-122.14017738806807,125.84645080566406,-1.0013080881095224,7.1086469906129235,-8.124615555692836,0.0,0.0,0.0,0.0,0.0,0.0,0.7219172728327137,0.5672411496053427,0.009149050800083103,-0.44645080566406126,0.0,0.0,0.0,0.0,0.0,-0.0,0.0,0.0,-0.0
22/04/2022,11:54:36,35.627789,-1.164439051761292,20.997781712561846,3.840667724609375,3.8557510375976562,-0.005219539161771536,0.6536951065063477,-0.04487890750169754,0.26928579807281494,4.154533863067627,2.3163959980010986,47.64165704535945,-122.1401774014618,125.84053802490234,-1.511657361106865,5.284381739625478,-16.14957608555668,0.0,0.0,0.0,0.0,0.0,0.0,0.7186015849006794,0.5675529905829835,0.009154080493274819,-0.44066772460937376,0.0,0.0,0.0,0.0,0.0,-0.0,0.0,0.0,-0.0
22/04/2022,11:54:36,35.821787,-1.1666059483541176,21.107713895849884,3.8308258056640625,3.8557510375976562,-0.004621364176273346,0.4957084059715271,-0.05568985268473625,0.26928579807281494,4.154533863067627,2.3163959980010986,47.64165803033357,-122.14017741405425,125.83065795898438,-1.7559162052044401,3.765975329738019,-25.241731839941455,0.0,0.0,0.0,0.0,0.0,0.0,0.7129223136814659,0.5679466850274475,0.009160430403664321,-0.43082580566406126,0.0,0.0,0.0,0.0,0.0,-0.0,0.0,0.0,-0.0
22/04/2022,11:54:37,36.001785,-1.1682667302666232,21.18649006821215,3.820648193359375,3.8557510375976562,-0.004102896433323622,0.3822448253631592,-0.056413114070892334,0.26928579807281494,4.154533863067627,2.3163959980010986,47.641658736179366,-122.14017742451247,125.82047271728516,-1.7781289314119826,2.664489101549889,-34.00662975322272,0.0,0.0,0.0,0.0,0.0,0.0,0.7071319743763195,0.5683367820327039,0.009166722290846252,-0.42064819335937376,0.0,0.0,0.0,0.0,0.0,-0.0,0.0,0.0,-0.0
22/04/2022,11:54:37,36.154787,-1.1694703287212178,21.240011868067086,3.8120346069335938,3.8557510375976562,-0.003698587417602539,0.3050258457660675,-0.05346633866429329,0.26928579807281494,4.154533863067627,2.3163959980010986,47.64165920749015,-122.1401774324691,125.8120346069336,-1.6905642275266934,1.9199583342389792,-41.69784706932852,0.0,0.0,0.0,0.0,0.0,0.0,0.702317748114736,0.568677037135033,0.009172210276371828,-0.4120346069335925,0.0,0.0,0.0,0.0,0.0,-0.0,0.0,0.0,-0.0
22/04/2022,11:54:37,36.340787,-1.1706545936176553,21.289170959964395,3.802703857421875,3.8557510375976562,-0.003266570158302784,0.23398298025131226,-0.048145368695259094,0.26928579807281494,4.154533863067627,2.3163959980010986,47.64165965619811,-122.14017744110734,125.80255889892578,-1.513815891732627,1.2531369332137121,-50.77905670335024,0.0,0.0,0.0,0.0,0.0,0.0,0.6972039768771388,0.5690683116641027,0.009178521155870811,-0.40270385742187376,0.0,0.0,0.0,0.0,0.0,-0.0,0.0,0.0,-0.0
22/04/2022,11:54:37,36.527784,-1.171679056598805,21.328488115221262,3.7940444946289062,3.8557510375976562,-0.0028376143891364336,0.1770823448896408,-0.04190894216299057,0.26928579807281494,4.154533863067627,2.3163959980010986,47.64166000848917,-122.14017744892377,125.79391479492188,-1.263443009075696,0.78980751873277,-58.52069085209688,0.0,0.0,-5.0,0.0,0.0,-5.0,0.6925593381076286,0.5694585254673831,0.009184814926889828,-0.394044494628905,0.0,0.0,-5.0,0.0,0.0,-0.0,0.0,0.0,-0.0
22/04/2022,11:54:37,36.702785,-1.1724612658144906,21.356594405137002,3.7460708618164062,3.8557510375976562,-0.0025600548833608627,0.148727148771286,-0.6824964880943298,0.26928579807281494,4.154533863067627,2.3163959980010986,47.64166026065046,-122.14017745517643,125.7440414428711,-1.4721962589608908,0.8107326475670094,-61.94922684990114,0.0,0.0,-5.0,1.0798740842138852,0.017417323938923143,-3.070007247157473,0.666713650570555,0.5697873218913935,0.009190118095020239,-0.346070861816405,0.0,0.0,-5.0,0.0,0.0,-0.0,1.0798740842138852,0.017417323938923143,1.929992752842527
22/04/2022,11:54:37,36.858785,-1.1723524123663083,21.37806411832571,3.5841598510742188,3.8557510375976562,0.01818445324897766,0.12664549052715302,-1.4164490699768066,0.26928579807281494,4.154533863067627,2.3163959980010986,47.641660449797506,-122.14017745045501,125.58415985107422,0.40653368411647606,4.029005790180139,-63.554810846467205,0.0,0.0,-4.0,0.5232543326217771,0.008439586010025344,-1.3794786942634754,0.5984466920916452,0.5693323011183082,0.009182779050291856,-0.1841598510742175,0.0,0.0,-4.0,0.0,0.0,-0.0,0.5232543326217771,0.008439586010025344,2.6205213057365246
22/04/2022,11:54:38,37.025784,-1.1633831672370434,21.39606993366033,3.3378067016601562,3.8557510375976562,0.09650852531194687,0.09647708386182785,-1.5329941511154175,0.26928579807281494,4.154533863067627,2.3163959980010986,47.641660613501735,-122.14017732455349,125.33320617675781,-0.15259265870697605,1.8548071188770405,-64.17121019745329,0.0,0.0,-2.0,0.37668100799891807,0.006075500129011176,1.2371890690694025,0.5635899831728318,0.5600750478471404,0.009033468513663934,0.06219329833984499,0.0,0.0,-2.0,0.0,0.0,0.0,0.37668100799891807,0.006075500129011176,3.2371890690694025
22/04/2022,11:54:38,37.194785,-1.1448777302866802,21.40969116706401,3.1323776245117188,3.8557510375976562,0.12151837348937988,0.06549689918756485,-0.7417200207710266,0.26928579807281494,4.154533863067627,2.3163959980010986,47.641660733368255,-122.14017707517581,125.130126953125,-0.5226572655972533,0.2045547193550995,-63.72413563922604,0.0,0.0,0.0,0.41611772469674624,0.006711576204785466,2.4594140119234775,0.6039561053265832,0.5413547835797217,0.008731528767416563,0.2676223754882825,0.0,0.0,0.0,0.0,0.0,0.0,0.41611772469674624,0.006711576204785466,2.4594140119234775
22/04/2022,11:54:38,37.383784,-1.123235076200217,21.41997328028083,3.1021728515625,3.8557510375976562,0.10388126969337463,0.042305342853069305,0.46279022097587585,0.26928579807281494,4.154533863067627,2.3163959980010986,47.64166082310207,-122.14017678624384,125.1035385131836,-0.5204148304413997,-0.28841230706987947,-62.857195118881016,0.0,0.0,-5.0,0.0,0.0,-5.0,0.5989202556390296,0.5195519608676783,0.008379870336572282,0.29782714843750124,0.0,0.0,-5.0,0.0,0.0,0.0,0.0,0.0,-0.0
22/04/2022,11:54:38,37.572792,-1.1052364798961207,21.427211764268577,3.1868362426757812,3.8557510375976562,0.08889850229024887,0.03386096656322479,0.04017101973295212,0.26928579807281494,4.154533863067627,2.3163959980010986,47.641660885269566,-122.14017654973871,125.18683624267578,-0.7507097770462371,-0.5607696762594847,-62.07456136989827,0.0,0.0,-4.0,0.0,0.0,-4.0,0.5449289889506012,0.5014413262252371,0.008087763326212638,0.21316375732422,0.0,0.0,-4.0,0.0,0.0,0.0,0.0,0.0,0.0
22/04/2022,11:54:38,37.729786,-1.0923069681739435,21.432223436422646,3.136444091796875,3.8557510375976562,0.07670100778341293,0.02840602956712246,-0.7135074138641357,0.26928579807281494,4.154533863067627,2.3163959980010986,47.64166092983683,-122.1401763738055,125.13432312011719,-0.7753688864659541,-0.603563253609458,-60.98390270450803,0.0,0.0,0.0,0.48271139335157537,0.007785667634697195,2.4421448771012297,0.555060274133531,0.48843436478606883,0.007877973625582513,0.26355590820312624,0.0,0.0,0.0,0.0,0.0,0.0,0.48271139335157537,0.007785667634697195,2.4421448771012297
22/04/2022,11:54:39,37.889785,-1.081753576756455,21.436177755706012,3.0323333740234375,3.8557510375976562,0.05095691606402397,0.017905350774526596,-0.19837434589862823,0.26928579807281494,4.154533863067627,2.3163959980010986,47.64166096359125,-122.14017623580601,125.03233337402344,-0.4277982799772475,-0.3361483870914885,-59.85617809146052,0.0,0.0,-3.0,0.0,0.0,-3.0,0.6029511190092695,0.47781995531808596,0.007706773472868633,0.36766662597656374,0.0,0.0,-3.0,0.0,0.0,0.0,0.0,0.0,0.0
22/04/2022,11:54:39,38.052786,-1.0749354417202994,21.43860786780715,3.0105056762695312,3.8557510375976562,0.04101352393627167,0.014025873504579067,-0.445498526096344,0.26928579807281494,4.154533863067627,2.3163959980010986,47.64166098515186,-122.1401761430406,125.00918579101562,-0.35722669721802475,-0.2866098790682576,-59.26274214069667,0.0,0.0,-5.0,0.6837422455457144,0.011028100734602512,-2.746430612838487,0.6112045520303775,0.47096440836639475,0.007596200134941,0.38949432373047,0.0,0.0,-5.0,0.0,0.0,0.0,0.6837422455457144,0.011028100734602512,2.253569387161513
22/04/2022,11:54:39,38.234787,-1.0679200909798965,21.441074918955564,2.8477096557617188,3.8557510375976562,0.03461936116218567,0.011698991991579533,-1.326979398727417,0.26928579807281494,4.154533863067627,2.3163959980010986,47.64166100658219,-122.14017604954164,124.84375,-0.2761184591512325,-0.22640695843636266,-58.8965606555648,0.0,0.0,-5.0,0.41884233242138524,0.0067555214906650455,-1.5942980939643077,0.7213141626049645,0.4639111013657937,0.00748243711880292,0.5522903442382825,0.0,0.0,-5.0,0.0,0.0,0.0,0.41884233242138524,0.0067555214906650455,3.4057019060356923
22/04/2022,11:54:39,38.419785,-1.0621660143369809,21.443074751645327,2.566680908203125,3.8557510375976562,0.026715707033872604,0.00894241314381361,-1.5187395811080933,0.26928579807281494,4.154533863067627,2.3163959980010986,47.641661023921856,-122.1401759729636,124.56212615966797,-0.18780590752947357,-0.1560445603288261,-58.72424928416231,0.0,0.0,-5.0,0.6116051017219671,0.00986459841486051,0.853809934831153,0.9509758100019658,0.45812627425470587,0.007389133455721009,0.8333190917968762,0.0,0.0,-5.0,0.0,0.0,0.0,0.6116051017219671,0.00986459841486051,5.853809934831153
22/04/2022,11:54:39,38.577784,-1.058583243866451,21.444310557097197,2.3755722045898438,3.8557510375976562,0.018812011927366257,0.006246256176382303,-0.7120521068572998,0.26928579807281494,4.154533863067627,2.3163959980010986,47.64166103461749,-122.14017592540205,124.37340545654297,-0.13170840964961578,-0.11020160033379166,-58.65246039614553,0.0,0.0,-5.0,0.604141524506335,0.009744218137196108,-2.0847515361224955,1.1207580385254368,0.45452450842200576,0.007331040458417704,1.0244277954101575,0.0,0.0,-5.0,0.17520968052732264,0.0028259625891496926,0.3948954642297857,0.4289318439790123,0.006918255548046415,2.520352999647719
22/04/2022,11:54:39,38.741784,-1.0559694648254663,21.445204018615186,2.2667236328125,3.8557510375976562,0.015580943785607815,0.0051536355167627335,-1.0156326293945312,0.26928579807281494,4.154533863067627,2.3163959980010986,47.64166104235586,-122.1401758906067,124.2636947631836,-0.11141925770594512,-0.09373426229810296,-58.61419280768726,0.0,0.0,0.0,0.6086522791132387,0.009816972243762122,3.738809637649961,1.2200735017400954,0.451897002245761,0.007288661326541046,1.1332763671875012,0.0,0.0,0.0,0.16762080323865172,0.0027035613425576057,0.4203628127987478,0.44103147587458696,0.007113410901204517,3.3184468248512133
22/04/2022,11:54:40,38.925785,-1.0534543737303466,21.446065976284444,2.1009597778320312,3.8557510375976562,0.011032569222152233,0.003641907125711441,-0.3288815915584564,0.26928579807281494,4.154533863067627,2.3163959980010986,47.64166104972945,-122.14017585762163,124.10095977783203,-0.06204159840235049,-0.05212552700768834,-58.59125269375932,0.0,0.0,0.0,0.6886746310869254,0.011107655340104656,2.8918612863559168,1.3745872940234398,0.44936866634325545,0.007247881715208848,1.29904022216797,0.0,0.0,0.0,0.15545878518075631,0.0025073997609782283,0.44940208333287013,0.5332158459061691,0.008600255579126427,2.4424592030230468
22/04/2022,11:54:40,39.109784,-1.0517090976936743,21.44665875378996,2.1546478271484375,3.8557510375976562,0.007557084318250418,0.0024846158921718597,0.9337564706802368,0.26928579807281494,4.154533863067627,2.3163959980010986,47.64166105495351,-122.14017583399733,124.15741729736328,-0.04401221748941835,-0.037231834180667195,-58.58030450280132,0.0,0.0,-2.0,0.158641021527537,0.0025587261536693423,-1.5586290537593908,1.3233717186285832,0.44761428577360374,0.007219585254411243,1.2453521728515637,0.0,0.0,-2.0,0.158641021527537,0.0025587261536693423,0.4413709462406092,0.0,0.0,-0.0
22/04/2022,11:54:40,39.298789,-1.050471919355914,21.44707213062793,2.3203964233398438,3.8557510375976562,0.00628750491887331,0.0020638273563236,0.5009552240371704,0.26928579807281494,4.154533863067627,2.3163959980010986,47.64166105853609,-122.1401758175175,124.32191467285156,-0.04299792468400424,-0.03648662528464145,-58.575319903416755,0.0,0.0,-5.0,0.16905591476052842,0.002726708302589225,-4.591117104593522,1.1682647707229359,0.44637076356442185,0.0071995284445875996,1.0796035766601575,0.0,0.0,-5.0,0.16905591476052842,0.002726708302589225,0.40888289540647793,0.0,0.0,0.0
22/04/2022,11:54:40,39.466789,-1.0494980185758322,21.447397152893245,2.3392562866210938,3.8557510375976562,0.005496629513800144,0.0018026565667241812,-0.300424188375473,0.26928579807281494,4.154533863067627,2.3163959980010986,47.641661061363074,-122.14017580453616,124.33837890625,-0.0472236428248311,-0.040185236977244035,-58.57309935504567,0.0,0.0,0.0,0.7992353605721778,0.01289089291244969,2.8122690236128713,1.150479358370167,0.44539187514333367,0.007183739921664767,1.0607437133789075,0.0,0.0,0.0,0.16983317271503895,0.002739244721209579,0.40447408301441745,0.6294021878571389,0.01015164819124011,2.407794940598454
22/04/2022,11:54:40,39.632784,-1.0487121366895735,21.44766651466489,2.3033599853515625,3.8557510375976562,0.0036370106972754,0.0011966711608693004,0.2829272449016571,0.26928579807281494,4.154533863067627,2.3163959980010986,47.641661063695004,-122.14017579410954,124.3041763305664,-0.028727564191013157,-0.02428546607379883,-58.57196378397941,0.0,0.0,0.0,0.16739376892681213,0.002699899498819166,0.4128878533911721,1.1833602806088859,0.44460185423289933,0.00717099764891671,1.0966400146484387,0.0,0.0,0.0,0.16739376892681213,0.002699899498819166,0.4128878533911721,0.0,0.0,0.0
22/04/2022,11:54:40,39.794785,-1.0482081746449694,21.447874827310443,2.35723876953125,3.8557510375976562,0.002930876798927784,0.0009634781745262444,0.0192026998847723,0.26928579807281494,4.154533863067627,2.3163959980010986,47.64166106550582,-122.14017578739892,124.35731506347656,-0.0206240966718293,-0.01750440652890321,-58.57137233192205,0.0,0.0,-5.0,1.0223305868440062,0.016489203013607526,-2.6472771182555506,1.1334118230078354,0.44409466425019894,0.007162817165326629,1.0427612304687512,0.0,0.0,-5.0,0.17041137568408318,0.002748570575550051,0.40013625494516986,0.851919211159923,0.013740632438057475,1.9525866267992797
22/04/2022,11:54:41,39.979787,-1.0465411090990528,21.448087352328002,2.2877655029296875,3.8557510375976562,0.02938430942595005,0.001052278676070273,-0.8265219330787659,0.26928579807281494,4.154533863067627,2.3163959980010986,47.64166106725152,-122.14017576413838,124.28530883789062,2.134228455089189,3.5122259642717286,-58.511556119955415,0.0,0.0,-5.0,0.543313841083346,0.008763126469083575,-1.8614200853610612,1.1970196442320185,0.44242460534003203,0.007135880731290456,1.1122344970703137,0.0,0.0,-5.0,0.16566649646469378,0.002672040265559434,0.41647772332913957,0.3776473446186523,0.006091086203524142,2.7221021913097996
22/04/2022,11:54:41,40.131784,-1.0375097170472145,21.448333762586117,2.1054458618164062,3.8557510375976562,0.08565240353345871,0.0006016148254275322,-1.4494590759277344,0.26928579807281494,4.154533863067627,2.3163959980010986,47.641661068554285,-122.14017564162054,124.1010971069336,1.0196481945630258,1.7157669500483683,-58.57323325440129,0.0,0.0,-5.0,0.6394440330083242,0.010313613435605891,3.2706513431674056,1.3651913963505249,0.43339158882942874,0.006990186916599583,1.294554138183595,0.0,0.0,-5.0,0.1506081320215545,0.002429163419701065,0.44987116865652804,0.48883590098676966,0.007884450015904826,7.820780174510878
22/04/2022,11:54:41,40.291784,-1.0210818647174165,21.448614414781332,1.9159393310546875,3.8557510375976562,0.1178160011768341,0.00033605334465391934,-0.7201176285743713,0.26928579807281494,4.154533863067627,2.3163959980010986,47.641661069453214,-122.14017542158557,123.91374969482422,0.03815168834568224,0.06117660790488012,-58.60183669094267,0.0,0.0,-5.0,0.31229426187305614,0.005037004223756827,-1.6314166543113187,1.5415381423358652,0.41696348355196533,0.006725217476642342,1.4840606689453137,0.0,0.0,-5.0,0.132636200986662,0.0021392935643002814,0.47208011475206063,0.17965806088639413,0.0028977106594565458,2.896503230936621
22/04/2022,11:54:41,40.452789,-1.0021852715872228,21.44892679154873,1.8112258911132812,3.8557510375976562,0.11297336965799332,0.0003650316793937236,-0.8445687294006348,0.26928579807281494,4.154533863067627,2.3163959980010986,47.64166107037818,-122.14017517017038,123.80870056152344,-0.25300585224324645,-0.41600318091248206,-58.60909723795467,0.0,0.0,-5.0,0.30680442148947307,0.004948458411117249,-0.969933078196922,1.637895461495383,0.39806676798576424,0.006420431741702259,1.58877410888672,0.0,0.0,-5.0,0.12036384856964966,0.0019413523962835786,0.48039922352990816,0.18644057291982344,0.0030071060148336706,3.5496676982731703
22/04/2022,11:54:41,40.604788,-0.9865521945757791,21.449195734225214,1.7176895141601562,3.8557510375976562,0.09161030501127243,0.00037619011709466577,-0.14951525628566742,0.26928579807281494,4.154533863067627,2.3163959980010986,47.64166107122499,-122.14017496287083,123.71720886230469,-0.30751045400691795,-0.5033914619002261,-58.61269291573177,0.0,0.0,-5.0,0.3605187958819131,0.005814819288417775,-2.0270143798801845,1.725242574044188,0.38243342013714743,0.0061682809699519225,1.682310485839845,0.0,0.0,-5.0,0.11037489670008888,0.0017802402693556753,0.4855350926847851,0.2501438991818242,0.004034579019062099,2.4874505274350307
