date,fly_time,fly_time_s,x,y,z,z_max,vx,vy,vz,vx_max,vy_max,vz_max,latitude,longitude,altitude,pitch,roll,yaw,cx,cy,cz,scx,scy,scz,d,dx,dy,dz,gc_pow_x,gc_pow_y,gc_pow_z,gpc_pow_x,gpc_pow_y,gpc_pow_z,gfc_pow_x,gfc_pow_y,gfc_pow_z
14/04/2022,15:56:13,44.761344,0.0,0.0,2.5577926635742188,2.5577926635742188,0.0,0.0,-0.0030286998953670263,0,0,0,47.641468,-122.140165,124.55778503417969,0.0,0.0,0.0,0.0,0.0,0.0,0.0,0.0,0.0,0.880847984343274,-0.25799739921976594,-0.004161248374512427,0.8422073364257825,0.0,0.0,0.0,-0.0,-0.0,0.0,-0.0,-0.0,0.0
14/04/2022,15:56:14,44.939343,0.0,0.0,2.5572509765625,2.5577926635742188,0.0,0.0,-0.0030276577454060316,0,0,0,47.641468,-122.140165,124.5572509765625,0.0,0.0,0.0,0.0,0.0,0.0,0.0,0.0,0.0,0.8813659231539756,-0.25799739921976594,-0.004161248374512427,0.8427490234375012,0.0,0.0,0.0,-0.0,-0.0,0.0,-0.0,-0.0,0.0
14/04/2022,15:56:14,45.094363,0.0,0.0,2.5568008422851562,2.5577926635742188,0.0,0.0,-0.0030269476119428873,0,0,0,47.641468,-122.140165,124.55679321289062,0.0,0.0,0.0,0.0,0.0,0.0,0.0,0.0,0.0,0.8817963447209461,-0.25799739921976594,-0.004161248374512427,0.843199157714845,0.0,0.0,0.0,-0.0,-0.0,0.0,-0.0,-0.0,0.0
14/04/2022,15:56:14,45.275345,0.0,0.0,2.556243896484375,2.5577926635742188,0.0,0.0,-0.0030260812491178513,0,0,0,47.641468,-122.140165,124.55623626708984,0.0,0.0,0.0,0.0,0.0,0.0,0.0,0.0,0.0,0.8823289274483014,-0.25799739921976594,-0.004161248374512427,0.8437561035156262,0.0,0.0,0.0,-0.0,-0.0,0.0,-0.0,-0.0,0.0
14/04/2022,15:56:14,45.465344,0.0,0.0,2.5556869506835938,2.5577926635742188,0.0,0.0,-0.0030254186131060123,0,0,0,47.641468,-122.140165,124.55567932128906,0.0,0.0,0.0,0.0,0.0,0.0,0.0,0.0,0.0,0.8828615402418252,-0.25799739921976594,-0.004161248374512427,0.8443130493164075,0.0,0.0,0.0,-0.0,-0.0,0.0,-0.0,-0.0,0.0
14/04/2022,15:56:14,45.614344,0.0,0.0,2.5552139282226562,2.5577926635742188,0.0,0.0,-0.003025103360414505,0,0,0,47.641468,-122.140165,124.55521392822266,0.0,0.0,0.0,0.0,0.0,0.0,0.0,0.0,0.0,0.8833139198842024,-0.25799739921976594,-0.004161248374512427,0.844786071777345,0.0,0.0,0.0,-0.0,-0.0,0.0,-0.0,-0.0,0.0
14/04/2022,15:56:14,45.765344,0.0,0.0,2.5547637939453125,2.5577926635742188,0.0,0.0,-0.0030247578397393227,0,0,0,47.641468,-122.140165,124.55474853515625,0.0,0.0,0.0,0.0,0.0,0.0,0.0,0.0,0.0,0.8837444302613295,-0.25799739921976594,-0.004161248374512427,0.8452362060546887,0.0,0.0,0.0,-0.0,-0.0,0.0,-0.0,-0.0,0.0
14/04/2022,15:56:15,45.960344,0.0,0.0,2.55419921875,2.5577926635742188,0.0,0.0,-0.0030242237262427807,0,0,0,47.641468,-122.140165,124.55419158935547,0.0,0.0,0.0,0.0,0.0,0.0,0.0,0.0,0.0,0.8842844200568672,-0.25799739921976594,-0.004161248374512427,0.8458007812500012,0.0,0.0,0.0,-0.0,-0.0,0.0,-0.0,-0.0,0.0
14/04/2022,15:56:15,46.145414,0.0,0.0,2.553619384765625,2.5577926635742188,0.0,0.0,-0.003023917321115732,0,0,0,47.641468,-122.140165,124.5536117553711,0.0,0.0,0.0,0.0,0.0,0.0,0.0,0.0,0.0,0.8848390361171454,-0.25799739921976594,-0.004161248374512427,0.8463806152343762,0.0,0.0,0.0,-0.0,-0.0,0.0,-0.0,-0.0,0.0
14/04/2022,15:56:15,46.33842,0.0,0.0,2.5530471801757812,2.5577926635742188,0.0,0.0,-0.0030234912410378456,0,0,0,47.641468,-122.140165,124.55303955078125,0.0,0.0,0.0,0.0,0.0,0.0,0.0,0.0,0.0,0.8853863862746001,-0.25799739921976594,-0.004161248374512427,0.84695281982422,0.0,0.0,0.0,-0.0,-0.0,0.0,-0.0,-0.0,0.0
14/04/2022,15:56:15,46.522416,0.0,0.0,2.552490234375,2.5577926635742188,0.0,0.0,-0.0030234563164412975,0,0,0,47.641468,-122.140165,124.55247497558594,0.0,0.0,0.0,0.0,0.0,0.0,0.0,0.0,0.0,0.885919170591732,-0.25799739921976594,-0.004161248374512427,0.8475097656250012,0.0,0.0,0.0,-0.0,-0.0,0.0,-0.0,-0.0,0.0
14/04/2022,15:56:15,46.674418,0.0,0.0,2.5520248413085938,2.5577926635742188,0.0,0.0,-0.0030234563164412975,0,0,0,47.641468,-122.140165,124.55201721191406,0.0,0.0,0.0,0.0,0.0,0.0,0.0,0.0,0.0,0.8863643967070853,-0.25799739921976594,-0.004161248374512427,0.8479751586914075,0.0,0.0,0.0,-0.0,-0.0,0.0,-0.0,-0.0,0.0
14/04/2022,15:56:15,46.827414,0.0,0.0,2.55157470703125,2.5577926635742188,0.0,0.0,-0.0030234563164412975,0,0,0,47.641468,-122.140165,124.55155944824219,0.0,0.0,0.0,0.0,0.0,0.0,0.0,0.0,0.0,0.8867950449462993,-0.25799739921976594,-0.004161248374512427,0.8484252929687512,0.0,0.0,0.0,-0.0,-0.0,0.0,-0.0,-0.0,0.0
14/04/2022,15:56:16,47.012414,0.0,0.0,2.5510101318359375,2.5577926635742188,0.0,0.0,-0.0030234563164412975,0,0,0,47.641468,-122.140165,124.5510025024414,0.0,0.0,0.0,0.0,0.0,0.0,0.0,0.0,0.0,0.8873352073694766,-0.25799739921976594,-0.004161248374512427,0.8489898681640637,0.0,0.0,0.0,-0.0,-0.0,0.0,-0.0,-0.0,0.0
14/04/2022,15:56:16,47.197418,0.0,0.0,2.550445556640625,2.5577926635742188,0.0,0.0,-0.0030234563164412975,0,0,0,47.641468,-122.140165,124.55044555664062,0.0,0.0,0.0,0.0,0.0,0.0,0.0,0.0,0.0,0.887875400168209,-0.25799739921976594,-0.004161248374512427,0.8495544433593762,0.0,0.0,0.0,-0.0,-0.0,0.0,-0.0,-0.0,0.0
14/04/2022,15:56:16,47.361454,0.0,0.0,2.54998779296875,2.5577926635742188,0.0,0.0,-0.0030234563164412975,0,0,0,47.641468,-122.140165,124.54998779296875,0.0,0.0,0.0,0.0,0.0,0.0,0.0,0.0,0.0,0.8883134165903025,-0.25799739921976594,-0.004161248374512427,0.8500122070312512,0.0,0.0,0.0,-0.0,-0.0,0.0,-0.0,-0.0,0.0
14/04/2022,15:56:16,47.542969,0.0,0.0,2.5494232177734375,2.5577926635742188,0.0,0.0,-0.0030234563164412975,0,0,0,47.641468,-122.140165,124.5494155883789,0.0,0.0,0.0,0.0,0.0,0.0,0.0,0.0,0.0,0.8888536642524982,-0.25799739921976594,-0.004161248374512427,0.8505767822265637,0.0,0.0,0.0,-0.0,-0.0,0.0,-0.0,-0.0,0.0
14/04/2022,15:56:16,47.729963,0.0,0.0,2.5488662719726562,2.5577926635742188,0.0,0.0,-0.0030231515411287546,0,0,0,47.641468,-122.140165,124.5488510131836,0.0,0.0,0.0,0.0,0.0,0.0,0.0,0.0,0.0,0.8893866408811885,-0.25799739921976594,-0.004161248374512427,0.851133728027345,0.0,0.0,0.0,-0.0,-0.0,0.0,-0.0,-0.0,0.0
14/04/2022,15:56:17,47.919966,0.0,0.0,2.5483016967773438,2.5577926635742188,0.0,0.0,-0.0030231515411287546,0,0,0,47.641468,-122.140165,124.54829406738281,0.0,0.0,0.0,0.0,0.0,0.0,0.0,0.0,0.0,0.8899269485213669,-0.25799739921976594,-0.004161248374512427,0.8516983032226575,0.0,0.0,0.0,-0.0,-0.0,0.0,-0.0,-0.0,0.0
14/04/2022,15:56:17,48.100964,0.0,0.0,2.5477371215820312,2.5577926635742188,0.0,0.0,-0.0030231515411287546,0,0,0,47.641468,-122.140165,124.5477294921875,0.0,0.0,0.0,0.0,1.0,0.0,0.0,1.0,0.0,0.8904672862724835,-0.25799739921976594,-0.004161248374512427,0.85226287841797,0.0,1.0,0.0,-0.0,-0.0,0.0,-0.0,-0.0,0.0
14/04/2022,15:56:17,48.295967,-3.6812503822147846e-05,0.003319401293992996,2.5501937866210938,2.5577926635742188,2.289144394873599e-11,0.06529029458761215,0.04790974780917168,2.289144394873599e-11,0.06529029458761215,0.04790974780917168,47.641468031597604,-122.140165,124.55033111572266,-1.4121834591905927e-09,-4.1485634028735685,5.823180311382703e-08,3.049010081128104e-09,3.0,0.0,3.049010081128104e-09,3.0,0.0,0.8881211658412814,-0.25801412109636807,-0.004161518082199556,0.8498062133789075,3.049010081128104e-09,3.0,0.0,-0.0,-0.0,0.0,-0.0,-0.0,0.0
14/04/2022,15:56:17,48.454968,-0.00030451081693172455,0.027457850985229015,2.5778579711914062,2.5778579711914062,3.7265140973019584e-10,0.3230532109737396,0.4244330823421478,3.7265140973019584e-10,0.3230532109737396,0.4244330823421478,47.64146824706146,-122.140165,124.5778579711914,-1.0351212535472305e-10,-12.12230340579871,9.706821138278399e-08,5.082479662954255e-09,3.0,0.0,5.082479662954255e-09,3.0,0.0,0.8617243762024794,-0.2581357209833026,-0.004163479370698497,0.822142028808595,5.082479662954255e-09,3.0,0.0,-0.0,-0.0,0.0,-0.0,-0.0,-0.0
14/04/2022,15:56:17,48.644967,-0.0014760015765205026,0.13309156894683838,2.6824951171875,2.6824951171875,1.385578651813546e-09,0.8256176710128784,0.6121603846549988,1.385578651813546e-09,0.8256176710128784,0.6121603846549988,47.6414692196841,-122.140165,124.684326171875,5.642662283935767e-09,-15.015071506024874,1.1349178284064993e-07,7.923221138110977e-09,4.0,0.0,7.923221138110977e-09,4.0,0.0,0.762718641113753,-0.25866786143421566,-0.004172062281197042,0.7175048828125012,7.923221138110977e-09,4.0,0.0,-0.0,-0.0,0.0,-0.0,-0.0,-0.0
14/04/2022,15:56:17,48.827969,-0.0038029876304790378,0.34291670098900795,2.8204803466796875,2.8204803466796875,2.9969831061293917e-09,1.432666540145874,0.8357336521148682,2.9969831061293917e-09,1.432666540145874,0.8357336521148682,47.64147112399741,-122.140165,124.82299041748047,7.763917679651705e-09,-17.60169136074876,1.4350808472062594e-07,1.0018754326423558e-08,4.0,0.0,-0.5868381388719912,3.9905348685662787,-2.094599777150389,0.6350729004018819,-0.2597248767255545,-0.004189110914928351,0.5795196533203137,1.0018754326423558e-08,4.0,0.0,-0.0,-0.0,0.0,-0.5868381488907456,-0.0094651314337213,-2.094599777150389
14/04/2022,15:56:18,49.012965,-0.007062711287289858,0.6368472538888454,2.9191207885742188,2.9191207885742188,3.998833264517998e-09,1.7412670850753784,0.07659201323986053,3.998833264517998e-09,1.7412670850753784,0.8357336521148682,47.6414737771294,-122.14016499999998,124.91937255859375,1.3594520832348603e-08,-14.715841440409555,1.6090292706077233e-07,1.1233143413227038e-08,4.0,0.0,1.1233143413227038e-08,4.0,0.0,0.5472576376889663,-0.2612055832386908,-0.004212993278043253,0.4808792114257825,1.1233143413227038e-08,4.0,0.0,-0.0,-0.0,0.0,-0.0,-0.0,0.0
14/04/2022,15:56:18,49.199966,-0.011098736547864974,1.000776999630034,2.9340057373046875,2.9340057373046875,5.964426286197977e-09,2.208125352859497,0.167694553732872,5.964426286197977e-09,2.208125352859497,0.8357336521148682,47.641477004835274,-122.14016499999998,124.93400573730469,3.360518892440164e-08,-13.215143348854074,1.2157544519433826e-07,8.487567232876481e-09,4.0,0.0,8.487567232876481e-09,4.0,0.0,0.5351243998876906,-0.263038915653334,-0.004242563155699042,0.46599426269531374,8.487567232876481e-09,4.0,0.0,-0.0,-0.0,0.0,-0.0,-0.0,0.0
14/04/2022,15:56:18,49.390967,-0.016031246399506927,1.445543210953474,2.9588851928710938,2.9588851928710938,7.992163375547534e-09,2.5807688236236572,0.08914697170257568,7.992163375547534e-09,2.5807688236236572,0.8357336521148682,47.641481076252234,-122.14016499999995,124.95915985107422,5.549260910860267e-08,-11.142987720775741,7.611386160357404e-08,5.313749965558632e-09,4.0,-1.0,5.313749965558632e-09,4.0,-1.0,0.5147560377028276,-0.26527947150049697,-0.004278701153233921,0.4411148071289075,5.313749965558632e-09,4.0,-1.0,-0.0,-0.0,0.0,-0.0,-0.0,0.0
14/04/2022,15:56:18,49.570967,-0.02156572206877172,1.9446981102228165,2.920684814453125,2.9588851928710938,3.633481537690386e-05,2.7715139389038086,-0.6577556729316711,3.633481537690386e-05,2.7715139389038086,0.8357336521148682,47.64148557275089,-122.14016499998239,124.91873168945312,0.125907366850206,-9.704869403336764,-0.7395779166024502,-0.051630845077511506,3.9996667680991353,-1.0,-0.5391840143634711,3.9918030073042,1.4494822257818059,0.5490682897195205,-0.2677952268404307,-0.0043192778522649355,0.47931518554687624,-0.051630845077511506,3.9996667680991353,-1.0,-0.0,-0.0,0.0,-0.4875531692859596,-0.007863760794935405,2.449482225781806
14/04/2022,15:56:18,49.761967,-0.027480735792778432,2.483178117312491,2.8282089233398438,2.9588851928710938,0.0008546116296201944,3.023235321044922,0.013373514637351036,0.0008546116296201944,3.023235321044922,0.8357336521148682,47.64149042468837,-122.14016499919397,124.82821655273438,0.17242239997304543,-3.0127960597055647,-2.9772110122545055,-0.20775501734832796,3.9946010880645635,-1.0,-0.20775501734832796,3.9946010880645635,-1.0,0.6325893702895448,-0.2705646540665628,-0.004363946033332233,0.5717910766601575,-0.20775501734832796,3.9946010880645635,-1.0,-0.0,-0.0,0.0,-0.0,-0.0,0.0
14/04/2022,15:56:19,49.944965,-0.033502295264042914,3.0495568746700883,2.8134536743164062,2.9588851928710938,0.0019383656326681376,3.05683970451355,-0.5005951523780823,0.0019383656326681376,3.05683970451355,0.8357336521148682,47.641495521788094,-122.14016499569401,124.81197357177734,0.07786257576948057,-0.6825317997999516,-5.976332323646422,-0.4164705534877028,3.9782599560709513,-1.0,-0.9870080607538005,3.96905773821182,1.4083446940170297,0.6472676497792448,-0.2736774260688074,-0.004414152033368701,0.586546325683595,-0.4164705534877028,3.9782599560709513,-1.0,-0.0,-0.0,0.0,-0.5705375072660978,-0.009202217859131254,2.4083446940170297
14/04/2022,15:56:19,50.123965,-0.039051220985129476,3.5898395776748657,2.7618408203125,2.9588851928710938,0.003085143631324172,3.054673671722412,0.2625989615917206,0.003085143631324172,3.05683970451355,0.8357336521148682,47.64150038306471,-122.14016498975248,124.76260375976562,-0.017196006509289978,0.0661163618172038,-9.188434676507162,-0.6387277121807289,3.9486740698229794,-1.0,-0.6387277121807289,3.9486740698229794,-1.0,0.6956353369793838,-0.27684191426502053,-0.0044651921655658455,0.6381591796875012,-0.6387277121807289,3.9486740698229794,-1.0,-0.0,-0.0,0.0,-0.0,-0.0,0.0
14/04/2022,15:56:19,50.308971,-0.04446101433131844,4.137587334960699,2.796966552734375,2.9588851928710938,0.004390800837427378,3.0407798290252686,-0.20942017436027527,0.004390800837427378,3.05683970451355,0.8357336521148682,47.64150531117268,-122.14016498085047,124.79635620117188,-0.07429080594726567,0.24334865831166028,-12.626076996064382,-0.8743495489499968,3.903269509814937,0.0,-1.6277080416235656,3.8911185663847165,1.9886817571169741,0.6649952867398367,-0.28026587143770487,-0.004520417281254296,0.6030334472656262,-0.8743495489499968,3.903269509814937,0.0,-0.0,-0.0,0.0,-0.7533584926735687,-0.012150943430220346,1.9886817571169741
14/04/2022,15:56:19,50.481968,-0.05298169644083828,4.664231748320162,2.779083251953125,2.9588851928710938,-0.07331664860248566,3.021010398864746,0.33196568489074707,0.004390800837427378,3.05683970451355,0.8357336521148682,47.64151004957342,-122.14016501957667,124.7800521850586,-3.6672997096269646,-0.7915869549933404,-15.411597021474597,-1.0630050037634418,3.8561665371160885,0.0,-1.0630050037634418,3.8561665371160885,0.0,0.681243123847171,-0.2802394609303687,-0.00451999130532954,0.6209167480468762,-1.0630050037634418,3.8561665371160885,0.0,-0.0,-0.0,0.0,-0.0,-0.0,-0.0
14/04/2022,15:56:19,50.65697,-0.08296185650397092,5.205516327172518,2.8336868286132812,2.9588851928710938,-0.1912969946861267,3.0064857006073,0.09542736411094666,0.004390800837427378,3.05683970451355,0.8357336521148682,47.64151492196579,-122.1401653434969,124.83397674560547,-4.936812953642325,-1.3753216270675188,-16.89113129631709,-1.1622163471162654,3.8274342793176377,0.0,-1.1622163471162654,3.8274342793176377,0.0,0.6227411856271721,-0.25899522389686136,-0.00417734232091771,0.56631317138672,-1.1622163471162654,3.8274342793176377,0.0,-0.0,-0.0,0.0,0.0,0.0,0.0
14/04/2022,15:56:19,50.830968,-0.13427908916492015,5.726273381151259,2.8449935913085938,2.9588851928710938,-0.33663997054100037,2.9946908950805664,0.048941079527139664,0.004390800837427378,3.05683970451355,0.8357336521148682,47.64151953117556,-122.1401659421549,124.8449935913086,-4.682151599202494,-1.4525482745467682,-17.604802574140603,-1.2097991473080185,3.8126612783163405,0.0,-1.2097991473080185,3.8126612783163405,0.0,0.5955992644213981,-0.2160884605673407,-0.0034852977510864136,0.5550064086914075,-1.2097991473080185,3.8126612783163405,0.0,-0.0,-0.0,0.0,0.0,0.0,0.0
14/04/2022,15:56:20,50.978968,-0.1954446182353422,6.155615641735494,2.8509979248046875,2.9588851928710938,-0.44780591130256653,2.986633777618408,0.03421180695295334,0.004390800837427378,3.05683970451355,0.8357336521148682,47.64152348044862,-122.14016671088355,124.85110473632812,-4.109126660909505,-1.3598638217043024,-17.922942056581686,-1.2309505011029354,3.8058850302964267,0.0,-1.2309505011029354,3.8058850302964267,0.0,0.5723717089707789,-0.16186191346968665,-0.0026106760237052384,0.5490020751953137,-1.2309505011029354,3.8058850302964267,0.0,-0.0,-0.0,0.0,0.0,0.0,0.0
14/04/2022,15:56:20,51.153632,-0.2909280932508409,6.681683337315917,2.8557205200195312,2.9588851928710938,-0.5635837912559509,2.9785115718841553,0.01934277079999447,0.004390800837427378,3.05683970451355,0.8357336521148682,47.64152814237761,-122.14016788644155,124.85572052001953,-3.339122728616621,-1.1902990897092858,-18.13504280326598,-1.245030874385218,3.801302161342555,0.0,0.6222401184637558,3.831419435420762,0.9876021793459046,0.549408343899152,-0.0748860276872183,-0.0012078391562457824,0.54427947998047,-1.245030874385218,3.801302161342555,0.0,-0.0,-0.0,0.0,1.867270992848974,0.030117274078206854,0.9876021793459046
14/04/2022,15:56:20,51.331632,-0.40216090506874025,7.206302827224135,2.85443115234375,2.9588851928710938,-0.6000916957855225,2.972226142883301,-0.012149974703788757,0.004390800837427378,3.05683970451355,0.8357336521148682,47.64153287333958,-122.1401692897398,124.85443115234375,1.1192341103648895,0.22107498571231088,-18.26517612057069,-1.2536613816399502,3.7984645766657628,0.0,0.8034669460868316,3.8316440658226445,1.0357078494788372,0.5462798392015569,0.027858450922325417,0.0004493298535850343,0.5455688476562512,-1.2536613816399502,3.7984645766657628,0.0,0.0,0.0,0.0,2.057128327726782,0.033179489156881646,1.0357078494788372
14/04/2022,15:56:20,51.506174,-0.5035317833535373,7.7124049458652735,2.9144668579101562,2.9588851928710938,-0.49881958961486816,2.9695441722869873,0.8892688751220703,0.004390800837427378,3.05683970451355,0.8892688751220703,47.64153751674987,-122.140170584483,124.9171142578125,2.6588466495380025,0.7061645579198853,-18.3041547703296,-1.2562452087258722,3.797610824657167,0.0,0.28107123607985574,3.8224062511862917,-1.9437221605282342,0.5003972878680119,0.12104215047265293,0.0019522927495589926,0.485533142089845,-1.2562452087258722,3.797610824657167,0.0,0.0,0.0,0.0,1.537316444805728,0.02479542652912456,-1.9437221605282342
14/04/2022,15:56:20,51.681172,-0.5915198787115514,8.235785684548318,3.04193115234375,3.04193115234375,-0.4357238709926605,2.963548421859741,0.303571492433548,0.004390800837427378,3.05683970451355,0.8892688751220703,47.64154215421961,-122.14017165853245,125.04193115234375,3.1942415650564535,0.8232799225373835,-18.32676251523373,-1.2577435705959583,3.7971148403260773,0.0,0.6909159653985928,3.8285448328421174,-0.4971859842790336,0.4104281426857502,0.20056793272437146,0.0032349666568407542,0.35806884765625124,-1.2577435705959583,3.7971148403260773,0.0,0.0,0.0,0.0,1.948659535994551,0.03142999251604034,-0.4971859842790336
14/04/2022,15:56:21,51.857173,-0.667935555218719,8.749402539804578,3.0408401489257812,3.04193115234375,-0.36573511362075806,2.959315538406372,-0.1574479341506958,0.004390800837427378,3.05683970451355,0.8892688751220703,47.64154686247454,-122.14017261462286,125.04036712646484,2.7867596161025476,0.6657649234134129,-18.348881514481715,0.0,0.0,0.0,1.7387668463155124,0.028044626553471362,1.2957364743515454,0.4485582009298882,0.26868174689021374,0.004333576562745023,0.35915985107422,0.0,0.0,0.0,0.0,0.0,0.0,1.7387668463155124,0.028044626553471362,1.2957364743515454
14/04/2022,15:56:21,52.028689,-0.7256472752196714,9.253337500616908,3.0498580932617188,3.0498580932617188,-0.18539270758628845,2.7339725494384766,0.5078795552253723,0.004390800837427378,3.05683970451355,0.8892688751220703,47.64155139605606,-122.14017330134703,125.05135345458984,2.1651264541407964,12.054611262206352,-17.862204647298974,0.0,0.0,0.0,0.0,0.0,0.0,0.47319173007409926,0.31825258801200745,0.0051331062582580245,0.3501419067382825,0.0,0.0,0.0,0.0,0.0,0.0,0.0,0.0,-0.0
14/04/2022,15:56:21,52.199687,-0.7466818239772692,9.67719404771924,3.157012939453125,3.157012939453125,-0.035606637597084045,2.313840866088867,0.6331079602241516,0.004390800837427378,3.05683970451355,0.8892688751220703,47.641555200133794,-122.14017351272958,125.1589126586914,-1.853498562414157,15.033411740367338,-17.789635861955027,0.0,0.0,0.0,0.6440800784741303,0.010388388362479236,-2.0030361296559076,0.4118161034191874,0.3324470482210741,0.005362049164856941,0.24298706054687624,0.0,0.0,0.0,0.0,0.0,0.0,0.6440800784741303,0.010388388362479236,-2.0030361296559076
14/04/2022,15:56:21,52.382685,-0.753143040696159,10.058582195080817,3.2192306518554688,3.2192306518554688,0.0015486238989979029,2.0239129066467285,-0.08904828876256943,0.004390800837427378,3.05683970451355,0.8892688751220703,47.641558624171786,-122.14017354092778,125.21898651123047,-3.8767327934413283,16.132476423934808,-17.83418602742368,0.0,0.0,0.0,0.0,0.0,0.0,0.37872605597826947,0.3327567626374577,0.005367044558667544,0.1807693481445325,0.0,0.0,0.0,0.0,0.0,0.0,0.0,0.0,0.0
14/04/2022,15:56:21,52.557686,-0.7539508397458121,10.367566336877644,3.2121658325195312,3.2192306518554688,0.027232255786657333,1.4989354610443115,0.14738886058330536,0.027232255786657333,3.05683970451355,0.8892688751220703,47.641561389986215,-122.14017350503507,125.21260833740234,-3.5744224644195732,12.57150342888059,-17.579536702729396,0.0,0.0,0.0,0.0,0.0,0.0,0.3785180491152829,0.3285820325348473,0.005299710202173458,0.18783416748047,0.0,0.0,0.0,0.0,0.0,0.0,0.0,0.0,-0.0
14/04/2022,15:56:21,52.732687,-0.7511400693329051,10.602103911340237,3.23223876953125,3.23223876953125,0.03210839256644249,1.1621010303497314,0.06359073519706726,0.03210839256644249,3.05683970451355,0.8892688751220703,47.64156349067246,-122.14017343279409,125.23242950439453,-2.954222996902131,9.463795695805395,-17.391091061318775,0.0,0.0,-2.0,0.0,0.0,-2.0,0.3631093974651002,0.32199011287713725,0.005193388917371422,0.16776123046875124,0.0,0.0,-2.0,0.0,0.0,0.0,0.0,0.0,0.0
14/04/2022,15:56:22,52.904687,-0.747615632833913,10.790953173302114,3.1934890747070312,3.23223876953125,0.030920198187232018,0.9915376305580139,-0.6466720104217529,0.03210839256644249,3.05683970451355,0.8892688751220703,47.641565157964635,-122.14017335927991,125.19348907470703,-2.774434555009089,8.450431876839218,-17.335127928033835,0.0,0.0,-2.0,0.3571549829998633,0.005760564241929448,0.41710956427193047,0.3770455177187317,0.3154214293547023,0.00508744240894643,0.20651092529297,0.0,0.0,-2.0,0.0,0.0,0.0,0.3571549829998633,0.005760564241929448,2.4171095642719305
14/04/2022,15:56:22,53.077687,-0.744358406867832,10.93761833384633,3.1040725708007812,3.23223876953125,0.025581901893019676,0.716418445110321,-0.28836148977279663,0.03210839256644249,3.05683970451355,0.8892688751220703,47.641566496500005,-122.14017329324125,125.10320281982422,-2.0451295777820513,6.072998289724606,-17.230534473138466,0.0,0.0,-2.0,0.0,0.0,-2.0,0.42845549622218404,0.30980009864797753,0.004996775784643859,0.29592742919922,0.0,0.0,-2.0,0.0,0.0,0.0,0.0,0.0,0.0
14/04/2022,15:56:22,53.250688,-0.7414892938686535,11.049637229181826,3.0133514404296875,3.23223876953125,0.02267208881676197,0.6089227199554443,-0.9355449080467224,0.03210839256644249,3.05683970451355,0.8892688751220703,47.64156750110014,-122.14017323862733,125.01056671142578,-1.778553926796167,5.1837029571368225,-17.197495608377785,0.0,0.0,-1.0,0.2654792154622599,0.004281922830036502,1.49581046533606,0.4925676258026372,0.305125445363285,0.00492137815101934,0.38664855957031374,0.0,0.0,-1.0,0.0,0.0,0.0,0.2654792154622599,0.004281922830036502,2.49581046533606
14/04/2022,15:56:22,53.423689,-0.7390558392507955,11.139089524745941,2.8890609741210938,3.23223876953125,0.016617754474282265,0.4208972156047821,-0.18980064988136292,0.03210839256644249,3.05683970451355,0.8892688751220703,47.64156830058798,-122.14017319326778,124.88845825195312,-1.1715611784166597,3.37125488336503,-17.148136762400735,0.0,0.0,0.0,0.0,0.0,0.0,0.5931559591053467,0.3012502199078829,0.004858874514640732,0.5109390258789075,0.0,0.0,0.0,0.0,0.0,0.0,0.0,0.0,0.0
14/04/2022,15:56:22,53.592887,-0.7372183945262805,11.202430114150047,2.8667449951171875,3.23223876953125,0.013314384035766125,0.3299944996833801,-0.20967115461826324,0.03210839256644249,3.05683970451355,0.8892688751220703,47.64156885887721,-122.14017316012274,124.86674499511719,-0.8956329984811696,2.555415202730718,-17.131193590116812,0.0,0.0,0.0,0.0,0.0,0.0,0.6110824713749727,0.29839189635415325,0.004812772521839648,0.5332550048828137,0.0,0.0,0.0,0.0,0.0,0.0,0.0,0.0,0.0
14/04/2022,15:56:22,53.76889,-0.735707831569016,11.253474744036794,2.8310089111328125,3.23223876953125,0.010510753840208054,0.2575562298297882,-0.19240130484104156,0.03210839256644249,3.05683970451355,0.8892688751220703,47.64156932491833,-122.14017313205687,124.83042907714844,-0.7011119328026362,1.991784224280025,-17.122048412103087,0.0,0.0,-1.0,0.0,0.0,-1.0,0.6414237128656839,0.29605863990143466,0.004775139353245805,0.5689910888671887,0.0,0.0,-1.0,0.0,0.0,0.0,0.0,0.0,0.0
14/04/2022,15:56:23,53.940889,-0.7345108174486086,11.293468871153891,2.7568588256835938,3.23223876953125,0.009146127849817276,0.22321687638759613,-0.8406642079353333,0.03210839256644249,3.05683970451355,0.8892688751220703,47.64156968368409,-122.14017311027256,124.75435638427734,-0.5969010890995539,1.6924995855538985,-17.11796561769561,0.0,0.0,-1.0,0.2893670765734691,0.004667210912475124,1.5029687661431566,0.7072600334321948,0.29421703829932644,0.004745436101599054,0.6431411743164075,0.0,0.0,-1.0,0.0,0.0,0.0,0.2893670765734691,0.004667210912475124,2.5029687661431566
14/04/2022,15:56:23,54.11289,-0.7335063341306522,11.326794853433967,2.6471939086914062,3.23223876953125,0.006593606434762478,0.15967229008674622,-0.09781128913164139,0.03210839256644249,3.05683970451355,0.8892688751220703,47.64156998170237,-122.14017309208221,124.6468734741211,-0.42267207266562273,1.195007568663528,-17.113108251827484,0.0,0.0,-1.0,0.0,0.0,-1.0,0.8077117110648013,0.29267544017823705,0.0047205716157758815,0.752806091308595,0.0,0.0,-1.0,0.0,0.0,0.0,0.0,0.0,0.0
14/04/2022,15:56:23,54.281887,-0.7327504404820502,11.351713710464537,2.6214065551757812,3.23223876953125,0.005512783769518137,0.13340407609939575,-0.5347189903259277,0.03210839256644249,3.05683970451355,0.8892688751220703,47.64157020509232,-122.14017307838493,124.61981964111328,-0.36304351098926113,1.0262937957470957,-17.111670440823485,0.0,0.0,-2.0,0.3693583822657085,0.005957393262348378,0.47140918220501593,0.831391943711907,0.2915179306018725,0.004701902106480915,0.77859344482422,0.0,0.0,-2.0,0.0,0.0,0.0,0.3693583822657085,0.005957393262348378,2.471409182205016
14/04/2022,15:56:23,54.453888,-0.7321435805642977,11.37167792301625,2.5528488159179688,3.23223876953125,0.004074114374816418,0.09838072955608368,-0.13266509771347046,0.03210839256644249,3.05683970451355,0.8892688751220703,47.64157038370656,-122.14017306741573,124.55244445800781,-0.2805303057584525,0.7928250245647689,-17.11023214147937,0.0,0.0,-2.0,0.5331383267786509,0.008599005270618743,0.12377090193701257,0.8956166827160218,0.29058930883280965,0.0046869243360117,0.8471511840820325,0.0,0.0,-2.0,0.0,0.0,0.0,0.5331383267786509,0.008599005270618743,2.1237709019370126
14/04/2022,15:56:23,54.635887,-0.7316849802155048,11.386744701303542,2.5369186401367188,3.23223876953125,0.0031265742145478725,0.075543113052845,-0.07203180342912674,0.03210839256644249,3.05683970451355,0.8892688751220703,47.64157051859386,-122.14017305912448,124.53670501708984,-0.2142966757995593,0.6054462108341566,-17.109342237949146,0.0,0.0,0.0,0.5554302084200554,0.008958551748707142,1.9893261348392255,0.910475852028674,0.28988787840509256,0.004675610942017627,0.8630813598632825,0.0,0.0,0.0,0.0,0.0,0.0,0.5554302084200554,0.008958551748707142,1.9893261348392255
14/04/2022,15:56:23,54.801888,-0.7313523505581543,11.397683194838464,2.5814743041992188,3.23223876953125,0.002120746998116374,0.0512816421687603,0.8007038831710815,0.03210839256644249,3.05683970451355,0.8892688751220703,47.64157061632004,-122.14017305312207,124.58385467529297,-0.15378138389065865,0.43408049287189865,-17.10874949044178,-0.5883725569697797,1.911496203031762,0.0,-0.5883725569697797,1.911496203031762,0.0,0.8681856243051924,0.2893789538271938,0.004667402481084437,0.8185256958007825,-0.5883725569697797,1.911496203031762,0.0,0.0,0.0,0.0,0.0,0.0,-0.0
14/04/2022,15:56:24,54.972885,-0.7311099763028324,11.406912734732032,2.6941680908203125,3.23223876953125,0.0018930818187072873,0.06970882415771484,0.24119678139686584,0.03210839256644249,3.05683970451355,0.8892688751220703,47.641570699813606,-122.1401730485426,124.69490814208984,1.0645522917273715,-3.5160015743672077,-17.136361062543244,-0.883940494778066,2.8668186551806008,0.0,-0.883940494778066,2.8668186551806008,0.0,0.7627151294132154,0.2889878177775557,0.004661093835119701,0.7058319091796887,-0.883940494778066,2.8668186551806008,0.0,0.0,0.0,0.0,0.0,0.0,0.0
14/04/2022,15:56:24,55.151891,-0.7310709399171174,11.432079218328,2.7191390991210938,3.23223876953125,0.001545226783491671,0.26609763503074646,0.18554078042507172,0.03210839256644249,3.05683970451355,0.8892688751220703,47.6415709243565,-122.14017304438309,124.7191390991211,2.6558021463376846,-8.656390226301381,-17.291732162705287,-0.8917112941813822,2.8644111031465727,0.0,-0.8917112941813822,2.8644111031465727,0.0,0.7394932590152496,0.28854298608714257,0.0046539191304351135,0.6808609008789075,-0.8917112941813822,2.8644111031465727,0.0,0.0,0.0,0.0,0.0,0.0,0.0
14/04/2022,15:56:24,55.328891,-0.7316855038516223,11.505101658403873,2.7573089599609375,3.23223876953125,0.0005710895056836307,0.5709974765777588,0.22031454741954803,0.03210839256644249,3.05683970451355,0.8892688751220703,47.641571581381534,-122.1401730417838,124.75730895996094,2.9230421829720776,-9.5469316867247,-17.32359787781453,-0.8933042317863382,2.8639147245462144,0.0,-0.8933042317863382,2.8639147245462144,0.0,0.7042767772865355,0.2879799152105582,0.004644837342103969,0.6426910400390637,-0.8933042317863382,2.8639147245462144,0.0,0.0,0.0,0.0,0.0,0.0,0.0
14/04/2022,15:56:24,55.50489,-0.7330308947712183,11.628102012909949,2.791473388671875,3.23223876953125,-0.00033677060855552554,0.8484614491462708,0.16517995297908783,0.03210839256644249,3.05683970451355,0.8892688751220703,47.641572688117655,-122.14017304153502,124.79147338867188,2.613652590030777,-8.545104564025355,-17.268434556266868,-0.8905464938243819,2.864773453929141,0.0,-0.8905464938243819,2.864773453929141,0.0,0.6729719965776084,0.2873415955006883,0.004634541862913011,0.6085266113281262,-0.8905464938243819,2.864773453929141,0.0,0.0,0.0,0.0,0.0,0.0,0.0
14/04/2022,15:56:24,55.682403,-0.7350001018494368,11.795957617461681,2.8148956298828125,3.23223876953125,-0.0008354628225788474,1.0849659442901611,0.10385135561227798,0.03210839256644249,3.05683970451355,0.8892688751220703,47.6415741984669,-122.14017304296851,124.81489562988281,2.173980313156282,-7.099443858655293,-17.20375412804013,-0.8873119231729039,2.8657769541601112,0.0,-0.8873119231729039,2.8657769541601112,0.0,0.6515444287839487,0.2866036460927466,0.00462263945310859,0.5851043701171887,-0.8873119231729039,2.8657769541601112,0.0,0.0,0.0,0.0,0.0,0.0,0.0
14/04/2022,15:56:25,55.853406,-0.7373882572865114,11.99747673701495,2.828704833984375,3.23223876953125,-0.0008909145253710449,1.275838851928711,0.05891302973031998,0.03210839256644249,3.05683970451355,0.8892688751220703,47.64157604606691,-122.14017304504493,124.8288803100586,1.7582126025295048,-5.729458094510764,-17.153886197244884,-0.8848173309706728,2.8665481490485964,0.0,-0.8848173309706728,2.8665481490485964,0.0,0.6387861427915987,0.2857417173769631,0.004608737377045813,0.5712951660156262,-0.8848173309706728,2.8665481490485964,0.0,0.0,0.0,0.0,0.0,0.0,0.0
14/04/2022,15:56:25,56.027401,-0.7401826874120161,12.236980436369777,2.8363418579101562,3.23223876953125,-0.0006160890334285796,1.4339733123779297,0.028827136382460594,0.03210839256644249,3.05683970451355,0.8892688751220703,47.641578166750435,-122.14017304685069,124.83634185791016,1.3888812611501395,-4.517984485621258,-17.118543303427817,0.0,0.0,0.0,0.0,0.0,0.0,0.63148282901694,0.284673462511538,0.004591507459862143,0.563658142089845,0.0,0.0,0.0,0.0,0.0,0.0,0.0,0.0,0.0
14/04/2022,15:56:25,56.201402,-0.743112834985368,12.49110774230212,2.8331451416015625,3.23223876953125,-0.0005617443821392953,1.4399913549423218,0.018911821767687798,0.03210839256644249,3.05683970451355,0.8892688751220703,47.64158045335938,-122.14017304833989,124.83314514160156,-1.230661866890993,4.021816132178181,-17.087700201969184,0.0,0.0,0.0,0.0,0.0,0.0,0.633814226580178,0.28350508651782136,0.004572662685770723,0.5668548583984387,0.0,0.0,0.0,0.0,0.0,0.0,0.0,0.0,0.0
14/04/2022,15:56:25,56.371401,-0.745717731770128,12.72210781276226,2.848297119140625,3.23223876953125,0.00014935598301235586,1.2456629276275635,0.1349831521511078,0.03210839256644249,3.05683970451355,0.8892688751220703,47.64158256549034,-122.14017304890818,124.84870147705078,-2.151509207574962,7.051304928204012,-17.14785417937346,0.0,0.0,0.0,0.0,0.0,0.0,0.6197885126071361,0.28238446723878075,0.0045545881812696365,0.5517028808593762,0.0,0.0,0.0,0.0,0.0,0.0,0.0,0.0,0.0
14/04/2022,15:56:25,56.549403,-0.7478147274814546,12.91939611826092,2.8723907470703125,3.23223876953125,0.0008871675818227232,1.0193378925323486,0.13028472661972046,0.03210839256644249,3.05683970451355,0.8892688751220703,47.641584307026505,-122.14017304770302,124.87239074707031,-2.162592147101297,7.083397094017263,-17.13291239036409,0.0,0.0,0.0,0.0,0.0,0.0,0.5979311135335603,0.28129967571041214,0.004537091543713956,0.5276092529296887,0.0,0.0,0.0,0.0,0.0,0.0,0.0,0.0,0.0
14/04/2022,15:56:25,56.727401,-0.749384313588962,13.078860471956432,2.8919601440429688,3.23223876953125,0.0013587443390861154,0.814483642578125,0.09219646453857422,0.03210839256644249,3.05683970451355,0.8892688751220703,47.6415857638325,-122.14017304500112,124.89224243164062,-1.879376491325044,6.1469522411079485,-17.09144900468014,0.0,0.0,0.0,0.0,0.0,0.0,0.5802513524014768,0.28029751682046067,0.004520927690649046,0.5080398559570325,0.0,0.0,0.0,0.0,0.0,0.0,0.0,0.0,0.0
14/04/2022,15:56:26,56.895404,-0.7505154237151146,13.203490067273378,2.9047470092773438,3.23223876953125,0.0015367610612884164,0.6449985504150391,0.057628270238637924,0.03210839256644249,3.05683970451355,0.8892688751220703,47.64158688063243,-122.14017304165263,124.90492248535156,-1.5477701290177828,5.049810209163226,-17.054054944492503,0.0,0.0,0.0,0.0,0.0,0.0,0.5686568789729702,0.2794187008036284,0.004506753238764816,0.4952529907226575,0.0,0.0,0.0,0.0,0.0,0.0,0.0,0.0,0.0
14/04/2022,15:56:26,57.069406,-0.7513552212622017,13.30334564205259,2.9125213623046875,3.23223876953125,0.0015016354154795408,0.5049276947975159,0.03263993561267853,0.03210839256644249,3.05683970451355,0.8892688751220703,47.641587775312594,-122.14017303809081,124.9126205444336,-1.2369583887637545,4.024155690607275,-17.026378916806777,0.0,0.0,-1.0,0.0,0.0,-1.0,0.5615161607142948,0.27864812502591485,0.0044943245971893475,0.48747863769531374,0.0,0.0,-1.0,0.0,0.0,0.0,0.0,0.0,0.0
14/04/2022,15:56:26,57.214404,-0.7518945375923067,13.371003238484263,2.8894805908203125,3.23223876953125,0.0014268535887822509,0.4436812996864319,-0.4992411434650421,0.03210839256644249,3.05683970451355,0.8892688751220703,47.64158837042419,-122.14017303534226,124.88948059082031,-1.0856635736909754,3.5230621485703977,-17.014824614583812,0.0,0.0,-3.0,0.4172075369390571,0.006729153821596145,-0.587263548764152,0.5813671445869517,0.2780963333468928,0.004485424731399235,0.5105194091796887,0.0,0.0,-3.0,0.0,0.0,0.0,0.4172075369390571,0.006729153821596145,2.412736451235848
14/04/2022,15:56:26,57.387401,-0.7524002095451578,13.43705534748733,2.829864501953125,3.23223876953125,0.0011964066652581096,0.32497739791870117,-0.08858566731214523,0.03210839256644249,3.05683970451355,0.8892688751220703,47.64158896472809,-122.14017303232241,124.82986450195312,-0.8297496346491964,2.6883708072096217,-16.99980514104915,0.0,0.0,-3.0,0.0,0.0,-3.0,0.6341144979102435,0.2775367942645962,0.004476399907492379,0.5701354980468762,0.0,0.0,-3.0,0.0,0.0,0.0,0.0,0.0,0.0
14/04/2022,15:56:26,57.567403,-0.7527722566155717,13.487903163768351,2.7734527587890625,3.23223876953125,0.0010537803173065186,0.2757963538169861,-0.736498236656189,0.03210839256644249,3.05683970451355,0.8892688751220703,47.641589422229664,-122.14017302976838,124.77345275878906,-0.7989256355486903,2.5839341198642183,-16.997637265812575,0.0,0.0,-3.0,0.3144237109103055,0.005071350175968382,-0.5190627739979052,0.6850982701048762,0.2770888318014616,0.0044691747064735665,0.6265472412109387,0.0,0.0,-3.0,0.0,0.0,0.0,0.3144237109103055,0.005071350175968382,2.4809372260020948
14/04/2022,15:56:26,57.739402,-0.7530661908676848,13.52973061427474,2.656402587890625,3.23223876953125,0.0008434791234321892,0.19462822377681732,-0.45235487818717957,0.03210839256644249,3.05683970451355,0.8892688751220703,47.641589798569576,-122.14017302750618,124.65640258789062,-0.5442989030277063,1.758207554713847,-16.987428221209733,0.0,0.0,-3.0,0.3994047891092603,0.00644201272756605,-0.5503107152084779,0.7934257834562607,0.27670822876732026,0.004463035947857463,0.7435974121093762,0.0,0.0,-3.0,0.0,0.0,0.0,0.3994047891092603,0.00644201272756605,2.449689284791522
14/04/2022,15:56:27,57.913405,-0.7532646867912263,13.559608527459204,2.5860595703125,3.23223876953125,0.0006527302321046591,0.1453404575586319,-0.3543345332145691,0.03210839256644249,3.05683970451355,0.8892688751220703,47.64159006739311,-122.14017302573764,124.5860595703125,-0.37634261767684846,1.2127483140404007,-16.982563409378557,0.0,0.0,-3.0,0.42902626591228615,0.006919778482453505,-0.5844647310604425,0.8596101584119237,0.27642489657295277,0.004458466073753442,0.8139404296875012,0.0,0.0,-3.0,0.0,0.0,0.0,0.42902626591228615,0.006919778482453505,2.4155352689395575
14/04/2022,15:56:27,58.088406,-0.7534089101245627,13.581527218222618,2.5305404663085938,3.23223876953125,0.0005022016703151166,0.11199215054512024,-0.2948761582374573,0.03210839256644249,3.05683970451355,0.8892688751220703,47.64159026763961,-122.14017302440173,124.52965545654297,-0.27930587999320516,0.8993678283171933,-16.98050256967943,0.0,0.0,-3.0,0.44491120853833327,0.0071759872344862915,-0.6096458064373271,0.9122909690720526,0.2762156470712657,0.004455091081792872,0.8694595336914075,0.0,0.0,-3.0,0.0,0.0,0.0,0.44491120853833327,0.0071759872344862915,2.390354193562673
14/04/2022,15:56:27,58.262402,-0.7535230921348557,13.598756067454815,2.4835739135742188,3.23223876953125,0.00038147231680341065,0.08664505183696747,-0.24472753703594208,0.03210839256644249,3.05683970451355,0.8892688751220703,47.64159042196399,-122.14017302338301,124.48284149169922,-0.21260992846988094,0.6846342230751974,-16.979438187651397,0.0,0.0,-3.0,0.45827711870842425,0.007391566430777729,-0.6356144230248937,0.957110910880968,0.2760519869919862,0.004452451403093249,0.9164260864257825,0.0,0.0,-3.0,0.0,0.0,0.0,0.45827711870842425,0.007391566430777729,2.3643855769751063
14/04/2022,15:56:27,58.440402,-0.7536140995798633,13.612311523407698,2.444000244140625,3.23223876953125,0.00028859585290774703,0.0669979453086853,-0.20236550271511078,0.03210839256644249,3.05683970451355,0.8892688751220703,47.64159054339381,-122.14017302259631,124.44338989257812,-0.16358062027729783,0.5269352249026661,-16.97881942733936,0.0,0.0,-3.0,0.4695183248164619,0.007572876206717481,-0.6613500718105558,0.99503246624827,0.2759243912441397,0.0044503934071631335,0.9559997558593762,0.0,0.0,-3.0,0.0,0.0,0.0,0.4695183248164619,0.007572876206717481,2.338649928189444
14/04/2022,15:56:27,58.617403,-0.7536856238730252,13.62280460819602,2.4112701416015625,3.23223876953125,0.00021869481133762747,0.05188383534550667,-0.16732771694660187,0.03210839256644249,3.05683970451355,0.8892688751220703,47.64159063740061,-122.14017302200298,124.41077423095703,-0.12672509021279785,0.4083746524281664,-16.978490243153658,0.0,0.0,-3.0,0.5882865533083917,0.009488492795292078,-0.29268793502838353,1.0264925192145435,0.2758266976488311,0.004448817704012953,0.9887298583984387,0.0,0.0,-3.0,0.10956272555620492,0.0017671407347773192,0.3927391331162992,0.4787238277521868,0.007721352060514759,2.3145729318553174
14/04/2022,15:56:27,58.794401,-0.753740819171071,13.630810156464577,2.3846282958984375,3.23223876953125,0.0001666858297539875,0.04036915302276611,-0.13883650302886963,0.03210839256644249,3.05683970451355,0.8892688751220703,47.641590708022974,-122.14017302156432,124.38462829589844,-0.09884654985301225,0.3186560290327062,-16.97826241452145,0.0,0.0,-3.0,0.5948361379383155,0.009594131257071183,-0.30661089440904776,1.0521592466411498,0.2757527904272545,0.004447625652050036,1.0153717041015637,0.0,0.0,-3.0,0.10872392565724308,0.0017536117041481135,0.4003411805920769,0.48611221228107243,0.007840519552923069,2.2930479249988753
14/04/2022,15:56:28,58.961401,-0.753783573047258,13.636944989673793,2.3628616333007812,3.23223876953125,0.00012768174929078668,0.03154318407177925,-0.1156221330165863,0.03210839256644249,3.05683970451355,0.8892688751220703,47.6415907640675,-122.14017302122355,124.36251831054688,-0.07747492492178044,0.24984653957774425,-16.97819113861497,0.0,0.0,-3.0,0.6000363710177243,0.00967800598415187,-0.31953112999013866,1.07316559102366,0.2756966099958087,0.004446719516058906,1.03713836669922,0.0,0.0,-3.0,0.10799650750540354,0.0017418791533119714,0.40627021639866046,0.4920398635123208,0.007936126830839899,2.274198653611201
14/04/2022,15:56:28,59.133409,-0.753817689139396,13.64173614513129,2.3447341918945312,3.23223876953125,9.781502740224823e-05,0.02464018575847149,-0.09639125317335129,0.03210839256644249,3.05683970451355,0.8892688751220703,47.64159080700633,-122.14017302097037,124.34444427490234,-0.0607113611785402,0.1958384271845636,-16.97813870968652,0.0,0.0,-4.0,0.6042295242884185,0.009745637488519551,-1.3312680245480286,1.0906835119453409,0.27565346061214513,0.004446023558259071,1.05526580810547,0.0,0.0,-4.0,0.10736483661749638,0.0017316909131849054,0.41101766262491896,0.49686468767092207,0.008013946575334645,2.2577143128270523
14/04/2022,15:56:28,59.311404,-0.753846017527394,13.645686058327556,2.28179931640625,3.23223876953125,8.293008431792259e-05,0.021231919527053833,-0.7770816087722778,0.03210839256644249,3.05683970451355,0.8892688751220703,47.64159084186805,-122.14017302076857,124.28179931640625,-0.05118152631116865,0.1651584159711382,-16.978112337543166,0.0,0.0,-4.0,0.37728841129420004,0.0060852969563564285,-0.9260346417213681,1.1516761099962083,0.2756180899243158,0.004445453063294025,1.1182006835937512,0.0,0.0,-4.0,0.10504913823240875,0.0016943409392318688,0.42619124969144756,0.2722392730617913,0.004390956017124559,2.647774108587184
14/04/2022,15:56:28,59.485403,-0.7538690487854183,13.648880158551037,2.1834335327148438,3.23223876953125,5.920615512877703e-05,0.015179955400526524,-0.18412454426288605,0.03210839256644249,3.05683970451355,0.8892688751220703,47.64159087102371,-122.1401730206012,124.18287658691406,-0.03851040353724606,0.12432131454091173,-16.978085655123035,0.0,0.0,-4.0,0.5233068738441435,0.008440433449095504,-1.1203066693003252,1.2473986375244555,0.27558961084550937,0.004444993723312862,1.2165664672851575,0.0,0.0,-4.0,0.10104786595269116,0.001629804289558873,0.44606705213456976,0.4222590078914524,0.006810629159536632,2.433626278565105
14/04/2022,15:56:28,59.663402,-0.7538856907049194,13.651334387250245,2.10888671875,3.23223876953125,4.973231989424676e-05,0.012927415780723095,-0.8393971920013428,0.03210839256644249,3.05683970451355,0.8892688751220703,47.641590892688534,-122.14017302046283,124.10888671875,-0.03150054690487784,0.10165361988737799,-16.978075574219872,0.0,0.0,-4.0,0.37209859706786574,0.006001590275286331,-0.5800361280040081,1.3202008376529129,0.2755666743979701,0.004444623780610613,1.2911132812500012,0.0,0.0,-4.0,0.09780808384221897,0.0015775497393899864,0.45826047847835394,0.2742905132256468,0.004424040535896345,2.961703393517638
14/04/2022,15:56:28,59.836406,-0.7538999425014481,13.653245628811419,2.0025787353515625,3.23223876953125,3.528677552822046e-05,0.009202630259096622,-0.20196975767612457,0.03210839256644249,3.05683970451355,0.8892688751220703,47.64159091013242,-122.14017302036918,124.00196075439453,-0.023523371024574774,0.0759282946082128,-16.978065017271923,0.0,0.0,-4.0,0.47014346597100093,0.007582959128563675,-1.0596172467596179,1.42433626753887,0.27555010402841573,0.0044443565165863674,1.3974212646484387,0.0,0.0,-4.0,0.09303872106962714,0.0015006245333807511,0.4718353771515331,0.3771047449013738,0.006082334595182924,2.468547376088849
14/04/2022,15:56:29,60.005405,-0.7539092288352549,13.65468052495271,1.9340057373046875,3.23223876953125,2.954130104626529e-05,0.007827647030353546,-0.7994388341903687,0.03210839256644249,3.05683970451355,0.8892688751220703,47.64159092300364,-122.14017302028157,123.93162536621094,-0.019217865633371016,0.06205268423129017,-16.97805989033009,0.0,0.0,-4.0,0.36942981053237467,0.005958545331164326,-0.40905942606555756,1.4916699212302047,0.2755362504800135,0.004444133072256662,1.4659942626953137,0.0,0.0,-4.0,0.08993202413275281,0.0014505165182696776,0.47848452311270506,0.27949778639962186,0.004508028812894648,3.1124560508217374
14/04/2022,15:56:29,60.272405,-0.7539221857441589,13.656319552101195,1.82049560546875,3.23223876953125,1.778436853783205e-05,0.00479484349489212,-0.10210268199443817,0.03210839256644249,3.05683970451355,0.8892688751220703,47.64159093767266,-122.14017302021146,123.8201904296875,-0.012263412145922829,0.03959431336884199,-16.978055986969416,0.0,0.0,-4.0,0.4656619445021853,0.007510676524228807,-1.046528971062731,1.6033610573601944,0.2755227749727628,0.004443915725367731,1.5795043945312512,0.0,0.0,-4.0,0.08484808767496738,0.0013685175431448165,0.48641324610436437,0.3808138568272179,0.00614215898108399,2.4670577828329048
14/04/2022,15:56:29,60.428402,-0.7539266963722184,13.657008764334023,1.7723159790039062,3.23223876953125,1.5111922039068304e-05,0.0041541229002177715,-0.6753122210502625,0.03210839256644249,3.05683970451355,0.8892688751220703,47.64159094386076,-122.1401730201704,123.77030944824219,-0.010279348140004483,0.03321162175508595,-16.978054079806014,0.0,0.0,-4.0,0.3576861349246484,0.005769131208457673,-0.5372568928284447,1.6508434753557548,0.2755161709924833,0.004443809209552896,1.627684020996095,0.0,0.0,-4.0,0.08273669294507227,0.0013344627894356625,0.48878870728944823,0.27494944197957616,0.004434668419022011,2.973954399882107
14/04/2022,15:56:29,60.602401,-0.7539301649667323,13.657628482207656,1.6883163452148438,3.23223876953125,1.0893208127527032e-05,0.0029999169055372477,-0.16870160400867462,0.03210839256644249,3.05683970451355,0.8892688751220703,47.64159094939746,-122.14017302012508,123.68780517578125,-0.007697478955325108,0.024874125949952128,-16.978052095280436,0.0,0.0,-4.0,0.41217443500968265,0.0066479747582183875,-1.0303494468589682,1.733720348127599,0.275509645834914,0.004443703965078427,1.7116836547851575,0.0,0.0,-4.0,0.0791561606458554,0.0012767122684813,0.49178062692674257,0.33301827436382725,0.005371262489737088,2.4778699262142894
14/04/2022,15:56:29,60.776402,-0.7539339928189293,13.65810049790889,1.6220626831054688,3.23223876953125,9.120383765548468e-06,0.002546868985518813,-0.7856225371360779,0.03210839256644249,3.05683970451355,0.8892688751220703,47.641590953631415,-122.14017302010694,123.6197280883789,-0.006261232122378494,0.02023122660635317,-16.978051237463674,0.0,0.0,0.0,0.384513119877092,0.006201824514142479,4.239739444515294,1.799162118458974,0.2755058615151139,0.004443642927661529,1.7779373168945325,0.0,0.0,0.0,0.07644099602851132,0.001232919290781997,0.49330093607544284,0.30807212384858074,0.004968905223360482,3.746438508439851
14/04/2022,15:56:30,60.949407,-0.7539382961113006,13.658488523215055,1.5223922729492188,3.23223876953125,6.838286481070099e-06,0.0018667434342205524,-0.01487184502184391,0.03210839256644249,3.05683970451355,0.8892688751220703,47.64159095710977,-122.14017302010694,123.5223159790039,-0.003475896122123771,0.011176101841518371,-16.978052800905594,0.0,0.0,0.0,0.4298490630444101,0.006933049403939899,2.96873255302596,1.897717820185343,0.2755039068433046,0.004443611400697378,1.8776077270507825,0.0,0.0,0.0,0.07257268279964728,0.0011705271419295096,0.4945956358975483,0.3572763802447628,0.00576252226201039,2.4741369171284116
14/04/2022,15:56:30,61.122433,-0.7539413468912244,13.6587636154145,1.61419677734375,3.23223876953125,4.472166892810492e-06,0.0013585748383775353,1.1238762140274048,0.03210839256644249,3.05683970451355,1.1238762140274048,47.64159095957199,-122.14017302010694,123.61753845214844,-0.0027984098786912417,0.009031769748322597,-16.978052621837953,2.5772446729559673,1.8324327806825789,0.0,2.6533697084952603,1.8336606038364378,0.4934413423555633,1.806935121861736,0.2755025210127874,0.004443589048591434,1.7858032226562512,2.5772446729559673,1.8324327806825789,0.0,0.07612503553929328,0.001227823153859041,0.4934413423555633,0.0,0.0,-0.0
14/04/2022,15:56:30,61.292431,-0.7514585655881092,13.660230491310358,1.802642822265625,3.23223876953125,0.05863698199391365,0.03028501197695732,0.721695601940155,0.05863698199391365,3.05683970451355,1.1238762140274048,47.641590973276976,-122.14017298455516,123.80482482910156,9.01501239452873,-1.5133027928076812,-17.087178467409796,2.2799235069067088,2.7931968786059844,0.0,2.3632339666571673,2.794540595698733,0.4874657646847703,1.6205235441160786,0.2729967322911443,0.004403173101467317,1.5973571777343762,2.2799235069067088,2.7931968786059844,0.0,0.08331045975045878,0.0013437170927484952,0.4874657646847703,0.0,0.0,0.0
14/04/2022,15:56:30,61.467467,-0.7167820069007576,13.681074284948409,1.929931640625,3.23223876953125,0.37830060720443726,0.2522433400154114,0.8104856014251709,0.37830060720443726,3.05683970451355,1.1238762140274048,47.64159116327082,-122.14017250712983,123.93236541748047,13.300617607067085,-5.820011917533185,-17.95054392381445,2.2375767805359446,2.827233656988116,0.0,2.3153526821440056,2.828488107014052,0.4804168572690125,1.489213358350099,0.2379930894303539,0.0038385982166175836,1.4700683593750012,2.2375767805359446,2.827233656988116,0.0,0.07777590160806093,0.0012544500259361307,0.4804168572690125,-0.0,-0.0,-0.0
14/04/2022,15:56:30,61.64147,-0.6241039101732895,13.751542412675917,2.0693511962890625,3.23223876953125,0.694390594959259,0.5553805828094482,0.7499451041221619,0.694390594959259,3.05683970451355,1.1238762140274048,47.64159178128493,-122.1401712779905,124.06935119628906,13.044543243619593,-6.956442924767541,-18.197491392710923,2.225370526844454,2.8368514268907417,0.0,-0.011454721300755644,2.800773600307753,0.16155787542108185,1.3384416679728328,0.14420280913399686,0.0023258517602258166,1.3306488037109387,2.225370526844454,2.8368514268907417,0.0,0.050750210376940164,0.0008185517802732499,0.46830368376113035,-2.28757545852215,-0.03689637836326202,-0.3067458083400485
14/04/2022,15:56:30,61.79547,-0.5092345101293176,13.850271693430841,2.1532440185546875,3.23223876953125,0.8188976049423218,0.752575695514679,0.36521613597869873,0.8188976049423218,3.05683970451355,1.1238762140274048,47.6415926580653,-122.14016973425272,124.15324401855469,4.755964315988436,-8.766308457357265,-18.488901586231925,2.2109133886582795,2.848133070601085,0.0,-0.15123868201663937,2.8100338436547116,1.2068910948634048,1.2470653240633558,0.027771290492687895,0.0004479240402037732,1.2467559814453137,2.2109133886582795,2.848133070601085,0.0,0.010184099195291382,0.00016425966443986444,0.45720189310990234,-2.37233616987021,-0.038263486610813184,0.7496892017535024
14/04/2022,15:56:31,61.967472,-0.37243054423015565,14.010464075952768,2.26641845703125,3.23223876953125,0.7638660669326782,1.1306178569793701,1.1584748029708862,0.8188976049423218,3.05683970451355,1.1584748029708862,47.641594116030824,-122.14016785884567,124.2698745727539,-0.4550059406169658,-8.20073546930046,-18.506494613187737,2.21003874739754,2.8488118110892326,0.0,0.1254432950777331,2.815189303793752,-1.008143574925147,1.1390612310819523,-0.11158017183052099,-0.0017996801908175541,1.1335815429687512,2.21003874739754,2.8488118110892326,0.0,-0.042727900787727244,-0.0006891596901256666,0.43408751669908063,-2.0418675515320794,-0.03293334760535496,-1.4422310916242278
14/04/2022,15:56:31,62.140469,-0.24865194188896567,14.222612152807415,2.4365615844726562,3.23223876953125,0.6889506578445435,1.2701504230499268,0.5579420924186707,0.8188976049423218,3.05683970451355,1.1584748029708862,47.64159601612536,-122.1401661827789,124.43826293945312,-2.211550747252386,-7.986598947382858,-19.17324330384469,2.176738347957409,2.87433647378515,-1.0,-0.29362397217556513,2.83449192023462,-1.227241367016139,0.9925868963387346,-0.23874743533234732,-0.003850765086006902,0.963438415527345,2.176738347957409,2.87433647378515,-1.0,-0.0,-0.0,0.0,-2.470362320132974,-0.039844553550529654,-0.22724136701613898
14/04/2022,15:56:31,62.314469,-0.13729003455955535,14.452530321665108,2.4616851806640625,3.23223876953125,0.6155486106872559,1.3628596067428589,-0.29676109552383423,0.8188976049423218,3.05683970451355,1.1584748029708862,47.641598076028856,-122.14016466930069,124.4608154296875,-2.3777984178843004,-7.053012217265331,-21.288364006150957,2.0691709209501385,2.952715987001519,-1.0,0.10210687517389427,2.9209891475535175,1.0923268677348954,1.0028125696423649,-0.35378777297693265,-0.005706254402854327,0.9383148193359387,2.0691709209501385,2.952715987001519,-1.0,-0.14141504653953077,-0.0022808878474120165,0.3750605418853038,-1.8256489992367135,-0.029445951600590034,1.7172663258495915
14/04/2022,15:56:31,62.484471,-0.047369848820380867,14.700620960444212,2.4378280639648438,3.23223876953125,0.44478145241737366,1.55374276638031,0.36088991165161133,0.8188976049423218,3.05683970451355,1.1584748029708862,47.64160030418317,-122.14016344243419,124.43888092041016,-1.6808981153152631,-5.040177457504624,-24.097140210493556,1.9219938753371293,3.050563807424222,-1.0,-0.614790960992651,3.0096479229672894,-0.21255823358569587,1.0612487111584656,-0.44768499367542186,-0.007220725704442543,0.9621719360351575,1.9219938753371293,3.050563807424222,-1.0,-0.17602517327013464,-0.002839115697905498,0.37831619140453626,-2.3607596630596457,-0.0380767687590274,0.4091255750097678
14/04/2022,15:56:31,62.669471,0.019961111596785486,14.986483472399414,2.4927597045898438,3.23223876953125,0.35893404483795166,1.6863614320755005,0.11576880514621735,0.8188976049423218,3.05683970451355,1.1584748029708862,47.64160287286465,-122.14016250737554,124.49311065673828,0.644768259244549,-7.632404400731021,-27.26787472290792,1.7503202781609193,3.1522022339720976,-1.0,-0.5993553324210699,3.1143042402530243,0.48019535792550294,1.0455369870040914,-0.5196079293281682,-0.008380773053682233,0.9072402954101575,1.7503202781609193,3.1522022339720976,-1.0,-0.20527561850155904,-0.0033108970726066214,0.3584131462555826,-2.14439999208043,-0.0345870966464667,1.1217822116699203
14/04/2022,15:56:31,62.837468,0.07145527726970613,15.292515186592937,2.510009765625,3.23223876953125,0.28174227476119995,1.902529001235962,0.09189417958259583,0.8188976049423218,3.05683970451355,1.1584748029708862,47.641605626823996,-122.14016177978726,124.51029205322266,1.8384588693800512,-7.770440247597677,-30.539203913433987,1.5675894402165778,3.246946773034858,-1.0,-0.7173633757205506,3.210092695358446,0.5606936761449376,1.060175413805968,-0.5760234141465572,-0.009290700228172355,0.8899902343750012,1.5675894402165778,3.246946773034858,-1.0,-0.22656147288556275,-0.003654217304606667,0.35005087189470563,-2.0583913430515657,-0.03319986037180533,1.210642804250232
14/04/2022,15:56:32,63.011471,0.11181136954110116,15.647924306802452,2.5238113403320312,3.23223876953125,0.21853110194206238,2.1169919967651367,0.06085151061415672,0.8188976049423218,3.05683970451355,1.1584748029708862,47.6416087691086,-122.14016120138258,124.52381134033203,2.258061166321987,-6.6672356983750305,-33.97626964500362,1.3701083304774386,3.335086679946464,-1.0,-0.8402551837108492,3.2994356555240625,0.6593804898526877,1.0746234515074753,-0.6220999249773069,-0.01003386975769871,0.87618865966797,1.3701083304774386,3.335086679946464,-1.0,-0.24357696216551003,-0.0039286606800889535,0.3430628480040071,-1.9667865520227779,-0.031722363742312354,1.3163176418486806
14/04/2022,15:56:32,63.185471,0.1409545496571809,16.02471233252436,2.5315704345703125,3.23223876953125,0.17082326114177704,2.293447494506836,0.02999361976981163,0.8188976049423218,3.05683970451355,1.1584748029708862,47.6416122178403,-122.14016075094874,124.53166198730469,2.2838241650490403,-5.387033011847151,-37.32205316724596,1.1731314634866434,3.4093639537863494,-1.0,-0.9664271805125919,3.374854943399258,0.7576783516205441,1.0891924917082276,-0.6573111712610438,-0.010601793084859423,0.8684295654296887,1.1731314634866434,3.4093639537863494,-1.0,-0.25614438615825064,-0.00413136106707007,0.338414084050799,-1.8834142578409847,-0.03037764932002148,1.419264267569745
14/04/2022,15:56:32,63.352469,0.16250035329721868,16.42887945007533,2.534759521484375,3.23223876953125,0.13330063223838806,2.437783718109131,0.008149569854140282,0.8188976049423218,3.05683970451355,1.1584748029708862,47.64161579009926,-122.14016041130532,124.53475952148438,2.140688947103656,-4.221989088241662,-40.688596028426176,0.9708973498929341,3.4723707083159883,-1.0,-1.1109393244506371,3.4387926974394767,0.8315922760246851,1.1038538242030396,-0.6853685003847019,-0.011054330651365518,0.8652404785156262,0.9708973498929341,3.4723707083159883,-1.0,-0.2657598035697794,-0.004286448444673613,0.33550730662682116,-1.8160768707737918,-0.029291562431838343,1.496084969397864
14/04/2022,15:56:32,63.527468,0.17538475815672427,16.847740698605776,2.5389862060546875,3.23223876953125,0.049797527492046356,2.5551466941833496,0.060057032853364944,0.8188976049423218,3.05683970451355,1.1584748029708862,47.64161962604891,-122.14016017590517,124.5391616821289,-0.8475976022687369,-5.943499648226913,-44.070343840142506,0.764377207269439,3.5235958174863033,-1.0,-1.195824569431371,3.4919796597975763,0.7425639267999777,1.1128810193499785,-0.7050036238408338,-0.011371026190985845,0.8610137939453137,0.764377207269439,3.5235958174863033,-1.0,-0.27252000272936755,-0.0043954839149915985,0.33282592250756243,-1.6876817739714425,-0.02722067377373542,1.4097380042924152
14/04/2022,15:56:32,63.697469,0.1658770163776353,17.291933081112802,2.5519790649414062,3.23223876953125,-0.11321572214365005,2.64790940284729,0.08130103349685669,0.8188976049423218,3.05683970451355,1.1584748029708862,47.64162355442905,-122.1401602389377,124.5519790649414,-1.769080698355877,-6.280729043096256,-47.5083722344878,0.5516953050633762,3.5630930791057125,-1.0,0.2789978855304789,3.5586947336293737,-0.6708894351330157,1.101362913680196,-0.7026608847814366,-0.011333240077124884,0.848020935058595,0.5516953050633762,3.5630930791057125,-1.0,-0.2726974195328973,-0.00439834547633897,0.32911056486698426,-0.0,-0.0,0.0
14/04/2022,15:56:33,63.862468,0.1305036706617102,17.74939796887338,2.5561599731445312,3.23223876953125,-0.22158119082450867,2.7153735160827637,-0.020583903416991234,0.8188976049423218,3.05683970451355,1.1584748029708862,47.64162774681253,-122.14016065114309,124.55609893798828,0.8460870072548581,-2.699281243883911,-50.97630530454272,0.33515390031212844,3.589940370410847,-1.0,0.07148796695688275,3.5856876940664075,-0.6702227982793059,1.0804482624014322,-0.6746732858501336,-0.010881827191131066,0.84384002685547,0.33515390031212844,3.589940370410847,-1.0,-0.2636659333552457,-0.004252676344439399,0.3297772017206942,-0.0,-0.0,0.0
14/04/2022,15:56:33,64.010471,0.09277864615432918,18.14284250419587,2.5532150268554688,3.23223876953125,-0.23372825980186462,2.763455629348755,-0.017786256968975067,0.8188976049423218,3.05683970451355,1.1584748029708862,47.64163129159641,-122.14016109576536,124.55316162109375,1.785159561607335,-0.8650619419502446,-53.82676799628996,0.1562135011040433,3.6021656461180154,-1.0,-0.09655167184180685,3.598088788489856,-0.6672827852020189,1.0634802774824754,-0.6433023019707114,-0.010375843580174404,0.8467849731445325,0.1562135011040433,3.6021656461180154,-1.0,-0.25276517294585016,-0.004076857628159518,0.33271721479798105,-0.0,-0.0,0.0
