date,fly_time,fly_time_s,x,y,z,z_max,vx,vy,vz,vx_max,vy_max,vz_max,latitude,longitude,altitude,pitch,roll,yaw,cx,cy,cz,scx,scy,scz,d,dx,dy,dz,gc_pow_x,gc_pow_y,gc_pow_z,gpc_pow_x,gpc_pow_y,gpc_pow_z,gfc_pow_x,gfc_pow_y,gfc_pow_z
22/04/2022,13:14:43,24.338644,0.0,0.0,2.5093841552734375,2.5093841552734375,0.0,0.0,-0.010157197713851929,0,0,0,47.641468,-122.140165,124.50938415527344,0.0,0.0,0.0,0.0,0.0,0.0,0.0,0.0,0.0,0.9272413692616439,-0.25799739921976594,-0.004161248374512427,0.8906158447265637,0.0,0.0,0.0,-0.0,-0.0,0.0,-0.0,-0.0,0.0
22/04/2022,13:14:43,24.494647,0.0,0.0,2.507965087890625,2.5093841552734375,0.0,0.0,-0.00909003708511591,0,0,0,47.641468,-122.140165,124.50794219970703,0.0,0.0,0.0,0.0,0.0,0.0,0.0,0.0,0.0,0.928604468228632,-0.25799739921976594,-0.004161248374512427,0.8920349121093762,0.0,0.0,0.0,-0.0,-0.0,0.0,-0.0,-0.0,0.0
22/04/2022,13:14:43,24.648166,0.0,0.0,2.506622314453125,2.5093841552734375,0.0,0.0,-0.008131390437483788,0,0,0,47.641468,-122.140165,124.50659942626953,0.0,0.0,0.0,0.0,0.0,0.0,0.0,0.0,0.0,0.929894436495504,-0.25799739921976594,-0.004161248374512427,0.8933776855468762,0.0,0.0,0.0,-0.0,-0.0,0.0,-0.0,-0.0,0.0
22/04/2022,13:14:43,24.841168,0.0,0.0,2.5051803588867188,2.5093841552734375,0.0,0.0,-0.0071706329472362995,0,0,0,47.641468,-122.140165,124.50515747070312,0.0,0.0,0.0,0.0,0.0,0.0,0.0,0.0,0.0,0.9312798527372432,-0.25799739921976594,-0.004161248374512427,0.8948196411132825,0.0,0.0,0.0,-0.0,-0.0,0.0,-0.0,-0.0,0.0
22/04/2022,13:14:43,25.031168,0.0,0.0,2.5039138793945312,2.5093841552734375,0.0,0.0,-0.006401717662811279,0,0,0,47.641468,-122.140165,124.50389862060547,0.0,0.0,0.0,0.0,0.0,0.0,0.0,0.0,0.0,0.9324968147580766,-0.25799739921976594,-0.004161248374512427,0.89608612060547,0.0,0.0,0.0,-0.0,-0.0,0.0,-0.0,-0.0,0.0
22/04/2022,13:14:44,25.217167,0.0,0.0,2.50274658203125,2.5093841552734375,0.0,0.0,-0.005757142789661884,0,0,0,47.641468,-122.140165,124.50274658203125,0.0,0.0,0.0,0.0,0.0,0.0,0.0,0.0,0.0,0.9336185891726901,-0.25799739921976594,-0.004161248374512427,0.8972534179687512,0.0,0.0,0.0,-0.0,-0.0,0.0,-0.0,-0.0,0.0
22/04/2022,13:14:44,25.369168,0.0,0.0,2.5019149780273438,2.5093841552734375,0.0,0.0,-0.005340119358152151,0,0,0,47.641468,-122.140165,124.50189971923828,0.0,0.0,0.0,0.0,0.0,0.0,0.0,0.0,0.0,0.9344178298190945,-0.25799739921976594,-0.004161248374512427,0.8980850219726575,0.0,0.0,0.0,-0.0,-0.0,0.0,-0.0,-0.0,0.0
22/04/2022,13:14:44,25.55817,0.0,0.0,2.500946044921875,2.5093841552734375,0.0,0.0,-0.004904221277683973,0,0,0,47.641468,-122.140165,124.50093078613281,0.0,0.0,0.0,0.0,0.0,0.0,0.0,0.0,0.0,0.9353491263340225,-0.25799739921976594,-0.004161248374512427,0.8990539550781262,0.0,0.0,0.0,-0.0,-0.0,0.0,-0.0,-0.0,0.0
22/04/2022,13:14:44,25.747166,0.0,0.0,2.5000686645507812,2.5093841552734375,0.0,0.0,-0.004555329214781523,0,0,0,47.641468,-122.140165,124.50005340576172,0.0,0.0,0.0,0.0,0.0,0.0,0.0,0.0,0.0,0.9361924922341635,-0.25799739921976594,-0.004161248374512427,0.89993133544922,0.0,0.0,0.0,-0.0,-0.0,0.0,-0.0,-0.0,0.0
22/04/2022,13:14:44,25.903165,0.0,0.0,2.4993743896484375,2.5093841552734375,0.0,0.0,-0.004313141107559204,0,0,0,47.641468,-122.140165,124.49937438964844,0.0,0.0,0.0,0.0,0.0,0.0,0.0,0.0,0.0,0.9368598956158409,-0.25799739921976594,-0.004161248374512427,0.9006256103515637,0.0,0.0,0.0,-0.0,-0.0,0.0,-0.0,-0.0,0.0
22/04/2022,13:14:44,26.09217,0.0,0.0,2.49859619140625,2.5093841552734375,0.0,0.0,-0.004073853138834238,0,0,0,47.641468,-122.140165,124.49859619140625,0.0,0.0,0.0,0.0,0.0,0.0,0.0,0.0,0.0,0.9376080205179123,-0.25799739921976594,-0.004161248374512427,0.9014038085937512,0.0,0.0,0.0,-0.0,-0.0,0.0,-0.0,-0.0,0.0
22/04/2022,13:14:45,26.244168,0.0,0.0,2.49798583984375,2.5093841552734375,0.0,0.0,-0.003910630010068417,0,0,0,47.641468,-122.140165,124.49797058105469,0.0,0.0,0.0,0.0,0.0,0.0,0.0,0.0,0.0,0.9381948193816596,-0.25799739921976594,-0.004161248374512427,0.9020141601562512,0.0,0.0,0.0,-0.0,-0.0,0.0,-0.0,-0.0,0.0
22/04/2022,13:14:45,26.430167,0.0,0.0,2.4972763061523438,2.5093841552734375,0.0,0.0,-0.0037456369027495384,0,0,0,47.641468,-122.140165,124.49727630615234,0.0,0.0,0.0,0.0,0.0,0.0,0.0,0.0,0.0,0.9388770108092735,-0.25799739921976594,-0.004161248374512427,0.9027236938476575,0.0,0.0,0.0,-0.0,-0.0,0.0,-0.0,-0.0,0.0
22/04/2022,13:14:45,26.58117,0.0,0.0,2.4967193603515625,2.5093841552734375,0.0,0.0,-0.0036353340838104486,0,0,0,47.641468,-122.140165,124.49671173095703,0.0,0.0,0.0,0.0,2.0,0.0,0.0,2.0,0.0,0.9394125227800034,-0.25799739921976594,-0.004161248374512427,0.9032806396484387,0.0,2.0,0.0,-0.0,-0.0,0.0,-0.0,-0.0,0.0
22/04/2022,13:14:45,26.744749,-3.975245635956526e-05,0.0035844985395669937,2.5024566650390625,2.5093841552734375,3.5897166315856932e-12,0.09555499255657196,0.1491370052099228,3.5897166315856932e-12,0.09555499255657196,0.1491370052099228,47.6414680347696,-122.140165,124.50289154052734,1.0947830554159497e-09,-7.27389460023939,-8.967238777233043e-09,-7.825392073761348e-10,5.0,0.0,-7.825392073761348e-10,5.0,0.0,0.9339022070687538,-0.2580154565584413,-0.004161539621910515,0.8975433349609387,-7.825392073761348e-10,5.0,0.0,-0.0,-0.0,0.0,-0.0,-0.0,0.0
22/04/2022,13:14:45,26.925748,-0.000736346235498786,0.06639659497886896,2.5803909301757812,2.5803909301757812,-7.24243512384426e-11,0.7712868452072144,0.8626084327697754,3.5897166315856932e-12,0.7712868452072144,0.8626084327697754,47.64146861797339,-122.140165,124.58295440673828,-2.3949506508197377e-09,-21.780725749858167,-1.0456242154221316e-09,-9.124792648849332e-11,5.0,0.0,-9.124792648849332e-11,5.0,0.0,0.8593670623514146,-0.2583318787930904,-0.004166643206340193,0.81960906982422,-9.124792648849332e-11,5.0,0.0,-0.0,-0.0,0.0,-0.0,-0.0,-0.0
22/04/2022,13:14:45,27.078748,-0.002819505869410932,0.25423581805080175,2.7664642333984375,2.7664642333984375,-1.8334440909928418e-10,1.7176138162612915,1.5353909730911255,3.5897166315856932e-12,1.7176138162612915,1.5353909730911255,47.641470333657146,-122.140165,124.77106475830078,-1.983505442566071e-09,-24.32419150043673,-1.395888997403361e-09,-1.2181429498525615e-10,5.0,0.0,-0.3262449494187162,4.99473798468876,-2.5268938180816143,0.684551100123499,-0.25927813788221954,-0.004181905449713197,0.6335357666015637,-1.2181429498525615e-10,5.0,0.0,-0.0,-0.0,0.0,-0.3262449492969019,-0.005262015311240637,-2.5268938180816143
22/04/2022,13:14:46,27.266753,-0.006809546612203121,0.6140191415324807,2.9926300048828125,2.9926300048828125,-2.2426024925970012e-10,2.1464335918426514,0.7320931553840637,3.5897166315856932e-12,2.1464335918426514,1.5353909730911255,47.641473582626425,-122.140165,124.9948501586914,1.237114833030397e-08,-21.53267117060779,-3.62053617157807e-08,-3.1595138440793828e-09,5.0,0.0,-0.6396650465685285,4.9896828218805,-2.0465732464791078,0.48387636733284306,-0.26109058247014433,-0.004211138426938099,0.40736999511718874,-3.1595138440793828e-09,5.0,0.0,-0.0,-0.0,0.0,-0.6396650434090146,-0.010317178119500102,-2.0465732464791078
22/04/2022,13:14:46,27.418748,-0.01064929983112961,0.9602509718388319,3.0445556640625,3.0445556640625,-1.9728138567209896e-10,2.390510320663452,-0.0768098309636116,3.5897166315856932e-12,2.390510320663452,1.5353909730911255,47.641476704553455,-122.140165,125.04434204101562,3.4506034930606746e-08,-17.819798820236958,-9.356951375191622e-08,-8.165480472305254e-09,5.0,0.0,-8.165480472305254e-09,5.0,0.0,0.4420868221958573,-0.26283475987077903,-0.004239270320496535,0.35544433593750124,-8.165480472305254e-09,5.0,0.0,-0.0,-0.0,0.0,-0.0,-0.0,0.0
22/04/2022,13:14:46,27.604749,-0.016162905492819846,1.4574146075174212,3.0466079711914062,3.0466079711914062,3.171950757607789e-10,2.9970710277557373,0.19435082376003265,3.171950757607789e-10,2.9970710277557373,1.5353909730911255,47.641481194254986,-122.140165,125.04719543457031,7.853073280421027e-08,-15.211160293306868,-2.1833250345637804e-07,-1.9053105247178484e-08,5.0,0.0,-1.9053105247178484e-08,5.0,0.0,0.4419379710914851,-0.26533927098873356,-0.0042796656611086,0.353392028808595,-1.9053105247178484e-08,5.0,0.0,-0.0,-0.0,0.0,-0.0,-0.0,-0.0
22/04/2022,13:14:46,27.799749,-0.022995448438450694,2.0735072093084455,3.0755844116210938,3.0755844116210938,1.453515530158711e-09,3.4251322746276855,0.09129238873720169,1.453515530158711e-09,3.4251322746276855,1.5353909730911255,47.64148674932283,-122.140165,125.07585906982422,1.3116119781455992e-07,-12.456015716300792,-3.771880764605565e-07,-1.3166347667001661e-08,2.0,0.0,-1.3166347667001661e-08,2.0,0.0,0.42110071245822195,-0.26844289809615585,-0.004329724162841497,0.3244155883789075,-1.3166347667001661e-08,2.0,0.0,-0.0,-0.0,0.0,-0.0,-0.0,0.0
22/04/2022,13:14:46,27.98275,-0.030256172525696456,2.728208975866437,3.0531997680664062,3.0755844116210938,2.4690991473619306e-09,3.5501785278320312,-0.27838510274887085,2.4690991473619306e-09,3.5501785278320312,1.5353909730911255,47.64149254799858,-122.140165,125.0531997680664,-2.0661515153063123e-08,2.0044881299023776,-5.264140542895212e-07,-9.187658476124323e-09,1.0,0.0,-9.187658476124323e-09,1.0,0.0,0.44060503157940933,-0.27174102192846344,-0.004382919708524113,0.346800231933595,-9.187658476124323e-09,1.0,0.0,-0.0,-0.0,0.0,-0.0,-0.0,0.0
22/04/2022,13:14:47,28.168747,-0.03744813974481076,3.376710856333375,3.0388946533203125,3.0755844116210938,8.604054690941609e-10,3.2458672523498535,0.1594998836517334,2.4690991473619306e-09,3.5501785278320312,1.5353909730911255,47.641498470688475,-122.140165,125.03936767578125,-2.3289789519728368e-07,11.35190278564827,-7.208548376672075e-07,-6.290645173111006e-08,4.999999999999999,0.0,-6.290645173111006e-08,4.999999999999999,0.0,0.45392300893192505,-0.27500791259131774,-0.004435611493407876,0.36110534667968874,-6.290645173111006e-08,4.999999999999999,0.0,-0.0,-0.0,0.0,-0.0,-0.0,0.0
22/04/2022,13:14:47,28.35575,-0.04387971048709005,3.956647504121065,3.0357513427734375,3.0755844116210938,-4.2713943493311035e-09,3.064272880554199,-0.21443311870098114,2.4690991473619306e-09,3.5501785278320312,1.5353909730911255,47.64150368388487,-122.140165,125.03511047363281,-3.2598443605162916e-07,0.44471989167667586,-7.875591892542553e-07,-6.87275045341195e-08,4.999999999999999,0.0,-6.87275045341195e-08,4.999999999999999,0.0,0.45819420539972827,-0.2779293987368353,-0.004482732237691245,0.36424865722656374,-6.87275045341195e-08,4.999999999999999,0.0,-0.0,-0.0,0.0,-0.0,-0.0,0.0
22/04/2022,13:14:47,28.545749,-0.05033372715115547,4.5386078879237175,3.0046768188476562,3.0755844116210938,-1.704317753592477e-08,3.1318540573120117,-0.1099240779876709,2.4690991473619306e-09,3.5501785278320312,1.5353909730911255,47.64150883768539,-122.14016500000002,125.00467681884766,-3.6245782311801993e-07,-4.151266596809912,-9.030714857890889e-07,-7.880785403948391e-08,4.999999999999999,-1.0,-7.880785403948391e-08,4.999999999999999,-1.0,0.4849576098040037,-0.2808610772125433,-0.004530017374396955,0.395323181152345,-7.880785403948391e-08,4.999999999999999,-1.0,-0.0,-0.0,0.0,-0.0,-0.0,0.0
22/04/2022,13:14:47,28.736753,-0.057080066530033946,5.147285180166364,2.9282913208007812,3.0755844116210938,0.00011251631076447666,3.213083505630493,-0.8578733801841736,0.00011251631076447666,3.5501785278320312,1.5353909730911255,47.641514401046095,-122.1401649999428,124.92574310302734,0.18323428029286798,-5.204408770866221,-2.0375748319142897,-0.17777447092563492,4.996838624319092,0.0,-0.6151013012129041,4.98978496576607,2.4669655278416873,0.5505879055350872,-0.28393131480594647,-0.004579537335580142,0.47170867919922,-0.17777447092563492,4.996838624319092,0.0,-0.0,-0.0,0.0,-0.4373268302872691,-0.007053658553021857,2.4669655278416873
22/04/2022,13:14:47,28.92675,-0.06377110129687935,5.758931547403336,2.7976226806640625,3.0755844116210938,0.0011075763031840324,3.3935484886169434,-0.23599979281425476,0.0011075763031840324,3.5501785278320312,1.5353909730911255,47.64151990937518,-122.14016499867593,124.79689025878906,0.4125963168990423,-3.8509305191762886,-6.079193836769027,-0.5295149219064839,4.971882334436161,0.0,-1.291047493668311,4.959599551020645,2.0517924057734453,0.6673147666603855,-0.2871047184795325,-0.004630721265799664,0.6023773193359387,-0.5295149219064839,4.971882334436161,0.0,-0.0,-0.0,0.0,-0.7615325717618272,-0.01228278341551672,2.0517924057734453
22/04/2022,13:14:47,29.076749,-0.0711052977712825,6.27656137291342,2.8182296752929688,3.0755844116210938,-0.05081040412187576,3.520456314086914,0.5529869794845581,0.0011075763031840324,3.5501785278320312,1.5353909730911255,47.64152457051602,-122.14016502191468,124.81986236572266,-2.8101323032078436,-3.585223812208132,-7.884057309709718,-0.6858446452385709,4.952738345864597,0.0,-0.6858446452385709,4.952738345864597,0.0,0.6492233336893539,-0.28811912626471314,-0.004647082681690229,0.5817703247070325,-0.6858446452385709,4.952738345864597,0.0,-0.0,-0.0,0.0,-0.0,-0.0,-0.0
22/04/2022,13:14:48,29.229748,-0.09112507593818009,6.819374036043882,2.9048233032226562,3.0755844116210938,-0.115260049700737,3.58172345161438,0.4065595865249634,0.0011075763031840324,3.58172345161438,1.5353909730911255,47.64152945771746,-122.14016521090142,124.90604400634766,-0.8911971198625237,-3.241725077535875,-8.928740633152874,-0.7760297296794283,4.939410679286921,0.0,-0.7760297296794283,4.939410679286921,0.0,0.5673357711716052,-0.27685732076160113,-0.004465440657445363,0.495176696777345,-0.7760297296794283,4.939410679286921,0.0,-0.0,-0.0,0.0,-0.0,-0.0,-0.0
22/04/2022,13:14:48,29.407755,-0.12084085203241557,7.468974245712161,2.96783447265625,3.0755844116210938,-0.12762294709682465,3.652088165283203,0.30865195393562317,0.0011075763031840324,3.652088165283203,1.5353909730911255,47.641535306866835,-122.14016551108872,124.96876525878906,0.600729287922612,-2.6759494542549183,-9.553140377741663,-0.8298114477175776,4.930660499490597,0.0,-0.8298114477175776,4.930660499490597,0.0,0.5031445312156991,-0.25762397087686567,-0.0041552253367243,0.43216552734375124,-0.8298114477175776,4.930660499490597,0.0,-0.0,-0.0,0.0,-0.0,-0.0,-0.0
22/04/2022,13:14:48,29.554275,-0.14494238561019301,8.008398862555623,3.0097732543945312,3.0755844116210938,-0.11632619798183441,3.7022547721862793,0.2613714039325714,0.0011075763031840324,3.7022547721862793,1.5353909730911255,47.641540063923024,-122.14016574718828,125.00977325439453,0.964522405711805,-2.261177617163125,-9.80869886862714,-0.8517955283637503,4.926910226283763,0.0,-0.8517955283637503,4.926910226283763,0.0,0.4593103729204556,-0.24222683984209792,-0.003906884513583009,0.39022674560547,-0.8517955283637503,4.926910226283763,0.0,-0.0,-0.0,0.0,-0.0,-0.0,-0.0
22/04/2022,13:14:48,29.704274,-0.1669344047550112,8.554614974185824,3.0452728271484375,3.0755844116210938,-0.09900257736444473,3.744027614593506,0.2209298312664032,0.0011075763031840324,3.744027614593506,1.5353909730911255,47.64154508117201,-122.14016596327724,125.04593658447266,1.0087919060730453,-1.916082321818377,-9.9469332454558,-0.8636799231407406,4.924840808631646,0.0,-0.8636799231407406,4.924840808631646,0.0,0.42226542230175734,-0.22904818635143254,-0.003694325586314662,0.35472717285156374,-0.8636799231407406,4.924840808631646,0.0,-0.0,-0.0,0.0,-0.0,-0.0,-0.0
22/04/2022,13:14:48,29.886279,-0.18999959935899824,9.219646753743291,3.0807647705078125,3.0807647705078125,-0.07752521336078644,3.7842257022857666,0.1801019310951233,0.0011075763031840324,3.7842257022857666,1.5353909730911255,47.641551067670854,-122.14016617128448,125.08130645751953,0.8993626326953292,-1.5875584223352568,-10.032134264282734,-0.87100239244797,4.923551038869193,0.0,-0.87100239244797,4.923551038869193,0.0,0.3858596449094782,-0.2167125198429375,-0.0034953632232745946,0.31923522949218874,-0.87100239244797,4.923551038869193,0.0,-0.0,-0.0,0.0,-0.0,-0.0,-0.0
22/04/2022,13:14:48,30.030278,-0.20675032178405672,9.788249623030424,3.1056594848632812,3.1056594848632812,-0.06125207245349884,3.8110108375549316,0.1514441817998886,0.0011075763031840324,3.8110108375549316,1.5353909730911255,47.641556082939644,-122.14016630722021,125.10565948486328,0.7673638296134736,-1.371434443063051,-10.068383501758506,-0.6992937550366001,3.9383991981726294,0.0,-0.6992937550366001,3.9383991981726294,0.0,0.3610887346529167,-0.20913478275421904,-0.003373141657325718,0.29434051513672,-0.6992937550366001,3.9383991981726294,0.0,-0.0,-0.0,0.0,-0.0,-0.0,-0.0
22/04/2022,13:14:49,30.178275,-0.22099871549289674,10.347763444297016,3.1256332397460938,3.1256332397460938,-0.0477585606276989,3.79632306098938,0.13473515212535858,0.0011075763031840324,3.8110108375549316,1.5353909730911255,47.64156111816015,-122.14016641429424,125.1256332397461,0.02779873037827959,2.2405668206395553,-10.063060361803494,-0.5241958873858595,2.953848112487802,0.0,-0.5241958873858595,2.953848112487802,0.0,0.3418597764085675,-0.20391216415909486,-0.003288905873535697,0.2743667602539075,-0.5241958873858595,2.953848112487802,0.0,-0.0,-0.0,0.0,-0.0,-0.0,0.0
22/04/2022,13:14:49,30.361275,-0.23550053359940648,11.005894033238292,3.161041259765625,3.161041259765625,-0.03344615921378136,3.6090784072875977,0.290754497051239,0.0011075763031840324,3.8110108375549316,1.5353909730911255,47.641567137963925,-122.14016651152495,125.16191101074219,-1.0962616364398379,7.969949437666856,-10.120701056075648,-0.35144483439930607,1.9688795108827875,0.0,-0.35144483439930607,1.9688795108827875,0.0,0.31164440532557686,-0.20002636642513794,-0.0032262317165372423,0.23895874023437624,-0.35144483439930607,1.9688795108827875,0.0,-0.0,-0.0,0.0,-0.0,-0.0,-0.0
22/04/2022,13:14:49,30.532275,-0.24713078083004802,11.613387704826891,3.235931396484375,3.235931396484375,-0.021797820925712585,3.2197766304016113,0.5686112642288208,0.0011075763031840324,3.8110108375549316,1.5353909730911255,47.64157259413067,-122.14016657619558,125.23763275146484,-2.065477122397532,12.89947554896626,-10.253518381860376,-1.8740496310881656,4.7421448712811705,0.0,-2.3900409013751065,4.7338224314378285,-1.9429062639864623,0.25731291499258324,-0.1981948806732282,-0.00319669162376357,0.16406860351562624,-1.8740496310881656,4.7421448712811705,0.0,-0.0,-0.0,0.0,-0.5159912702869409,-0.008322439843341856,-1.9429062639864623
22/04/2022,13:14:49,30.680276,-0.25587748119141906,12.058340772986412,3.2990264892578125,3.2990264892578125,-0.049587175250053406,3.0237691402435303,0.12102730572223663,0.0011075763031840324,3.8110108375549316,1.5353909730911255,47.64157659276187,-122.14016662801762,125.2994155883789,-7.3536346279876135,3.1681455800067626,-9.436702062251877,-1.3143831352386928,1.8089767753622774,0.0,-1.3143831352386928,1.8089767753622774,0.0,0.2210592609126413,-0.19662525103389927,-0.0031713750166773025,0.10097351074218874,-1.3143831352386928,1.8089767753622774,0.0,-0.0,-0.0,0.0,-0.0,-0.0,-0.0
22/04/2022,13:14:49,30.853275,-0.28977767762262374,12.589793919585645,3.31109619140625,3.31109619140625,-0.28884848952293396,2.8360397815704346,0.2243710309267044,0.0011075763031840324,3.8110108375549316,1.5353909730911255,47.64158129598171,-122.14016699889282,125.31109619140625,-7.7694099697815675,7.308882053051391,-10.164557720342325,-4.921524807668287,-0.8823794917752978,0.0,-4.921524807668287,-0.8823794917752978,0.0,0.19301916717746073,-0.1713034669006357,-0.00276295914355984,0.08890380859375124,-4.921524807668287,-0.8823794917752978,0.0,-0.0,-0.0,0.0,0.0,0.0,-0.0
22/04/2022,13:14:49,31.007275,-0.3530257917009294,12.97492462117225,3.365570068359375,3.365570068359375,-0.6263824105262756,2.456329584121704,0.687626302242279,0.0011075763031840324,3.8110108375549316,1.5353909730911255,47.6415848335483,-122.14016780882537,125.36760711669922,-17.08876873643764,10.64789471929037,-10.856461996011772,-4.910510596569432,-0.9417460809471552,0.0,-3.368783848174767,-0.9168795204891822,-1.9521217762490375,0.11936995839657785,-0.114281972227388,-0.0018432576165707815,0.03442993164062624,-4.910510596569432,-0.9417460809471552,0.0,-0.0,-0.0,0.0,1.5417267483946646,0.02486656045797295,-1.9521217762490375
22/04/2022,13:14:50,31.191273,-0.5121867425041273,13.38587866909802,3.470794677734375,3.470794677734375,-1.0224952697753906,2.0855886936187744,0.2632586359977722,0.0011075763031840324,3.8110108375549316,1.5353909730911255,47.641588536642914,-122.1401698828825,125.47159576416016,-18.125313221574476,12.422644118995098,-11.453075789135342,-1.9601753094295944,-0.39713065394476166,0.0,0.43699707929853115,-0.35846658315882673,-0.7104557446520381,0.0804509046335965,0.038211017087591226,0.0006163067272186851,-0.07079467773437376,-1.9601753094295944,-0.39713065394476166,0.0,0.0,0.0,-0.0,2.3971723887281255,0.038664070785934895,-0.7104557446520381
22/04/2022,13:14:50,31.364273,-0.7225447240052745,13.708601154386997,3.5095443725585938,3.5095443725585938,-1.2947300672531128,1.621726393699646,0.30603763461112976,0.0011075763031840324,3.8110108375549316,1.5353909730911255,47.64159144858723,-122.14017264656422,125.51045989990234,-3.839611279398195,12.883788397762435,-11.579122329665251,0.0,0.0,0.0,2.7406663632286876,0.0442042961811065,-0.7114615577806832,0.2668620263562581,0.24331044148355824,0.003924361959409595,-0.1095443725585925,0.0,0.0,0.0,0.0,0.0,-0.0,2.7406663632286876,0.0442042961811065,-0.7114615577806832
22/04/2022,13:14:50,31.514276,-0.9089013015618548,13.917629799805582,3.572845458984375,3.572845458984375,-1.109596848487854,1.225180983543396,0.6911516189575195,0.0011075763031840324,3.8110108375549316,1.5353909730911255,47.64159333707401,-122.14017508930009,125.57490539550781,9.319157808626914,13.18526295509172,-11.571948437941462,0.0,0.0,-5.0,2.621707584299556,0.04228560619837975,-6.564910926712382,0.4600110590025841,0.42624799885977216,0.006874967723542014,-0.17284545898437376,0.0,0.0,-5.0,0.0,0.0,-0.0,2.621707584299556,0.04228560619837975,-1.5649109267123815
22/04/2022,13:14:50,31.692276,-1.0760722900740802,14.108242301270366,3.66802978515625,3.66802978515625,-0.7654739618301392,0.9870619773864746,0.09779868274927139,0.0011075763031840324,3.8110108375549316,1.5353909730911255,47.64159506215617,-122.14017727275414,125.66835021972656,21.262422548772452,18.20408254014686,-10.44974319578682,0.0,0.0,-5.0,2.44165585320852,0.03938154601948778,-5.54188966869399,0.6483725511893154,0.5903019142694413,0.009520998617247756,-0.26802978515624876,0.0,0.0,-5.0,0.0,0.0,-0.0,2.44165585320852,0.03938154601948778,-0.5418896686939899
22/04/2022,13:14:50,31.855277,-1.1780517254956067,14.259852513670921,3.608123779296875,3.66802978515625,-0.38652369379997253,0.7966066598892212,-0.829622745513916,0.0011075763031840324,3.8110108375549316,1.5353909730911255,47.64159640968692,-122.1401785772006,125.60812377929688,23.14842694159345,18.795710588884916,-11.772956804935447,0.0,0.0,0.0,1.758994803969289,0.02837088393498508,1.7763226517709787,0.7206089923760532,0.6898101370500689,0.011125969952418657,-0.20812377929687376,0.0,0.0,0.0,0.0,0.0,-0.0,1.758994803969289,0.02837088393498508,1.7763226517709787
22/04/2022,13:14:50,31.99428,-1.2004170764703304,14.352266860194504,3.4810714721679688,3.66802978515625,0.1499812752008438,0.5356283187866211,-0.7544407844543457,0.1499812752008438,3.8110108375549316,1.5353909730911255,47.641597257871695,-122.14017885552938,125.4787826538086,11.959289175327665,11.43868678528046,-15.891808907209569,0.0,0.0,0.0,0.6456897156093709,0.010414350251761857,2.3427517029226044,0.7153805511472034,0.7106795049726634,0.01146257266084838,-0.0810714721679675,0.0,0.0,0.0,0.0,0.0,-0.0,0.6456897156093709,0.010414350251761857,2.3427517029226044
22/04/2022,13:14:51,32.166278,-1.1362600995926186,14.423484434373677,3.4232940673828125,3.66802978515625,0.5073703527450562,0.2985368072986603,0.16815809905529022,0.5073703527450562,3.8110108375549316,1.5353909730911255,47.64159787767061,-122.14017799670566,125.42329406738281,0.9414501661286123,3.7483379228130107,-18.20546703403509,0.0,0.0,-5.0,0.0,0.0,-5.0,0.645894968984985,0.6453908421073753,0.01040952971140996,-0.023294067382811257,0.0,0.0,-5.0,0.0,0.0,-0.0,-0.0,-0.0,-0.0
22/04/2022,13:14:51,32.345278,-1.0462014131480828,14.469525642693043,3.43609619140625,3.66802978515625,0.5145752429962158,0.23267020285129547,-0.323869526386261,0.5145752429962158,3.8110108375549316,1.5353909730911255,47.64159828918505,-122.14017677043873,125.43515014648438,-2.859596639707213,2.4253036015685856,-18.95264745381005,0.0,0.0,-1.0,0.0,0.0,-1.0,0.5558585468749051,0.5546131709477924,0.008945373724964512,-0.03609619140624876,0.0,0.0,-1.0,0.0,0.0,-0.0,-0.0,-0.0,0.0
22/04/2022,13:14:51,32.521275,-0.9586999240564182,14.507688716053963,3.3060455322265625,3.66802978515625,0.4733891785144806,0.18994128704071045,-1.169121265411377,0.5145752429962158,3.8110108375549316,1.5353909730911255,47.641598617518575,-122.1401756205612,125.30604553222656,-3.4612764832258907,1.0057172157643381,-19.25042076346239,0.0,0.0,0.0,-0.5008558087986875,-0.008078319496757205,2.505828575067116,0.47594547881790067,0.46651906571587154,0.007524501059933186,0.09395446777343874,0.0,0.0,0.0,0.0,0.0,0.0,-0.5008558087986875,-0.008078319496757205,2.505828575067116
22/04/2022,13:14:51,32.691276,-0.8863591176923364,14.535880486480892,3.1433258056640625,3.66802978515625,0.3622587025165558,0.1271911859512329,-0.4109577238559723,0.5145752429962158,3.8110108375549316,1.5353909730911255,47.64159886737408,-122.1401746388559,125.1420669555664,-2.5046949186735703,0.2513025067992493,-19.39229381717221,0.0,0.0,-5.0,-0.6430961290165106,-0.010372518209948455,-2.9275143645670347,0.4700586329769533,0.39374248589012384,0.006350685256290234,0.25667419433593874,0.0,0.0,-5.0,0.0,0.0,0.0,-0.6430961290165106,-0.010372518209948455,2.0724856354329653
22/04/2022,13:14:51,32.868281,-0.8285737883998081,14.556353562511504,3.058074951171875,3.66802978515625,0.31274744868278503,0.1059059277176857,-0.8807162046432495,0.5145752429962158,3.8110108375549316,1.5353909730911255,47.64159904236021,-122.14017388111398,125.05807495117188,-2.5662626626993266,0.06881553446938452,-19.476964837216517,0.0,0.0,0.0,-0.34517390740636816,-0.0055673210872031345,2.477005331499752,0.47916347784807245,0.3356420602686994,0.0054135816172351525,0.34192504882812624,0.0,0.0,0.0,0.0,0.0,0.0,-0.34517390740636816,-0.0055673210872031345,2.477005331499752
22/04/2022,13:14:51,33.039278,-0.7816238927189261,14.572581032291055,2.9402999877929688,3.66802978515625,0.22864551842212677,0.07518526166677475,-0.15265865623950958,0.5145752429962158,3.8110108375549316,1.5353909730911255,47.64159918570241,-122.1401732445393,124.93981170654297,-1.7393082233476111,-0.005367806688290078,-19.51935143442547,0.0,0.0,0.0,0.0,0.0,0.0,0.5427199480726582,0.28844270991144516,0.004652301772763323,0.4597000122070325,0.0,0.0,0.0,0.0,0.0,0.0,-0.0,-0.0,0.0
22/04/2022,13:14:52,33.208276,-0.7473211402539164,14.584169214591384,2.9513473510742188,3.66802978515625,0.17812609672546387,0.05784377455711365,0.09368515014648438,0.5145752429962158,3.8110108375549316,1.5353909730911255,47.64159928450341,-122.1401727953575,124.95134735107422,-1.4615988392798651,-0.02598366723294652,-19.541503481184105,0.0,0.0,0.0,0.0,0.0,0.0,0.515560555300894,0.25396202128254586,0.004096161633587059,0.4486526489257825,0.0,0.0,0.0,0.0,0.0,0.0,-0.0,-0.0,0.0
22/04/2022,13:14:52,33.359275,-0.7244022656232119,14.591851784847677,2.9636154174804688,3.66802978515625,0.14710797369480133,0.04754827171564102,0.07975149154663086,0.5145752429962158,3.8110108375549316,1.5353909730911255,47.64159935262448,-122.14017248322635,124.96385955810547,-1.2585496137200494,-0.029492943564124432,-19.5513133638305,0.0,0.0,-5.0,0.0,0.0,-5.0,0.4937325561919598,0.2309252271508636,0.0037246004379163367,0.4363845825195325,0.0,0.0,-5.0,0.0,0.0,0.0,-0.0,-0.0,0.0
22/04/2022,13:14:52,33.531279,-0.7009323938982561,14.599696853198111,2.9322052001953125,3.66802978515625,0.1244259774684906,0.04012423753738403,-0.5954751968383789,0.5145752429962158,3.8110108375549316,1.5353909730911255,47.64159942065437,-122.1401721705454,124.9304428100586,-1.481267397251822,-0.03935362756962389,-19.557581130780598,0.0,0.0,-1.0,-0.06389480293103905,-0.0010305613375994462,1.4794023099651126,0.5116941889672337,0.20733495897181115,0.003344112241476793,0.46779479980468874,0.0,0.0,-1.0,0.0,0.0,0.0,-0.06389480293103905,-0.0010305613375994462,2.4794023099651126
22/04/2022,13:14:52,33.704278,-0.6830963946413249,14.605638996697962,2.8587265014648438,3.66802978515625,0.07658760994672775,0.024600796401500702,0.11734618246555328,0.5145752429962158,3.8110108375549316,1.5353909730911255,47.64159947193085,-122.14017193413781,124.85904693603516,-0.8913731888858295,-0.025168128689807973,-19.56109827921687,0.0,0.0,0.0,0.0,0.0,0.0,0.5734645944124279,0.1894077823682651,0.003054964231743895,0.5412734985351575,0.0,0.0,0.0,0.0,0.0,0.0,0.0,0.0,0.0
22/04/2022,13:14:52,33.88528,-0.6714113177731633,14.609520430676639,2.8695526123046875,3.66802978515625,0.05992624908685684,0.0192160215228796,-0.28026682138442993,0.5145752429962158,3.8110108375549316,1.5353909730911255,47.641599505528916,-122.14017177868767,124.86872100830078,-0.5790590657259317,-0.017193517096761143,-19.562866239024196,0.0,0.0,0.0,0.111370996092907,0.0017963063885941275,2.1233684685754057,0.5594165172496917,0.17766315703981495,0.0028655347909616324,0.5304473876953137,0.0,0.0,0.0,0.0,0.0,0.0,0.111370996092907,0.0017963063885941275,2.1233684685754057
22/04/2022,13:14:52,34.055289,-0.6627183221280575,14.612404296174645,2.870330810546875,3.66802978515625,0.04089844599366188,0.013095224276185036,0.5570311546325684,0.5145752429962158,3.8110108375549316,1.5353909730911255,47.641599530437595,-122.1401716632987,124.8719711303711,-0.3597966528870202,-0.011007884271312334,-19.56368224424558,0.0,0.0,-4.0,0.0,0.0,-4.0,0.5559611860047687,0.16892592038944731,0.0027246116191843583,0.5296691894531262,0.0,0.0,-4.0,0.0,0.0,0.0,0.0,0.0,-0.0
22/04/2022,13:14:53,34.224279,-0.6563952028518543,14.614498767070472,2.9577484130859375,3.66802978515625,0.03338039293885231,0.01068143267184496,0.11251785606145859,0.5145752429962158,3.8110108375549316,1.5353909730911255,47.641599548298366,-122.14017158045729,124.95774841308594,-0.39310173258490166,-0.012240404598382257,-19.564075325904795,0.0,0.0,-5.0,0.0,0.0,-5.0,0.4711927049210791,0.16257067261486569,0.002622107622817893,0.44225158691406374,0.0,0.0,-5.0,0.0,0.0,0.0,0.0,0.0,0.0
22/04/2022,13:14:53,34.402278,-0.6510012791259214,14.616284641437232,2.9043731689453125,3.66802978515625,0.027421237900853157,0.00877148937433958,-0.7425315380096436,0.5145752429962158,3.8110108375549316,1.5353909730911255,47.64159956382722,-122.14017150838875,124.90437316894531,-0.41149293324150815,-0.012956776928035093,-19.564276474260442,0.0,0.0,0.0,0.1286205896263585,0.0020745256391343316,2.4966859699423343,0.5199502859995402,0.1571493547960816,0.002534667012838554,0.49562683105468874,0.0,0.0,0.0,0.0,0.0,0.0,0.1286205896263585,0.0020745256391343316,2.4966859699423343
22/04/2022,13:14:53,34.576277,-0.6472395203309134,14.617531121708453,2.8114700317382812,3.66802978515625,0.01535650435835123,0.004910295829176903,0.02065824717283249,0.5145752429962158,3.8110108375549316,1.5353909730911255,47.641599574796416,-122.14017145751,124.8115005493164,-0.1943519539548972,-0.006125014801003563,-19.564402783919505,0.0,0.0,0.0,0.0,0.0,0.0,0.60819037463798,0.15336847506010587,0.002473685081612942,0.58852996826172,0.0,0.0,0.0,0.0,0.0,0.0,0.0,0.0,0.0
22/04/2022,13:14:53,34.747286,-0.6450084551470354,14.618268296122551,2.8155517578125,3.66802978515625,0.011473274789750576,0.0036671701818704605,-0.14958727359771729,0.5145752429962158,3.8110108375549316,1.5353909730911255,47.641599581179925,-122.14017142785849,124.81510162353516,-0.1189617455596363,-0.00377185303137888,-19.56445655975654,0.0,0.0,0.0,0.0,0.0,0.0,0.6036760624628259,0.15112610330965048,0.0024375177953146476,0.5844482421875012,0.0,0.0,0.0,0.0,0.0,0.0,0.0,0.0,0.0
22/04/2022,13:14:53,34.935275,-0.6432389094261453,14.61885409988463,2.787109375,3.66802978515625,0.008611933328211308,0.002751624211668968,-0.15422570705413818,0.5145752429962158,3.8110108375549316,1.5353909730911255,47.64159958624764,-122.14017140432972,124.7866439819336,-0.08221567073615363,-0.0026239663392537047,-19.564462147460485,0.0,0.0,0.0,0.0,0.0,0.0,0.63082915111111,0.1493475718182719,0.002408831803517586,0.6128906250000012,0.0,0.0,0.0,0.0,0.0,0.0,0.0,0.0,0.0
22/04/2022,13:14:54,35.199279,-0.6413519956404343,14.619477406144142,2.7510147094726562,3.66802978515625,0.005711396690458059,0.0018242900259792805,-0.11651433259248734,0.5145752429962158,3.8110108375549316,1.5353909730911255,47.641599591641054,-122.14017137923595,124.75066375732422,-0.05161663737415149,-0.0016589873547378001,-19.564463039907533,0.0,0.0,0.0,0.0,0.0,0.0,0.6655294055740422,0.1474510980652517,0.0023782435171799676,0.648985290527345,0.0,0.0,0.0,0.0,0.0,0.0,0.0,0.0,0.0
22/04/2022,13:14:54,35.348275,-0.6405689233215526,14.619738048873842,2.7345199584960938,3.66802978515625,0.004548615776002407,0.0014527264283969998,-0.09895110130310059,0.5145752429962158,3.8110108375549316,1.5353909730911255,47.64159959390785,-122.140171368819,124.73422241210938,-0.040581454603348284,-0.0013075882559270026,-19.564464709346616,0.0,0.0,0.0,0.0,0.0,0.0,0.6814540469872178,0.14666402658462158,0.0023655488158809135,0.6654800415039075,0.0,0.0,0.0,0.0,0.0,0.0,0.0,0.0,0.0
22/04/2022,13:14:54,35.523278,-0.6398690670030192,14.619971701875329,2.7187423706054688,3.66802978515625,0.003521696897223592,0.001124655012972653,-0.08228401839733124,0.5145752429962158,3.8110108375549316,1.5353909730911255,47.64159959591409,-122.1401713595096,124.71849822998047,-0.031206612618979213,-0.0010073531344471712,-19.564463913723234,0.0,0.0,0.0,0.0,0.0,0.0,0.6967223206960987,0.14596058466666717,0.002354202978494868,0.6812576293945325,0.0,0.0,0.0,0.0,0.0,0.0,0.0,0.0,0.0
22/04/2022,13:14:54,35.704278,-0.6393185055349022,14.620148675516248,2.7054214477539062,3.66802978515625,0.0027189331594854593,0.0008682492189109325,-0.06823920458555222,0.5145752429962158,3.8110108375549316,1.5353909730911255,47.641599597451325,-122.14017135218569,124.70521545410156,-0.02403566865890013,-0.0007771899623185372,-19.564466318973906,0.0,0.0,0.0,0.0,0.0,0.0,0.7096394522335671,0.1454073127162957,0.0023452792373586107,0.694578552246095,0.0,0.0,0.0,0.0,0.0,0.0,0.0,0.0,0.0
22/04/2022,13:14:54,35.878277,-0.6388933585258201,14.620285159908235,2.6943588256835938,3.66802978515625,0.002100618788972497,0.000670771871227771,-0.05668133869767189,0.5145752429962158,3.8110108375549316,1.5353909730911255,47.64159959861078,-122.14017134661529,124.6943588256836,-0.018563011074704365,-0.0006002546928778678,-19.564466043765847,0.0,0.0,0.0,0.0,0.0,0.0,0.7203847286274364,0.14498007548997183,0.0023383883143548445,0.7056411743164075,0.0,0.0,0.0,0.0,0.0,0.0,0.0,0.0,0.0
22/04/2022,13:14:54,36.061276,-0.6385601029032841,14.620403253473341,2.685028076171875,3.66802978515625,0.0016162110259756446,0.0005160553264431655,-0.04702594131231308,0.5145752429962158,3.8110108375549316,1.5353909730911255,47.64159959963998,-122.14017134216151,124.68502807617188,-0.01429510428402554,-0.00046232049181489193,-19.564465878212292,3.0993267515973244,3.223999641258227,0.0,3.0993267515973244,3.223999641258227,0.0,0.7294603973944561,0.14464500230035815,0.002332983908067021,0.7149719238281262,3.0993267515973244,3.223999641258227,0.0,0.0,0.0,0.0,0.0,0.0,0.0
22/04/2022,13:14:55,36.233276,-0.6301543187582865,14.628815410658717,2.6956329345703125,3.66802978515625,0.20889993011951447,0.20924288034439087,0.42283421754837036,0.5145752429962158,3.8110108375549316,1.5353909730911255,47.64159968000695,-122.14017122084563,124.6968765258789,14.222637212829317,-6.791906129036172,-20.327848521958714,2.708706375288947,4.202726468909083,-1.0,2.708706375288947,4.202726468909083,-1.0,0.7173998604769178,0.13610575964785776,0.00219525418786759,0.7043670654296887,2.708706375288947,4.202726468909083,-1.0,0.0,0.0,0.0,-0.0,-0.0,-0.0
22/04/2022,13:14:55,36.416291,-0.5576128679094836,14.708316032774746,2.7834091186523438,3.66802978515625,0.6019648313522339,0.7256729602813721,0.46694400906562805,0.6019648313522339,3.8110108375549316,1.5353909730911255,47.64160040188971,-122.14017022764904,124.78480529785156,18.450660047956433,-14.079261052994541,-24.265182708458937,2.413731370322457,4.378801305371286,-1.0,0.24218813802684025,4.343776414527798,-1.5915804822421251,0.619731207287345,0.06230124062731357,0.001004858719793944,0.6165908813476575,2.413731370322457,4.378801305371286,-1.0,0.0,0.0,0.0,-2.1715432322956167,-0.03502489084348754,-0.5915804822421251
22/04/2022,13:14:55,36.591277,-0.43368669459596276,14.88173236977309,2.8327713012695312,3.66802978515625,0.7683171629905701,1.2424490451812744,0.07960107177495956,0.7683171629905701,3.8110108375549316,1.5353909730911255,47.64160196365876,-122.14016854554916,124.83301544189453,11.605613298521883,-17.534578702109886,-30.943818113555768,1.8880956815775023,4.629805038790336,0.0,-0.5233769998370277,4.5909103181223525,0.5997132480326334,0.5708725077794354,-0.0643890124574904,-0.0010385324589936573,0.56722869873047,1.8880956815775023,4.629805038790336,0.0,-0.0,-0.0,0.0,-2.41147268141453,-0.038894720667983294,0.5997132480326334
22/04/2022,13:14:55,36.760277,-0.30561790929641575,15.158982252702117,2.8707275390625,3.66802978515625,0.7040590047836304,1.987169861793518,0.5339447855949402,0.7683171629905701,3.8110108375549316,1.5353909730911255,47.64160441187453,-122.14016683046219,124.8707275390625,7.473043516974225,-15.709217680854191,-36.5175905869338,-0.17786025322198218,3.601161719546043,0.0,-2.5496119721045583,3.5629076595640643,-0.7655307725253142,0.564718605352226,-0.19689509917610115,-0.003175727406066642,0.5292724609375012,-0.17786025322198218,3.601161719546043,0.0,-0.0,-0.0,0.0,-2.3717517188825763,-0.038254059981978894,-0.7655307725253142
22/04/2022,13:14:55,36.913278,-0.21686556283384562,15.47459754254669,2.9549636840820312,3.66802978515625,0.5279582738876343,2.363288164138794,0.6142370700836182,0.7683171629905701,3.8110108375549316,1.5353909730911255,47.6416073061276,-122.14016558113474,124.95680236816406,-1.8637181118447628,-15.084247360507938,-39.112779086573326,-0.48579203418322625,2.1826603261900654,-2.0,-2.6522043114401166,2.147718192685917,-3.1930860021001046,0.5315954388651898,-0.29071360834969884,-0.00468892916693342,0.44503631591797,-0.48579203418322625,2.1826603261900654,-2.0,-0.0,-0.0,0.0,-2.1664122772568906,-0.034942133504148765,-1.1930860021001046
22/04/2022,13:14:55,37.080274,-0.1530205524759367,15.90175498649478,3.02178955078125,3.66802978515625,0.26927775144577026,2.499462604522705,-0.04427889734506607,0.7683171629905701,3.8110108375549316,1.5353909730911255,47.641611146532675,-122.14016467854104,125.02168273925781,-10.48027240355769,-14.010133339997033,-42.566274627917785,-0.49628414303757573,4.97530924158182,-2.0,-2.408635141746074,4.9444648706349,-1.0895785008224341,0.5231717401137302,-0.3614298583732576,-0.005829513844730627,0.37821044921875124,-0.49628414303757573,4.97530924158182,-2.0,-0.0,-0.0,0.0,-1.9123509987084983,-0.03084437094691918,0.9104214991775659
22/04/2022,13:14:56,37.258276,-0.13750851224176586,16.33342424966395,2.9593124389648438,3.66802978515625,-0.06852944940328598,2.5850281715393066,-0.5968013405799866,0.7683171629905701,3.8110108375549316,1.5353909730911255,47.641615030879684,-122.14016442176704,124.95752716064453,-5.151646057574497,-16.079667426448566,-48.26795575912988,-0.9881205830217386,4.901389365619587,-1.0,-1.4796395162376177,4.893461640890291,1.432415466864271,0.5844842979433383,-0.38389846096796276,-0.006191910660774624,0.4406875610351575,-0.9881205830217386,4.901389365619587,-1.0,-0.0,-0.0,0.0,-0.49151893321587914,-0.007927724729295297,2.432415466864271
22/04/2022,13:14:56,37.429276,-0.19537256308831275,16.804595828987658,2.888641357421875,3.66802978515625,-0.5377708673477173,2.886540651321411,0.03751428425312042,0.7683171629905701,3.8110108375549316,1.5353909730911255,47.64161928373704,-122.14016514129474,124.88873291015625,1.7283715834807118,-10.146083870167828,-55.26291362391633,0.06588391116962455,3.604949279844169,0.0,0.06588391116962455,3.604949279844169,0.0,0.6106037649302494,-0.33364702441762306,-0.005381403619637126,0.5113586425781262,0.06588391116962455,3.604949279844169,0.0,-0.0,-0.0,0.0,0.0,0.0,0.0
22/04/2022,13:14:56,37.605275,-0.3091526183998212,17.320832666009665,2.8986892700195312,3.66802978515625,-0.6496193408966064,3.033208131790161,-0.06792107969522476,0.7683171629905701,3.8110108375549316,1.5353909730911255,47.64162386182725,-122.14016655835472,124.89868927001953,2.5063101282339524,-1.3840305422570887,-60.013193041373256,0.0,0.0,-2.0,1.8459883458007822,0.029774005577431067,-0.7910112445480451,0.5508273134878817,-0.22822079588132282,-0.003680980578732118,0.50131072998047,0.0,0.0,-2.0,-0.0,-0.0,0.0,1.8459883458007822,0.029774005577431067,1.208988755451955
22/04/2022,13:14:56,37.781278,-0.42140715674031526,17.84242675639689,2.9051437377929688,3.66802978515625,-0.5098739862442017,2.86979341506958,0.34744250774383545,0.7683171629905701,3.8110108375549316,1.5353909730911255,47.64162856567239,-122.14016797570338,124.90514373779297,-6.762273981773501,10.825625413228332,-64.3866415632276,2.1614799907082287,4.508658808311842,-2.0,2.1614799907082287,4.508658808311842,-2.0,0.5102583829171229,-0.12440607240229784,-0.002006549554877779,0.4948562622070325,2.1614799907082287,4.508658808311842,-2.0,-0.0,-0.0,0.0,0.0,0.0,-0.0
22/04/2022,13:14:56,37.955279,-0.4951644432730973,18.30635858513415,2.9572296142578125,3.66802978515625,-0.30434197187423706,2.661205768585205,-0.06233435869216919,0.7683171629905701,3.8110108375549316,1.5353909730911255,47.641632818633944,-122.14016890132537,124.95706939697266,3.6179774143926844,13.26217978125451,-70.7622575528657,1.647443321800559,4.72079765521196,0.0,1.647443321800559,4.72079765521196,0.0,0.44657337173409695,-0.05814879384565175,-0.0009378837717051169,0.44277038574218874,1.647443321800559,4.72079765521196,0.0,-0.0,-0.0,0.0,0.0,0.0,0.0
22/04/2022,13:14:57,38.128275,-0.5221752545330673,18.77315175626427,2.9359130859375,3.66802978515625,0.07802073657512665,2.752676248550415,-0.022941339761018753,0.7683171629905701,3.8110108375549316,1.5353909730911255,47.6416370233545,-122.14016917672699,124.93583679199219,7.47151611657502,8.407499405545481,-77.39716377915296,2.0668637141866366,4.661338261377158,0.0,2.0668637141866366,4.661338261377158,0.0,0.4656957958132131,-0.038671971511904824,-0.0006237414759979742,0.46408691406250124,2.0668637141866366,4.661338261377158,0.0,-0.0,-0.0,0.0,-0.0,-0.0,0.0
22/04/2022,13:14:57,38.309276,-0.4851100599626079,19.28616135008633,2.9502105712890625,3.66802978515625,0.41246652603149414,2.96330189704895,0.1723821461200714,0.7683171629905701,3.8110108375549316,1.5353909730911255,47.64164164073582,-122.14016859419617,124.95072174072266,8.335946557861547,9.10084910952965,-80.42471415540221,1.8177850216788316,4.763995971341715,0.0,-0.18571932778558442,4.731681385060025,0.20952078296893636,0.4575678301023605,-0.08399972255112809,-0.0013548342347000641,0.44978942871093874,1.8177850216788316,4.763995971341715,0.0,-0.0,-0.0,0.0,-2.003504349464416,-0.032314586281690455,0.20952078296893636
22/04/2022,13:14:57,38.489276,-0.39815012854523957,19.833503948524594,2.9531021118164062,3.66802978515625,0.5784371495246887,3.1223368644714355,-0.12276643514633179,0.7683171629905701,3.8110108375549316,1.5353909730911255,47.641646476550115,-122.1401673721512,124.9531021118164,6.492485769043651,0.964884789238606,-83.00190021340124,1.6017323207124539,4.840914538884682,0.0,-0.620363220008459,4.80507428822789,1.0707129556309138,0.48170614540418655,-0.17976284803137155,-0.0028994007747016326,0.446897888183595,1.6017323207124539,4.840914538884682,0.0,-0.0,-0.0,0.0,-2.222095540720913,-0.035840250656792354,1.0707129556309138
22/04/2022,13:14:57,38.671277,-0.3007178722182289,20.416668227873743,2.9906997680664062,3.66802978515625,0.5449374914169312,3.3710763454437256,0.7506513595581055,0.7683171629905701,3.8110108375549316,1.5353909730911255,47.6416518042066,-122.14016596718885,124.99292755126953,4.774908193410318,-2.6160183931744694,-84.11204700733326,2.502365758359774,4.768455264694062,0.0,0.49007214480873085,4.735998916088395,-1.47986934143291,0.49967213189772186,-0.2865731935816125,-0.004622148283576877,0.409300231933595,2.502365758359774,4.768455264694062,0.0,-0.0,-0.0,0.0,-2.012293613551043,-0.032456348605666444,-1.47986934143291
22/04/2022,13:14:57,38.855275,-0.21354541124310344,21.043507175520062,3.1008377075195312,3.66802978515625,0.4871005117893219,3.4587113857269287,0.17348690330982208,0.7683171629905701,3.8110108375549316,1.5353909730911255,47.64165734421216,-122.14016473601951,125.10083770751953,4.269095237687597,-3.722534796314769,-84.56912258353975,2.3696014897465836,3.7927547745393153,0.0,-0.05448370505763256,3.7536566262360203,-0.07887943654485362,0.4866850914999961,-0.38383065905429237,-0.006190817081520805,0.29916229248047,2.3696014897465836,3.7927547745393153,0.0,-0.0,-0.0,0.0,-2.424085194804216,-0.03909814830329498,-0.07887943654485362
22/04/2022,13:14:57,39.031277,-0.1395326954079792,21.659200940281153,3.07666015625,3.66802978515625,0.4126197099685669,3.4868977069854736,-0.26807841658592224,0.7683171629905701,3.8110108375549316,1.5353909730911255,47.641662970043235,-122.14016364331356,125.07585144042969,-0.5357760425496751,-3.0139193488268807,-84.72173135430641,2.26749807848043,2.8032931462991084,0.0,0.1536966678866718,2.7691995751604934,1.292889859510008,0.5686805675315785,-0.4677520876850869,-0.007544388511050215,0.32333984375000124,2.26749807848043,2.8032931462991084,0.0,-0.0,-0.0,0.0,-2.113801410593758,-0.03409357113861508,1.292889859510008
22/04/2022,13:14:58,39.210275,-0.08233634615316987,22.277094562537968,3.0821685791015625,3.66802978515625,0.2894120216369629,3.320033311843872,0.5655439496040344,0.7683171629905701,3.8110108375549316,1.5353909730911255,47.64166851892055,-122.14016279560173,125.08383178710938,-6.000033620621862,-1.8008074493620558,-84.87044508008061,0.0,0.0,0.0,-2.01729143532205,-0.032536958634233004,-1.3440282669896035,0.6222588204209136,-0.5348969956474822,-0.008627370897542619,0.31783142089843874,0.0,0.0,0.0,-0.0,-0.0,0.0,-2.01729143532205,-0.032536958634233004,-1.3440282669896035
22/04/2022,13:14:58,39.389274,-0.045520404004491866,22.84448219370097,3.1776580810546875,3.66802978515625,0.18009696900844574,3.0912909507751465,0.16532643139362335,0.7683171629905701,3.8110108375549316,1.5353909730911255,47.641673530346196,-122.14016223335108,125.17765808105469,-16.839886679387448,-8.589680550081951,-83.5211849127505,0.0,0.0,-1.0,-2.0550560731965097,-0.03314606569672171,-1.2138912840511966,0.6220234765681605,-0.5808523961030412,-0.009368587033922182,0.22234191894531374,0.0,0.0,-1.0,-0.0,-0.0,0.0,-2.0550560731965097,-0.03314606569672171,-0.21389128405119662
22/04/2022,13:14:58,39.547278,-0.04449365078471601,23.283781222067773,3.1963882446289062,3.66802978515625,-0.1352236568927765,2.6183462142944336,0.11836772412061691,0.7683171629905701,3.8110108375549316,1.5353909730911255,47.64167755320213,-122.14016216010364,125.19673919677734,-19.448254348870964,-10.782698917026215,-82.89669154591931,0.0,0.0,-4.0,0.0,0.0,-4.0,0.6232373712529026,-0.5889625077117694,-0.009499395285679668,0.203611755371095,0.0,0.0,-4.0,-0.0,-0.0,0.0,-0.0,-0.0,-0.0
22/04/2022,13:14:58,39.721274,-0.09591313637793064,23.71001368947327,3.1727294921875,3.66802978515625,-0.3422597348690033,2.2415809631347656,-0.5640032887458801,0.7683171629905701,3.8110108375549316,1.5353909730911255,47.6416813828204,-122.14016279006428,125.17105865478516,-21.301006717586553,-4.749032704871544,-85.91001080232859,0.0,0.0,0.0,0.11795789744833857,0.0019025467330296537,2.364111792421056,0.5900273562117707,-0.5444293244500851,-0.008781118136294452,0.22727050781250124,0.0,0.0,0.0,-0.0,-0.0,0.0,0.11795789744833857,0.0019025467330296537,2.364111792421056
22/04/2022,13:14:58,39.902277,-0.17182262311689556,24.063027115538716,3.0783843994140625,3.66802978515625,-0.4227312505245209,1.5658996105194092,-0.09583824872970581,0.7683171629905701,3.8110108375549316,1.5353909730911255,47.64168454820288,-122.14016375172493,125.07807159423828,-12.44512568609443,0.4573505915146662,-89.24565283332426,0.0,0.0,0.0,0.0,0.0,0.0,0.5730540648691034,-0.47423186421379815,-0.007648901035711475,0.32161560058593874,0.0,0.0,0.0,-0.0,-0.0,0.0,0.0,0.0,0.0
22/04/2022,13:14:58,40.087279,-0.24879230838268995,24.308182352222502,3.1015396118164062,3.66802978515625,-0.3794000446796417,1.1691560745239258,0.15729521214962006,0.7683171629905701,3.8110108375549316,1.5353909730911255,47.64168671915324,-122.1401647232548,125.1015396118164,-9.591740179660096,1.9149255358235016,-90.38104828005247,0.0,0.0,-5.0,0.0,0.0,-5.0,0.5001102262150504,-0.4012352854134551,-0.0064715368615075874,0.298460388183595,0.0,0.0,-5.0,-0.0,-0.0,0.0,0.0,0.0,-0.0
22/04/2022,13:14:59,40.262275,-0.31425848661456257,24.497073052451015,3.0798568725585938,3.66802978515625,-0.33521682024002075,0.9857433438301086,-0.5527510643005371,0.7683171629905701,3.8110108375549316,1.5353909730911255,47.64168845168737,-122.14016558029172,125.0782241821289,-11.25490478963811,2.8851738913252354,-91.29642094973183,0.0,0.0,0.0,0.4977210789664618,0.008027759338165508,2.3681078423139708,0.46618514492730667,-0.3388319653330518,-0.005465031698921763,0.3201431274414075,0.0,0.0,0.0,-0.0,-0.0,0.0,0.4977210789664618,0.008027759338165508,2.3681078423139708
22/04/2022,13:14:59,40.443276,-0.36845040146727115,24.646377990953624,2.9998245239257812,3.66802978515625,-0.22833919525146484,0.6288872361183167,0.0483521893620491,0.7683171629905701,3.8110108375549316,1.5353909730911255,47.641689773749405,-122.14016626623844,124.99982452392578,-6.0303354841463,1.6857480364029165,-92.0787598395458,0.0,0.0,-5.0,0.0,0.0,-5.0,0.49251014899170753,-0.28706166247046405,-0.004630026814041344,0.40017547607422,0.0,0.0,-5.0,-0.0,-0.0,0.0,0.0,0.0,0.0
22/04/2022,13:14:59,40.595277,-0.3991617161082104,24.72684619948268,3.0062332153320312,3.66802978515625,-0.1923546940088272,0.5184565186500549,-0.2644440531730652,0.7683171629905701,3.8110108375549316,1.5353909730911255,47.64169051475655,-122.14016667089875,125.00546264648438,-6.246086847532177,1.8304655530370122,-92.49506482267714,0.0,0.0,-5.0,0.0,0.0,-5.0,0.4705912230715354,-0.2576558719500559,-0.004155739870167707,0.39376678466797,0.0,0.0,-5.0,-0.0,-0.0,0.0,0.0,0.0,0.0
22/04/2022,13:14:59,40.747275,-0.42733105120714754,24.799621704034507,2.911346435546875,3.66802978515625,-0.16327300667762756,0.43463972210884094,-1.001478672027588,0.7683171629905701,3.8110108375549316,1.5353909730911255,47.64169115831761,-122.14016702744567,124.91134643554688,-6.278466800980663,1.8718067014541842,-92.96401774859726,0.0,0.0,-4.0,0.08397263342300415,0.0013543973132707043,-1.4414836093771148,0.5403735531819529,-0.23066735625744195,-0.00372044122996229,0.48865356445312624,0.0,0.0,-4.0,-0.0,-0.0,0.0,0.08397263342300415,0.0013543973132707043,2.558516390622885
22/04/2022,13:14:59,40.890275,-0.4499361988855526,24.857384911738336,2.7212371826171875,3.66802978515625,-0.13212613761425018,0.34793633222579956,-1.4804848432540894,0.7683171629905701,3.8110108375549316,1.5353909730911255,47.64169168025345,-122.1401673198422,124.72123718261719,-4.158786328460937,1.1906846650109748,-94.00745743955144,0.0,0.0,-4.0,0.05683170321248099,0.0009166403743896417,0.7051209196997981,0.710219065372537,-0.20899951001605,-0.003370959838971288,0.6787628173828137,0.0,0.0,-4.0,-0.0,-0.0,0.0,0.05683170321248099,0.0009166403743896417,4.705120919699798
22/04/2022,13:14:59,41.047277,-0.4670550557784736,24.90054041426629,2.53973388671875,3.66802978515625,-0.08767390251159668,0.22639214992523193,-0.7423292398452759,0.7683171629905701,3.8110108375549316,1.5353909730911255,47.641692076343126,-122.1401675448831,124.5374755859375,-2.5174033268998564,0.6429208192212442,-95.92321647110995,0.0,0.0,-4.0,-0.026419242790309674,-0.00042611681919797533,-1.4795971410426287,0.8815638762854252,-0.19258098082498232,-0.0031061448520190993,0.8602661132812512,0.0,0.0,-4.0,-0.0,-0.0,0.0,-0.026419242790309674,-0.00042611681919797533,2.5204028589573713
22/04/2022,13:15:00,41.224279,-0.4812312547583133,24.93563985079527,2.3933181762695312,3.66802978515625,-0.0699693113565445,0.17874965071678162,-1.1992512941360474,0.7683171629905701,3.8110108375549316,1.5353909730911255,47.64169239226126,-122.14016772769804,124.38973236083984,-1.7000908223167357,0.3567322094416616,-98.85303090249214,0.0,0.0,0.0,-0.12236212747453079,-0.001973582701206254,4.288148470414872,1.0224717491828386,-0.17897444147161257,-0.002886684539870288,1.00668182373047,0.0,0.0,0.0,-0.07117010992509314,-0.0011479049987940392,0.4003122203672563,-0.05119201754943765,-0.0008256777024122147,3.8878362500476156
22/04/2022,13:15:00,41.404278,-0.49248565325979143,24.963276681490242,2.2166824340820312,3.66802978515625,-0.05101577937602997,0.1290331780910492,-0.48098552227020264,0.7683171629905701,3.8110108375549316,1.5353909730911255,47.64169264067063,-122.14016787268197,124.2152099609375,-0.8498884179547517,0.14254073554027655,-101.49333591237406,0.0,0.0,-3.0,-0.14497705029487717,-0.002338339520887873,-0.056354842940780525,1.1952106509284393,-0.16816860939447498,-0.002712396925723226,1.18331756591797,0.0,0.0,-3.0,-0.06301692836999129,-0.0010164020704859368,0.44341829642824565,-0.08196012192488589,-0.0013219374504019363,2.5002268606309737
22/04/2022,13:15:00,41.553281,-0.4993589164223522,24.980009196326137,2.206817626953125,3.66802978515625,-0.03981723636388779,0.10015079379081726,0.30100178718566895,0.7683171629905701,3.8110108375549316,1.5353909730911255,47.641692788403056,-122.14016795966404,124.20681762695312,-0.7770148697664782,0.11923696581546853,-102.66792528828799,0.0,0.0,-5.0,-0.06032600362881706,-0.0009730000585295068,-4.554488542798698,1.2040742681405592,-0.16156694289849116,-0.0026059184338471653,1.1931823730468762,0.0,0.0,-5.0,-0.06032600362881706,-0.0009730000585295068,0.44551145720130236,-0.0,-0.0,0.0
22/04/2022,13:15:00,41.738277,-0.5062325688777491,24.99668668396771,2.221435546875,3.66802978515625,-0.03370785340666771,0.08462417870759964,-0.3502627909183502,0.7683171629905701,3.8110108375549316,1.5353909730911255,47.641692941398624,-122.14016805005551,124.22040557861328,-0.9261360769895745,0.12699684062367916,-103.7801898029924,0.0,0.0,0.0,-0.17817289117628396,-0.0028737563093002485,2.9390714781871794,1.188711175405495,-0.15496399990635368,-0.0024994193533309783,1.1785644531250012,0.0,0.0,0.0,-0.058220369530351916,-0.0009390382182324944,0.44278966739204145,-0.11995252164593204,-0.0019347180910677542,2.496281810795138
22/04/2022,13:15:00,41.917276,-0.5114661685656756,25.009359727613628,2.19317626953125,3.66802978515625,-0.021947309374809265,0.05497386306524277,0.3789096772670746,0.7683171629905701,3.8110108375549316,1.5353909730911255,47.641693055155216,-122.14016811738642,124.19428253173828,-0.5388360796647307,0.06363545869177714,-104.88290313534858,0.0,0.0,0.0,-0.055707111071075587,-0.0008985017914704927,0.44838206513900924,1.2161045195362412,-0.14993611213149216,-0.0024183243892217376,1.2068237304687512,0.0,0.0,0.0,-0.055707111071075587,-0.0008985017914704927,0.44838206513900924,-0.0,-0.0,0.0
22/04/2022,13:15:00,42.099311,-0.5151270708302036,25.018210037611425,2.2474365234375,3.66802978515625,-0.017557930201292038,0.043912604451179504,0.034179698675870895,0.7683171629905701,3.8110108375549316,1.5353909730911255,47.641693134831705,-122.14016816463685,124.24754333496094,-0.39895997517043974,0.043633361326636824,-105.4423539618326,0.0,0.0,-3.0,-0.2751715702127624,-0.004438251132476822,-0.45051259862656146,1.1618290023294262,-0.14641887179729662,-0.002361594706410841,1.1525634765625012,0.0,0.0,-3.0,-0.05559139540250388,-0.0008966354097188793,0.43759804433388283,-0.2195801748102585,-0.0035416157227579426,2.111889357039556
22/04/2022,13:15:01,42.253276,-0.5176732550607994,25.02435910049826,2.247589111328125,3.66802978515625,-0.014103306457400322,0.03523923456668854,-0.011998085305094719,0.7683171629905701,3.8110108375549316,1.5353909730911255,47.641693190198815,-122.14016819748598,124.24755096435547,-0.3190259260028758,0.0338948853161288,-105.68125361758935,0.0,0.0,-5.0,-0.2748569099153345,-0.004433175966383884,-2.346767644538675,1.1613717450073346,-0.14397250241279036,-0.0023221371356925147,1.1524108886718762,0.0,0.0,-5.0,-0.05467214169542106,-0.0008818087370238116,0.4376167000013028,-0.22018476821991342,-0.0035513672293600723,2.2156156554600224
22/04/2022,13:15:01,42.403276,-0.519656396470964,25.029144569300115,2.21697998046875,3.66802978515625,-0.01231426652520895,0.03075587935745716,-0.553752064704895,0.7683171629905701,3.8110108375549316,1.5353909730911255,47.641693232486254,-122.14016822261421,124.21697998046875,-0.29481778006111226,0.030860492770179146,-105.80281866998975,0.0,0.0,-5.0,-0.1830640298852959,-0.0029526456433164507,-2.0467364793924108,1.1915219937019403,-0.14206704168068174,-0.002291403898077249,1.1830200195312512,0.0,0.0,-5.0,-0.0533149835098219,-0.000859919088868747,0.4439642867686634,-0.12974904637547402,-0.002092726554447704,2.509299233838926
22/04/2022,13:15:01,42.589291,-0.5218207174912095,25.034362437203526,2.0386581420898438,3.66802978515625,-0.010650464333593845,0.026594778522849083,-1.416501522064209,0.7683171629905701,3.8110108375549316,1.5353909730911255,47.64169327964598,-122.14016825065576,124.03865814208984,-0.24907236615755873,0.025849958268232276,-105.88105477180954,0.0,0.0,-5.0,-0.27066757475177566,-0.0043656060443857956,3.2645275951748314,1.368522279696795,-0.13998742082455373,-0.0022578616262052265,1.3613418579101575,0.0,0.0,-5.0,-0.048569671848807845,-0.0007833818040139828,0.4723276343208785,-0.22209790290296783,-0.003582224240371813,7.792199960853953
22/04/2022,13:15:01,42.744277,-0.5233116619056091,25.037957292050123,1.842529296875,3.66802978515625,-0.00799654982984066,0.019969504326581955,-0.800865650177002,0.7683171629905701,3.8110108375549316,1.5353909730911255,47.641693312709904,-122.14016827029366,123.84009552001953,-0.14623125548907673,0.015051452676492456,-105.9139365007759,0.0,0.0,-4.0,-0.1715370527430522,-0.0027667266571500945,-0.22904880834694108,1.5636231727346583,-0.13855483062209262,-0.002234755332619187,1.5574707031250012,0.0,0.0,-4.0,-0.04356936391617925,-0.0007027316760689135,0.48975562633628433,-0.12796768882687296,-0.002063994981081181,3.2811955653167746
22/04/2022,13:15:01,42.924277,-0.5245847828919068,25.041030374355614,1.798492431640625,3.66802978515625,-0.005658415611833334,0.014121116138994694,0.17320795357227325,0.7683171629905701,3.8110108375549316,1.5353909730911255,47.64169334030227,-122.14016828669403,123.79901123046875,-0.11914882662642189,0.01225691551171183,-105.93402539405585,0.0,0.0,0.0,-0.2726574360397238,-0.004397700581299734,2.7791327383482827,1.6073865012744155,-0.13733159369923487,-0.0022150257048316746,1.6015075683593762,0.0,0.0,0.0,-0.04220184267216182,-0.0006806748818106922,0.49214145571045975,-0.23045559336756197,-0.003717025699489042,2.286991282637823
22/04/2022,13:15:01,43.101276,-0.5254702372476459,25.04316653497517,1.9014816284179688,3.66802978515625,-0.0038427594117820263,0.009587576612830162,1.1633574962615967,0.7683171629905701,3.8110108375549316,1.5353909730911255,47.64169335921827,-122.14016829793914,123.90148162841797,-0.08379234883740858,0.008636175640597111,-105.94349466046714,0.0,0.0,0.0,-0.044248882513217645,-0.0007136916534397628,0.4858394451227639,1.5047222895053898,-0.13648081487347463,-0.0022013034657035746,1.4985183715820325,0.0,0.0,0.0,-0.044248882513217645,-0.0007136916534397628,0.4858394451227639,-0.0,-0.0,-0.0
22/04/2022,13:15:02,43.251275,-0.525997280725278,25.04443785455078,2.0713043212890625,3.66802978515625,-0.0032698374707251787,0.008156885392963886,0.8301889896392822,0.7683171629905701,3.8110108375549316,1.5353909730911255,47.641693370917025,-122.1401683048984,124.07381439208984,-0.07405901038060793,0.0076295383488527106,-105.9474318027695,0.0,0.0,0.0,-0.04791717771552409,-0.0007728577050906077,0.4682303660477063,1.335636947743927,-0.13597440828977359,-0.0021931356175812766,1.3286956787109387,0.0,0.0,0.0,-0.04791717771552409,-0.0007728577050906077,0.4682303660477063,-0.0,-0.0,-0.0
