date,fly_time,fly_time_s,x,y,z,z_max,vx,vy,vz,vx_max,vy_max,vz_max,latitude,longitude,altitude,pitch,roll,yaw,cx,cy,cz,scx,scy,scz,d,dx,dy,dz,gc_pow_x,gc_pow_y,gc_pow_z,gpc_pow_x,gpc_pow_y,gpc_pow_z,gfc_pow_x,gfc_pow_y,gfc_pow_z
22/04/2022,11:44:22,19.307531,-6.452901288866997e-07,9.667128324508667e-07,1.78155517578125,1.78155517578125,-1.471148323162197e-07,1.020719437860862e-07,-0.00336655811406672,0,1.020719437860862e-07,0,47.64146800000877,-122.14016500000845,123.78153991699219,-6.135524595005952e-07,-2.2779397162029174e-07,0.5102419900632795,0.0,0.0,0.0,-0.466442982280087,-0.007523273907743337,2.936194040338656,1.6388847726768874,-0.25799676968555013,-0.00416123822073472,1.6184448242187512,0.0,0.0,0.0,-0.07796976078122557,-0.001257576786793973,0.4891137045465741,-0.38847322149886143,-0.006265697120949364,2.447080335792082
22/04/2022,11:44:22,19.490532,-6.721820682287216e-07,9.844079613685608e-07,1.78094482421875,1.78155517578125,-1.5466238778572006e-07,9.88292612191799e-08,-0.0033033404033631086,0,1.020719437860862e-07,0,47.641468000008935,-122.14016500000884,123.78092956542969,2.2631149997791196e-07,3.858878914106657e-07,0.5102419900632792,0.0,0.0,0.0,-0.4663192558566592,-0.00752127832026879,2.9363286171427574,1.6394875106468387,-0.25799674308593584,-0.004161237791708627,1.6190551757812512,0.0,0.0,0.0,-0.07794479253457275,-0.0012571740731382656,0.4891415227527157,-0.3883744633220864,-0.006264104247130525,2.4471870943900416
22/04/2022,11:44:23,19.648533,-6.972113624215126e-07,9.993091225624084e-07,1.7804336547851562,1.78155517578125,-1.3876703519599687e-07,8.591815259251234e-08,-0.003258730284869671,0,1.020719437860862e-07,0,47.64146800000907,-122.14016500000913,123.7804183959961,1.0026868767109444e-06,7.467175651606238e-07,0.510241990063285,0.0,0.0,0.0,-0.4662123152885747,-0.007519553472396433,2.9364447242813956,1.6399923076357836,-0.25799671830343,-0.004161237391990924,1.619566345214845,0.0,0.0,0.0,-0.07792388531623483,-0.0012568368599393067,0.4891647575072171,-0.38828842997233987,-0.0062627166124571264,2.4472799667741785
22/04/2022,11:44:23,19.806534,-7.165363058447838e-07,1.0095536708831787e-06,1.7799224853515625,1.78155517578125,-1.0609660705540591e-07,6.115001127682262e-08,-0.0032210801728069782,0,1.020719437860862e-07,0,47.641468000009176,-122.14016500000939,123.77991485595703,1.3537547930333143e-06,9.125892805519137e-07,0.5102419900632893,0.04452642500030908,4.999801735816801,0.0,-0.4215761888373203,4.992283951722646,2.9365636278096474,1.6404971094565057,-0.25799669914870427,-0.004161237083043612,1.6200775146484387,0.04452642500030908,4.999801735816801,0.0,-0.07790298380699708,-0.001256499738822532,0.48918793459831467,-0.3881996300306323,-0.0062612843553328,2.447375693211333
22/04/2022,11:44:23,19.963544,-1.7548678442835808e-05,0.007798303849995136,1.7957000732421875,1.7957000732421875,0.0020967042073607445,0.23544266819953918,0.42937809228897095,0.0020967042073607445,0.23544266819953918,0.42937809228897095,47.641468076339216,-122.14016499900067,123.79696655273438,1.0716930117290662e-06,-16.014241017957175,0.5102418376625419,0.044526411701362324,4.999801735935236,0.0,-0.03405579753001351,4.998534280947633,0.4884412883249817,1.6249351024055527,-0.2581056014873252,-0.00416299357237615,1.6042999267578137,0.044526411701362324,4.999801735935236,0.0,-0.07858220923137584,-0.0012674549876028167,0.4884412883249817,-0.0,-0.0,0.0
22/04/2022,11:44:23,20.121532,-0.00022347597405314445,0.10326390992850065,1.9191665649414062,1.9191665649414062,0.009831520728766918,1.103968858718872,1.199249029159546,0.009831520728766918,1.103968858718872,1.199249029159546,47.64146895855008,-122.14016498733997,123.92274475097656,5.167008282678112e-07,-24.10454910503344,0.5102426115677441,0.04452647923465371,4.999801735333809,0.0,-0.039644500166664265,4.998444138891852,0.4804333768474113,1.5033940988715913,-0.2594390951290785,-0.004184501534340024,1.480833435058595,0.04452647923465371,4.999801735333809,0.0,-0.08417097940131797,-0.0013575964419567572,0.4804333768474113,-0.0,-0.0,-0.0
22/04/2022,11:44:23,20.306536,-0.0008664466440677643,0.40134463645517826,2.1915130615234375,2.1915130615234375,0.018467847257852554,2.073725700378418,1.5340110063552856,0.018467847257852554,2.073725700378418,1.5340110063552856,47.6414716666212,-122.14016495154566,124.19612884521484,1.0280741782152329e-07,-23.925379286342483,0.5102424313039536,0.04452646350429416,4.9998017354738975,0.0,-0.5370284478642364,4.990421817548597,-2.0069184407880476,1.2369095320865033,-0.26360279494419364,-0.004251657982971002,1.2084869384765637,0.04452646350429416,4.9998017354738975,0.0,-0.09708723711070703,-0.0015659231792050027,0.4450964109310972,-0.48446767425782356,-0.007813994746094913,-2.4520148517191447
22/04/2022,11:44:23,20.487532,-0.0018129621166735888,0.8401503851637244,2.4401321411132812,2.4401321411132812,0.023570677265524864,2.6467137336730957,1.1108567714691162,0.023570677265524864,2.6467137336730957,1.5340110063552856,47.641475630010845,-122.14016489915886,124.44347381591797,-9.623044072429097e-07,-20.432521758587303,0.5102431967818437,0.044526530302192995,4.99980173487902,0.0,-0.6678869797100196,4.988311194394951,-2.235002567740859,0.9970560122911271,-0.269732197010054,-0.004350519306613787,0.95986785888672,0.044526530302192995,4.99980173487902,0.0,-0.0,-0.0,0.0,-0.7124135100122126,-0.011490540484068308,-2.235002567740859
22/04/2022,11:44:24,20.643536,-0.0027491635410115123,1.274173173122108,2.5853805541992188,2.5853805541992188,0.027090005576610565,3.0418949127197266,0.7872619032859802,0.027090005576610565,3.0418949127197266,1.5340110063552856,47.64147954555802,-122.14016484740449,124.5877456665039,-1.5464606582742031e-06,-17.123596088787703,0.5102431565524682,0.044526526791656904,4.999801734910283,-2.0,0.044526526791656904,4.999801734910283,-2.0,0.8600508082947781,-0.27579478597709295,-0.004448302999630727,0.8146194458007825,0.044526526791656904,4.999801734910283,-2.0,-0.0,-0.0,0.0,-0.0,-0.0,-0.0
22/04/2022,11:44:24,20.803533,-0.0038152210181578994,1.7683943221345544,2.6641082763671875,2.6641082763671875,0.029228853061795235,3.2820653915405273,0.09971350431442261,0.029228853061795235,3.2820653915405273,1.5340110063552856,47.641483998560126,-122.1401647885463,124.6644287109375,-1.370268729978826e-06,-16.04232941753239,0.5102429645893805,0.04452651004038155,4.999801735059464,-5.0,0.04452651004038155,4.999801735059464,-5.0,0.7883373104389967,-0.28269824145085654,-0.0045596490556594205,0.7358917236328137,0.04452651004038155,4.999801735059464,-5.0,-0.0,-0.0,0.0,-0.0,-0.0,0.0
22/04/2022,11:44:24,20.991533,-0.005198949598707259,2.410131521522999,2.5947113037109375,2.6641082763671875,0.031478025019168854,3.532700777053833,-0.8622097969055176,0.031478025019168854,3.532700777053833,1.5340110063552856,47.64148977898915,-122.14016471213495,124.59214782714844,0.11248714371413115,-17.370846376955548,0.12832427391117793,0.0111983960877211,4.99998745957678,0.0,-0.4611928000457249,4.992368246735916,2.550550886377707,0.8564923770348624,-0.291662780774251,-0.0047042383995852255,0.8052886962890637,0.0111983960877211,4.99998745957678,0.0,-0.0,-0.0,0.0,-0.472391196133446,-0.0076192128408638544,2.550550886377707
22/04/2022,11:44:24,21.181533,-0.006844646646641195,3.114176206290722,2.4538497924804688,2.6641082763671875,0.03382997214794159,4.083133697509766,-0.3724202513694763,0.03382997214794159,4.083133697509766,1.5340110063552856,47.641496128064325,-122.14016463000694,124.45272064208984,0.0811181594600384,-10.234394239013245,-0.6588922125341734,-0.05749792528829169,4.99966938792832,0.0,-0.7653895978975274,4.988251780305586,2.390766709005022,0.9929993910228341,-0.30137011783623824,-0.004860808352197932,0.9461502075195325,-0.05749792528829169,4.99966938792832,0.0,-0.0,-0.0,0.0,-0.7078916726092357,-0.011417607622732938,2.390766709005022
22/04/2022,11:44:24,21.379535,-0.0097382883541286,3.923658079467714,2.3946533203125,2.6641082763671875,0.02703889273107052,4.3387651443481445,-0.28769031167030334,0.03382997214794159,4.3387651443481445,1.5340110063552856,47.64150330109306,-122.14016455037438,124.3946533203125,-0.274538851884965,-6.193905694779064,-1.0590282879338506,-0.092412390295922,4.999145922067068,0.0,-0.970722071284153,4.984979636889839,2.7587329508582705,1.052519895232051,-0.3115299923260671,-0.005024677295581981,1.0053466796875012,-0.092412390295922,4.999145922067068,0.0,-0.12281684717945258,-0.001980916889991271,0.39634549662337065,-0.7554928338087784,-0.012185368287238828,2.3623874542349
22/04/2022,11:44:25,21.564536,-0.015088281594216824,4.743323499336839,2.3433609008789062,2.6641082763671875,0.011331122368574142,4.483295917510986,-0.25988563895225525,0.03382997214794159,4.483295917510986,1.5340110063552856,47.64151079673936,-122.14016450012487,124.34258270263672,-0.5014733182117816,-4.351913706891915,-1.2471678335520264,-0.10882733070799865,4.998815520910026,1.0,-0.9637520959147564,4.985026411793787,3.7779515742969325,1.103869574898309,-0.3193983621614342,-0.005151586486475956,1.056639099121095,-0.10882733070799865,4.998815520910026,1.0,-0.12384985198531127,-0.001997578257828071,0.4097221887502889,-0.7310749132214465,-0.01179153085841102,2.368229385546644
22/04/2022,11:44:25,21.750535,-0.024493050295859575,5.587522827088833,2.3362655639648438,2.6641082763671875,-0.014195287600159645,4.61310338973999,0.3490794599056244,0.03382997214794159,4.61310338973999,1.5340110063552856,47.641518396218494,-122.14016450170855,124.33729553222656,-0.46049612530472933,-3.0825462964466284,-2.846195604284135,-0.2482752832759386,4.993832134114467,0.0,-0.3734102713728997,4.9918138278548385,0.4113314332750649,1.111881616950081,-0.323608616369889,-0.005219493812418818,1.0637344360351575,-0.2482752832759386,4.993832134114467,0.0,-0.1251349880969611,-0.0020183062596288897,0.4113314332750649,-0.0,-0.0,0.0
22/04/2022,11:44:25,21.939531,-0.03883137786760926,6.47723407112062,2.3852615356445312,2.6641082763671875,-0.033236678689718246,4.658751010894775,-0.056839101016521454,0.03382997214794159,4.658751010894775,1.5340110063552856,47.64152627784835,-122.1401645606725,124.38526153564453,-0.8716173585280954,-2.6351003112415157,-6.454275258305243,-0.5620513023732291,4.9683094039623334,0.0,-1.4510794229486146,4.953970240727243,2.5088789269745404,1.0651063810063692,-0.3236204670705822,-0.005219684952751713,1.01473846435547,-0.5620513023732291,4.9683094039623334,0.0,-0.127092011567753,-0.0020498711543187487,0.3985074053489385,-0.7619361090076325,-0.012289292080772198,2.110371521625602
22/04/2022,11:44:25,22.092534,-0.05397054483182728,7.177556101232767,2.3717269897460938,2.6641082763671875,-0.07305878400802612,4.6960530281066895,-0.09387653321027756,0.03382997214794159,4.6960530281066895,1.5340110063552856,47.641532706521865,-122.14016466171557,124.37144470214844,-2.0222703145338854,-2.4251072137087855,-7.922366810318871,-0.6891560258721717,4.952278664615318,0.0,-1.407437111417213,4.9406934858161975,2.620732971680828,1.0768611040415574,-0.31977781637006175,-0.005157706715646526,1.0282730102539075,-0.6891560258721717,4.952278664615318,0.0,-0.12511590423178026,-0.002017998455351439,0.40232092687182747,-0.5931651813132609,-0.009567180343768519,2.218412044809001
22/04/2022,11:44:25,22.275535,-0.08352892135735601,8.02446527313441,2.3573532104492188,2.6641082763671875,-0.15857164561748505,4.730604648590088,-0.06562984734773636,0.03382997214794159,4.730604648590088,1.5340110063552856,47.64154032982841,-122.14016493358055,124.3571548461914,-2.901169485596429,-2.2252192515950324,-9.514818577400245,-0.8265134315413823,4.931214408995181,0.0,-1.207571392403946,4.925068312852227,2.617676568116832,1.0860393509343578,-0.30388340006154924,-0.004901345162284798,1.0426467895507825,-0.8265134315413823,4.931214408995181,0.0,-0.1185423167475069,-0.0019119728507669214,0.40672759998626523,-0.2625156441150568,-0.004234123292186474,2.210948968130567
22/04/2022,11:44:25,22.459531,-0.13138829299714416,8.890550481155515,2.3475723266601562,2.6641082763671875,-0.26504576206207275,4.753499984741211,-0.042316410690546036,0.03382997214794159,4.753499984741211,1.5340110063552856,47.641547999057046,-122.14016543651869,124.34757232666016,-3.3351335429844298,-2.0773793814011086,-11.46788121662179,-0.9940928918908751,4.900181560135505,0.0,-0.895421727028361,4.90177303053651,2.585174085026872,1.0865192268237798,-0.27000195879079836,-0.004354870303076908,1.052427673339845,-0.9940928918908751,4.900181560135505,0.0,-0.10530880575229053,-0.0016985291250367547,0.4104781384417789,0.20397997061480477,0.0032899995260411833,2.1746959465850932
22/04/2022,11:44:26,22.641534,-0.1998614117037505,9.759644153527915,2.3417816162109375,2.6641082763671875,-0.38330063223838806,4.765837669372559,-0.0217114444822073,0.03382997214794159,4.765837669372559,1.5340110063552856,47.64155582489641,-122.140166219737,124.34178161621094,-3.7322083883964288,-1.9080715547972555,-12.436681395661232,-1.0768027978951877,4.882673011214768,0.0,-0.4098116006454814,4.893430933751055,2.49751123095844,1.0799558446867115,-0.21556064263446395,-0.0034767845586216595,1.0582183837890637,-1.0768027978951877,4.882673011214768,0.0,-0.08425571863115336,-0.0013589632037287775,0.41362351357450494,0.7512469158808598,0.012116885740015085,2.083887717383935
22/04/2022,11:44:26,22.795534,-0.27423954487312585,10.48722869809717,2.3391876220703125,2.6641082763671875,-0.4864230751991272,4.769243240356445,-0.012537884525954723,0.03382997214794159,4.769243240356445,1.5340110063552856,47.641562506734324,-122.14016712187164,124.33914947509766,-3.782024791805989,-1.7571424674820346,-12.849767544897341,0.22239543599750378,-0.9749565477740432,0.0,1.3691759493828113,-0.9564600878807347,2.383665516443495,1.0717825362758366,-0.1529340360961583,-0.0024666780015518697,1.0608123779296887,0.22239543599750378,-0.9749565477740432,0.0,-0.05993404293736722,-0.0009666781118933839,0.4157267814952128,1.2067145563226747,0.019463138005201924,1.967938734948282
22/04/2022,11:44:26,22.970534,-0.37812938541173935,11.317289622500539,2.3550033569335938,2.6641082763671875,-0.5626906156539917,4.466567039489746,0.45795002579689026,0.03382997214794159,4.769243240356445,1.5340110063552856,47.641569976973614,-122.14016838542528,124.35635375976562,-3.7707609624697667,16.827814671557018,-14.328845495964355,0.0,0.0,-3.0,-0.024664056411489582,-0.00039780736147571657,-2.5873265414111053,1.0468618472812412,-0.06245581250255067,-0.0010073518145574667,1.0449966430664075,0.0,0.0,-3.0,-0.024664056411489582,-0.00039780736147571657,0.41267345858889476,0.0,0.0,0.0
22/04/2022,11:44:26,23.117532,-0.467236697091721,11.947238078340888,2.419586181640625,2.6641082763671875,-0.5285543203353882,4.016565799713135,0.09273877739906311,0.03382997214794159,4.769243240356445,1.5340110063552856,47.641575532781545,-122.1401694561212,124.41958618164062,-4.177963467532051,26.93060626588169,-15.196518795046176,0.0,0.0,0.0,1.7401123248465458,0.028066327820103792,1.4656924024494502,0.980552193119387,0.0164705078708558,0.00026565335275563484,0.9804138183593762,0.0,0.0,0.0,0.0,0.0,0.0,1.7401123248465458,0.028066327820103792,1.4656924024494502
22/04/2022,11:44:26,23.270537,-0.543319275835529,12.473924213089049,2.430938720703125,2.6641082763671875,-0.423729807138443,3.1623332500457764,0.36220625042915344,0.03382997214794159,4.769243240356445,1.5340110063552856,47.64158036434228,-122.14017040819208,124.4320068359375,-3.2288154296198353,24.594909275279733,-15.107555424579775,0.0,0.0,0.0,0.0,0.0,0.0,0.9726995517377067,0.08404057089733485,0.0013554930789876352,0.9690612792968762,0.0,0.0,0.0,0.0,0.0,0.0,0.0,0.0,0.0
22/04/2022,11:44:26,23.443533,-0.610036997240968,12.931472996249795,2.5625152587890625,2.6641082763671875,-0.29408812522888184,2.1992321014404297,0.9684489965438843,0.03382997214794159,4.769243240356445,1.5340110063552856,47.64158446133797,-122.14017122358882,124.56542205810547,-2.404629082437923,19.78393660013161,-14.887366913118202,0.0,0.0,-5.0,1.1922929470371388,0.01923053140381703,-6.984706258166092,0.8496699359010865,0.14336304073518702,0.002312307108629952,0.8374847412109387,0.0,0.0,-5.0,0.0,0.0,0.0,1.1922929470371388,0.01923053140381703,-1.9847062581660924
22/04/2022,11:44:27,23.617534,-0.6613673547981307,13.285635061562061,2.6786422729492188,2.6786422729492188,-0.24313697218894958,1.8334358930587769,0.1995910108089447,0.03382997214794159,4.769243240356445,1.5340110063552856,47.641587593356846,-122.14017184283136,124.67864227294922,-2.747082571702954,22.665307560182477,-15.038911014234325,0.0,0.0,-5.0,0.0,0.0,-5.0,0.7457047905752823,0.18896924265986131,0.003047891010639958,0.7213577270507825,0.0,0.0,-5.0,0.0,0.0,0.0,0.0,0.0,0.0
22/04/2022,11:44:27,23.761533,-0.6963760772487149,13.52936451882124,2.6558380126953125,2.6786422729492188,-0.20297405123710632,1.5495134592056274,-0.5444223880767822,0.03382997214794159,4.769243240356445,1.5340110063552856,47.64158978961971,-122.14017227289129,124.65583801269531,-2.770361176840461,22.566325741721965,-15.262287534412174,0.0,0.0,-2.0,0.7492742606237457,0.01208506871974075,0.38479073504958095,0.7760197908053358,0.22003876223072644,0.003549012294042697,0.7441619873046887,0.0,0.0,-2.0,0.0,0.0,0.0,0.7492742606237457,0.01208506871974075,2.384790735049581
22/04/2022,11:44:27,23.948534,-0.7316662033554167,13.779027779586613,2.4800796508789062,2.6786422729492188,-0.15995372831821442,1.2475661039352417,-1.409704566001892,0.03382997214794159,4.769243240356445,1.5340110063552856,47.6415920728675,-122.14017271220747,124.475830078125,-1.9518454285661317,14.839655604712394,-15.575522366333628,0.0,0.0,-1.0,0.7456698804909543,0.012026933556310225,4.252187472492813,0.9536343723652154,0.25129393065379757,0.004053127913770993,0.919920349121095,0.0,0.0,-1.0,0.0,0.0,0.0,0.7456698804909543,0.012026933556310225,5.252187472492813
22/04/2022,11:44:27,24.121532,-0.7572726071812212,13.9644276779145,2.227325439453125,2.6786422729492188,-0.10971811413764954,0.8832041025161743,-1.3602279424667358,0.03382997214794159,4.769243240356445,1.5340110063552856,47.64159370984454,-122.14017301932729,124.22732543945312,-1.2626562363277176,8.928834739529758,-15.717754825914794,0.0,0.0,-1.0,0.8186817274674332,0.01320454399141008,5.438487413332192,1.2042460775480879,0.2739041315926959,0.0044178085740735895,1.1726745605468762,0.0,0.0,-1.0,0.10226339363620952,0.0016494095747767701,0.43782355342745094,0.7164183338312237,0.01155513441663331,6.000663859904741
22/04/2022,11:44:27,24.295536,-0.7752196599030867,14.097728387452662,1.991851806640625,2.6786422729492188,-0.08050243556499481,0.6611112356185913,-1.3456315994262695,0.03382997214794159,4.769243240356445,1.5340110063552856,47.64159491090665,-122.14017323856217,123.99185180664062,-0.8873972400346141,5.943058269530861,-15.80686490804689,0.0,0.0,-3.0,0.8551028736974169,0.013791981833825004,4.7092001686447675,1.4376465338026563,0.2896970644071262,0.004672533296888659,1.4081481933593762,0.0,0.0,-3.0,0.09717032107105544,0.0015672632430813807,0.47232170731306655,0.7579325526263615,0.012224718590743623,7.236878461331701
22/04/2022,11:44:27,24.473536,-0.7893246515886858,14.20387913659215,1.7126312255859375,2.6786422729492188,-0.06695371121168137,0.5540286898612976,-1.963020920753479,0.03382997214794159,4.769243240356445,1.5340110063552856,47.641595882279994,-122.14017341334004,123.70675659179688,-0.7673786748572167,4.976058823875744,-15.864738887024203,0.0,0.0,0.0,2.0482374339159315,0.033036087643804044,26.812529759064677,1.714203462168991,0.3020867241191665,0.004872366518050342,1.6873687744140637,0.0,0.0,0.0,0.08770147841125686,0.0014145399743748987,0.48987500716094795,1.9605359555046746,0.031621547669429144,26.32265475190373
22/04/2022,11:44:28,24.653531,-0.8003662879345939,14.287554221227765,1.402557373046875,2.6786422729492188,-0.045033518224954605,0.37649965286254883,-1.1781272888183594,0.03382997214794159,4.769243240356445,1.5340110063552856,47.641596631416334,-122.1401735471026,123.39898681640625,-0.5027822103973892,3.1985686093811654,-15.87977735199444,0.0,0.0,0.0,0.8941879036967092,0.01442238554349349,9.622864197358469,2.0216346752397447,0.3117762416396508,0.005028649058703039,1.9974426269531262,0.0,0.0,0.0,0.07711009236402701,0.0012437111671614771,0.4940177116966443,0.8170778113326822,0.013178674376332012,9.128846485661825
22/04/2022,11:44:28,24.829532,-0.8073767628520727,14.341131806373596,1.2888870239257812,2.6786422729492188,-0.030010640621185303,0.2525264024734497,-0.2762434780597687,0.03382997214794159,4.769243240356445,1.5340110063552856,47.64159711077812,-122.14017363191269,123.28805541992188,-0.3526530901057916,2.2166651325014035,-15.88886982763935,0.0,0.0,0.0,0.4407697334638103,0.007109189249414042,3.1330063105741734,2.1349234250054994,0.31792096343516374,0.005127757474758354,2.11111297607422,0.0,0.0,0.0,0.07449380493191554,0.0012015129827722807,0.49466646215980337,0.3662759285318948,0.005907676266641761,2.63833984841437
22/04/2022,11:44:28,25.004878,-0.8123024380765855,14.378930147737265,1.2517013549804688,2.6786422729492188,-0.022850841283798218,0.1927400380373001,-0.18484561145305634,0.03382997214794159,4.769243240356445,1.5340110063552856,47.641597449715945,-122.1401736916169,123.25114440917969,-0.26301512458355875,1.6424795090570217,-15.893705401110099,0.0,0.0,0.0,0.4411553212902235,0.007115408407903985,3.0491728241210083,2.1723374585167976,0.32223586548938477,0.00519735266918353,2.1482986450195325,0.0,0.0,0.0,0.07424392888492647,0.001197482723950405,0.49497324446545293,0.366911392405297,0.0059179256839535805,2.554199579655555
22/04/2022,11:44:28,25.149535,-0.8156776274554431,14.404868939891458,1.226043701171875,2.6786422729492188,-0.018256833776831627,0.1541469544172287,-0.15739910304546356,0.03382997214794159,4.769243240356445,1.5340110063552856,47.64159768236197,-122.14017373253371,123.22557067871094,-0.207667912728718,1.2928448699036956,-15.895847494189944,0.0,0.0,3.0,0.4384399449085372,0.0070716120146527475,6.037256228709134,2.198149968327497,0.32519191824849236,0.0052450309394913575,2.1739562988281262,0.0,0.0,3.0,0.07408455391836063,0.001194912159973455,0.49526625232310406,0.36435539099017655,0.005876699854679293,2.5419899763860294
22/04/2022,11:44:28,25.323532,-0.8185961628332734,14.427321594208479,1.2558441162109375,2.6786422729492188,-0.012756481766700745,0.10785641521215439,0.7294049263000488,0.03382997214794159,4.769243240356445,1.5340110063552856,47.64159788341616,-122.1401737678511,123.25800323486328,-0.12890885695019702,0.7977506138289315,-15.89649389039392,0.0,0.0,0.0,0.07562340057130261,0.0012197322672789558,0.49473538465850025,2.169066831610681,0.32774764917819954,0.005286252406099479,2.1441558837890637,0.0,0.0,0.0,0.07562340057130261,0.0012197322672789558,0.49473538465850025,0.0,0.0,0.0
22/04/2022,11:44:28,25.497536,-0.8207968432689086,14.444259422831237,1.37322998046875,2.6786422729492188,-0.010750104673206806,0.09086054563522339,0.324750155210495,0.03382997214794159,4.769243240356445,1.5340110063552856,47.64159803555192,-122.14017379456544,123.37421417236328,-0.11265836272184204,0.698477089238965,-15.897326180887081,0.0,0.0,0.0,0.6692677519587555,0.010794641160620405,2.822958397462928,2.05341431589713,0.329674637531898,0.005317332863416624,2.0267700195312512,0.0,0.0,0.0,0.08027719568960895,0.001294793478864396,0.49352723853378094,0.5889905562691465,0.009499847681756008,2.329431158929147
22/04/2022,11:44:29,25.769535,-0.8234847845742479,14.464946587570012,1.4278793334960938,2.6786422729492188,-0.007606173865497112,0.06426451355218887,0.15659934282302856,0.03382997214794159,4.769243240356445,1.5340110063552856,47.64159822122058,-122.14017382716801,123.4283447265625,-0.08573454316130585,0.5322360189032266,-15.897757845143735,0.0,0.0,0.0,0.5893610040506436,0.009505822645975777,2.9266649485161924,1.9998828456092135,0.332028302594036,0.005355295203127497,1.9721206665039075,0.0,0.0,0.0,0.08301193825500944,0.001338902229918978,0.493059048642051,0.5063490657956342,0.0081669204160568,2.4336058998741414
22/04/2022,11:44:29,25.926535,-0.8246755965519696,14.474108102731407,1.4506988525390625,2.6786422729492188,-0.006066845264285803,0.05125324800610542,0.13049229979515076,0.03382997214794159,4.769243240356445,1.5340110063552856,47.64159830342444,-122.14017384160555,123.45109558105469,-0.06970471572190139,0.4327280922118865,-15.897811555834728,0.0,0.0,0.0,0.580588186653538,0.009364325591184827,2.9322151916928823,1.9775591433347455,0.33307107692494775,0.005372114143948892,1.9493011474609387,0.0,0.0,0.0,0.08421248113813248,0.0013582658248081135,0.4928542208727542,0.4963757055154055,0.008006059766376713,2.439360970820128
22/04/2022,11:44:29,26.062533,-0.8255267714848742,14.480655346997082,1.4677658081054688,2.6786422729492188,-0.004948506131768227,0.04179982468485832,0.11121246963739395,0.03382997214794159,4.769243240356445,1.5340110063552856,47.641598362152656,-122.14017385192582,123.46810150146484,-0.05732459042024763,0.3558358280918635,-15.897816379537893,0.0,0.0,0.0,0.574307686726847,0.009263027205269489,2.935773637100343,1.9608649592394274,0.3338164572364206,0.005384136407037943,1.9322341918945325,0.0,0.0,0.0,0.08511867531986063,0.0013728818599974717,0.4926935483750613,0.48918901140698634,0.007890145345272017,2.4430800887252815
22/04/2022,11:44:29,26.212536,-0.8262339116772637,14.486096444539726,1.4825897216796875,2.6786422729492188,-0.004012355115264654,0.03388551250100136,0.09446195513010025,0.03382997214794159,4.769243240356445,1.5340110063552856,47.64159841186578,-122.14017386065882,123.483154296875,-0.04664659139678125,0.289551802534828,-15.897759067542673,0.0,0.0,0.0,0.568978670826054,0.00917707533590312,2.93853837930898,1.9463654574186326,0.3344356767037552,0.005394123817801244,1.9174102783203137,0.0,0.0,0.0,0.08591021678607912,0.0013856486578396625,0.4925465318231249,0.48306845403997495,0.0077914266780634575,2.445991847485855
22/04/2022,11:44:29,26.360534,-0.8268176928395405,14.490584656596184,1.49542236328125,2.6786422729492188,-0.0032363147474825382,0.027325307950377464,0.07986878603696823,0.03382997214794159,4.769243240356445,1.5340110063552856,47.641598451222016,-122.14017386757546,123.49565887451172,-0.037655660828130946,0.2337698192135302,-15.897732843005413,0.0,0.0,0.0,0.5644285619868308,0.009103686483652808,2.9407199508240436,1.9338134886070633,0.3349469343475242,0.00540236990882903,1.9045776367187512,0.0,0.0,0.0,0.08659767692252118,0.0013967367245562746,0.4924123254918468,0.4778308850643096,0.007706949759096533,2.448307625332197
22/04/2022,11:44:29,26.512534,-0.8272971826372668,14.494271819479764,1.5064620971679688,2.6786422729492188,-0.0025973764713853598,0.021929271519184113,0.06721103191375732,0.03382997214794159,4.769243240356445,1.5340110063552856,47.64159848369971,-122.14017387328485,123.50646209716797,-0.02672811303904221,0.18808795032238734,-14.861937276309044,0.0,0.0,0.0,0.5605497531093797,0.00904112505014912,2.942450558270166,1.9230148123978095,0.3353668445383377,0.005409142653840959,1.8935379028320325,0.0,0.0,0.0,0.08719023869144674,0.0014062941724418579,0.4922908284105976,0.473359514417933,0.0076348308777072615,2.4501597298595685
22/04/2022,11:44:30,26.689533,-0.8277420091908425,14.497694372199476,1.5172576904296875,2.6786422729492188,-0.001998375868424773,0.01691298931837082,0.054743051528930664,0.03382997214794159,4.769243240356445,1.5340110063552856,47.64159851499188,-122.14017387878157,123.51741790771484,-0.009060670746846862,0.14606430092246617,-10.39783224830539,0.0,0.0,0.0,0.5567845790241526,0.008980396435868747,2.9440148490650864,1.9124539914091887,0.335756367296029,0.0054154252789651025,1.8827423095703137,0.0,0.0,0.0,0.08776977425259494,0.0014156415202023318,0.4921659976774178,0.4690148047715576,0.007564754915666416,2.4518488513876684
22/04/2022,11:44:30,26.865533,-0.8280839781509712,14.500334686599672,1.5260391235351562,2.6786422729492188,-0.0015328825684264302,0.013045098632574081,0.04449328035116196,0.03382997214794159,4.769243240356445,1.5340110063552856,47.64159853867597,-122.14017388292537,123.52617645263672,0.001926599780122472,0.1126765824354583,-5.877136185697624,0.0,0.0,0.0,0.553726049972214,0.00893106532212913,2.9452031845628204,1.903862432214983,0.3360556726770231,0.005420252785112822,1.873960876464845,0.0,0.0,0.0,0.08824060679990532,0.0014232355935467412,0.4920596743429005,0.46548544317230867,0.00750782972858239,2.45314351021992
22/04/2022,11:44:30,27.042533,-0.8283463208936155,14.502372052520514,1.533172607421875,2.6786422729492188,-0.001175701036117971,0.010063174180686474,0.036065056920051575,0.03382997214794159,4.769243240356445,1.5340110063552856,47.641598556680044,-122.14017388605532,123.53317260742188,0.004828591790536847,0.08665616041469285,-3.605911772779526,0.0,0.0,0.0,0.5512435873424377,0.008891025602292088,2.9461161780439267,1.8968820727878917,0.3362850949957832,0.0054239531450903655,1.8668273925781262,0.0,0.0,0.0,0.08862210085053096,0.0014293887233948934,0.4919699621467523,0.4626214864919068,0.007461636878897195,2.4541462158971745
22/04/2022,11:44:30,27.221534,-0.828547653160058,14.503942380659282,1.5389404296875,2.6786422729492188,-0.0009030088549479842,0.007764006033539772,0.02913379855453968,0.03382997214794159,4.769243240356445,1.5340110063552856,47.641598570827966,-122.14017388850365,123.5389404296875,0.004934922039020871,0.0666804618050798,-2.496560310694653,-0.08711882104423652,1.9981016768472675,0.0,0.46210078673701377,2.0069600576179316,2.9468272675235183,1.8912372180436496,0.33646105361414497,0.0054267911873235875,1.8610595703125012,-0.08711882104423652,1.9981016768472675,0.0,0.08892974206773004,0.001434350678511423,0.49189511173073674,0.46028986571352026,0.0074240300921526925,2.4549321557927817
22/04/2022,11:44:30,27.401053,-0.8290151277324185,14.510950008407235,1.5531997680664062,2.6786422729492188,-0.006072380114346743,0.13234803080558777,0.20673935115337372,0.03382997214794159,4.769243240356445,1.5340110063552856,47.641598637424806,-122.14017389393149,123.55381774902344,-0.06717343754252421,-7.883062787382018,-1.9446228612604193,-1.1690918706793374,4.963186899353226,0.0,-0.5118737726735137,4.973787191256543,2.8517175745370307,1.8772706861403718,0.33681540974828816,0.005432506608842758,1.846800231933595,-1.1690918706793374,4.963186899353226,0.0,0.08967563502585903,0.0014463812100943409,0.49170251351717015,0.5675424629799647,0.009153910693223005,2.3600150610198605
22/04/2022,11:44:31,27.580055,-0.8358300679828972,14.575295871123672,1.6285476684570312,2.6786422729492188,-0.10740502923727036,0.7609607577323914,0.812910258769989,0.03382997214794159,4.769243240356445,1.5340110063552856,47.64159923377402,-122.14017397913736,123.63096618652344,-3.97625857891529,-21.46429832237578,-1.245882841851037,-1.1084788126371292,4.977074916246949,0.0,-1.0136829677775725,4.978603881486619,0.49016557645260345,1.804284483302323,0.34259101100561484,0.0055256614678302896,1.77145233154297,-1.1084788126371292,4.977074916246949,0.0,0.09479584485955672,0.0015289652396696589,0.49016557645260345,0.0,0.0,0.0
22/04/2022,11:44:31,27.758056,-0.8767722739139572,14.796376035548747,1.838714599609375,2.6786422729492188,-0.34371447563171387,1.8242757320404053,1.5739259719848633,0.03382997214794159,4.769243240356445,1.5739259719848633,47.64160120658829,-122.14017448730587,123.83871459960938,-4.851277557225635,-24.100675272751058,-0.9448422122554757,-1.0823133335940232,4.982830304949647,0.0,0.37496342536850324,5.00633476880388,-1.6291889646908242,1.606865738664942,0.3799576870536357,0.006128349791184817,1.5612854003906262,-1.0823133335940232,4.982830304949647,0.0,0.1167927039387366,0.0018837532893335837,0.47991328967626273,1.3404840550237898,0.021620710564899843,-2.109102254367087
22/04/2022,11:44:31,27.903581,-0.9387949681840837,15.0982527686283,2.0601043701171875,2.6786422729492188,-0.46499666571617126,2.363023042678833,1.4112086296081543,0.03382997214794159,4.769243240356445,1.5739259719848633,47.641603992230586,-122.1401752869549,124.06434631347656,-4.4289878540187555,-22.350783878102725,-1.0657957464426984,-1.0928298553275368,4.980534399771252,0.0,0.6972674863448541,5.009406937540156,-1.4296962626916139,1.4094053297898097,0.4370965373328123,0.007049944150528731,1.3398956298828137,-1.0928298553275368,4.980534399771252,0.0,0.1486755070267155,0.0023979920488178224,0.4557566695707458,1.6414218346456755,0.026474545720086236,-1.8854529322623597
22/04/2022,11:44:31,28.091581,-1.0379267330281436,15.566632457077503,2.2772140502929688,2.6786422729492188,-0.5778467059135437,2.862424612045288,0.9914301633834839,0.03382997214794159,4.769243240356445,1.5739259719848633,47.64160822950688,-122.14017654198808,124.28019714355469,-3.719079997852803,-18.70237846613132,-1.323452307435543,-1.1152159706321143,4.975569649683046,0.0,1.2753331791113491,5.014126894033745,-0.7738809035334147,1.2410446353063902,0.5286499738417111,0.008526612481315254,1.1227859497070325,-1.1152159706321143,4.975569649683046,0.0,0.1943637454735704,0.003134899120540478,0.41280411112911736,2.196185404269893,0.035422345230158296,-1.186685014662532
22/04/2022,11:44:31,28.271578,-1.161296343547292,16.13705250993371,2.428558349609375,2.6786422729492188,-0.6801525950431824,3.2961947917938232,0.6445362567901611,0.03382997214794159,4.769243240356445,1.5739259719848633,47.64161338544701,-122.14017810419034,124.43049621582031,-3.0951783014439243,-14.852386205058528,-1.5562589676151983,-1.135423656199421,4.970997195829297,0.0,1.5734588764107162,5.014688849581068,-0.04448115615236142,1.1648969033497782,0.6427895680051758,0.010367573677498854,0.9714416503906262,-1.135423656199421,4.970997195829297,0.0,0.2437630421944958,0.003931661970877454,0.36839672546109853,2.4651194904156415,0.039759991780893025,-0.41287788161345995
22/04/2022,11:44:31,28.447581,-1.2962150839157403,16.74826727528125,2.5220565795898438,2.6786422729492188,-0.7667229175567627,3.637416362762451,0.41980472207069397,0.03382997214794159,4.769243240356445,1.5739259719848633,47.641618809090275,-122.14017978284423,124.52205657958984,-2.6066223789907426,-11.700210360479094,-1.716917033888571,-1.1493579112256442,4.967793916005678,0.0,1.644063681372709,5.012849102983064,0.3766790097471939,1.1663968877014257,0.7678174802352843,0.012384152907017665,0.8779434204101575,-1.1493579112256442,4.967793916005678,0.0,0.2910087410129336,0.004693689371175193,0.33274732085528763,2.5024128515854196,0.04036149760621151,0.04393168889190632
22/04/2022,11:44:32,28.597578,-1.4171550284372643,17.286152405664325,2.5734634399414062,2.6786422729492188,-0.8290538787841797,3.865304470062256,0.29650309681892395,0.03382997214794159,4.769243240356445,1.5739259719848633,47.64162386870464,-122.14018137973486,124.57524108886719,-2.262358917803573,-9.588551341675295,-1.809159240859039,-1.1573542198316655,4.965937092819223,0.0,1.6969536199985369,5.011974316042286,0.5526661712704853,1.2074174305272305,0.8800526606402226,0.014194397752259391,0.826536560058595,-1.1573542198316655,4.965937092819223,0.0,0.328146143575182,0.0052926797350827375,0.30819153993559156,2.5261616962550204,0.04074454348798098,0.24447463133489378
22/04/2022,11:44:32,28.775577,-1.5805823361733928,17.99980327207595,2.6172332763671875,2.6786422729492188,-0.8964679837226868,4.094084739685059,0.19427010416984558,0.03382997214794159,4.769243240356445,1.5739259719848633,47.64163020749423,-122.14018341946692,124.6178207397461,-1.869240402465843,-7.481544665969563,-1.8877867387266676,-1.1641679266874696,4.964344170026107,0.0,1.8653196152124423,5.013206872314813,0.6703505908245587,1.2953301549779899,1.0319299603073637,0.016644031617861543,0.7827667236328137,-1.1641679266874696,4.964344170026107,0.0,0.37045123846032685,0.005975019975166864,0.2810044415310296,2.659036303439585,0.04288768231353948,0.3893461492935291
22/04/2022,11:44:32,28.950581,-1.7495597288943827,18.72424702346325,2.6453704833984375,2.6786422729492188,-0.9508058428764343,4.265410900115967,0.1315624862909317,0.03382997214794159,4.769243240356445,1.5739259719848633,47.64163663169242,-122.14018552613756,124.64537048339844,-1.7028718906831166,-5.870826822059275,-0.36758145729276104,-1.0320567341580533,4.993481640847297,0.0,2.3223225401887273,5.047584532369014,0.7477921539830501,1.4085407727178796,1.1891818679883708,0.019180352709486925,0.7546295166015637,-1.0320567341580533,4.993481640847297,0.0,0.40466416180526815,0.006526841319438813,0.2567912688793812,2.9497151125415124,0.04757605020227856,0.49100088510366896
22/04/2022,11:44:32,29.128581,-1.936539433314465,19.51445037405938,2.6653518676757812,2.6786422729492188,-0.9902046918869019,4.405426502227783,0.08902467042207718,0.03382997214794159,4.769243240356445,1.5739259719848633,47.64164375959979,-122.14018789858915,124.66535186767578,-1.1096442256086074,-4.681475566484538,3.208289493924225,-0.7186028886243427,5.048129345456667,0.0,3.137323301464782,5.1103217033613255,0.8281218926030958,1.5488615275876474,1.363371042514726,0.021989855524431334,0.73464813232422,-0.7186028886243427,5.048129345456667,0.0,0.4320381507420457,0.00696835727003308,0.23280237781053312,3.4238880393470787,0.05522400063462547,0.5953195147925626
22/04/2022,11:44:32,29.314583,-2.1278717821696773,20.327620457857847,2.6795654296875,2.6795654296875,-0.9889568090438843,4.518874168395996,0.06968659907579422,0.03382997214794159,4.769243240356445,1.5739259719848633,47.64165121630946,-122.14019036516167,124.67977142333984,0.5424530213177493,-4.124459360947865,4.985974109035624,0.0,0.0,0.0,4.334533317939493,0.06991182770869284,0.8796012400712845,1.7017620393440809,1.5415413946093768,0.024863570880793162,0.7204345703125012,0.0,0.0,0.0,0.4505221216782878,0.007266485833519826,0.21055011061173576,3.8840111962612047,0.06264534187517301,0.6690511294595487
22/04/2022,11:44:32,29.499583,-2.3090847249841318,21.13362640980631,2.7009735107421875,2.7009735107421875,-0.8810718059539795,4.3078107833862305,0.44271817803382874,0.03382997214794159,4.769243240356445,1.5739259719848633,47.64165848032862,-122.14019265425712,124.70227813720703,5.964461544210989,14.352112971388316,6.949881089351189,0.0,0.0,-5.0,4.1541554994043555,0.06700250805490453,-5.0174379466855,1.8472976037598485,1.709710492959951,0.027575975692901267,0.6990264892578137,0.0,0.0,-5.0,0.46243034423992047,0.00745855393935324,0.1890677172488324,3.6917251551644354,0.05954395411555129,-0.20650566393433226
22/04/2022,11:44:33,29.67658,-2.4642720218980685,21.860044720582664,2.7632598876953125,2.7632598876953125,-0.7633598446846008,3.8299977779388428,-0.07700157165527344,0.03382997214794159,4.769243240356445,1.5739259719848633,47.64166501827023,-122.14019460815832,124.76305389404297,10.749758176126333,26.642034526056204,9.512094403699685,0.0,0.0,0.0,4.099855305133098,0.06612669846988557,1.0433245550258197,1.9597127914814674,1.8531440518855788,0.029889420191700822,0.6367401123046887,0.0,0.0,0.0,0.4728039295018622,0.00762586983067467,0.16245538325139453,3.627051375631236,0.0585008286392109,0.880869171774425
22/04/2022,11:44:33,29.839579,-2.5785108890850097,22.405814848840237,2.746246337890625,2.7632598876953125,-0.5677773356437683,2.9059665203094482,0.18028880655765533,0.03382997214794159,4.769243240356445,1.5739259719848633,47.64166991507911,-122.14019604057714,124.74676513671875,8.370180579661731,22.731294873062485,9.689212565103466,0.0,0.0,0.0,3.4820211278291127,0.056161631094013446,0.45222724222816396,2.0650231570378326,1.9585527534498524,0.03158956053951201,0.6537536621093762,0.0,0.0,0.0,0.47424660476531827,0.00764913878653697,0.15830079330880947,3.0077745230637944,0.04851249230747648,0.2939264489193545
22/04/2022,11:44:33,30.011578,-2.6664849222870544,22.828001570887864,2.8346099853515625,2.8346099853515625,-0.4094238877296448,2.0690758228302,0.6048679351806641,0.03382997214794159,4.769243240356445,1.5739259719848633,47.64167369945239,-122.14019714299735,124.83642578125,6.246237836705668,17.526977651624268,9.457222075797606,0.0,0.0,0.0,3.23324635224932,0.052149134713694645,-0.5014605655197533,2.116862965578142,2.039696214272143,0.03289832603664422,0.5653900146484387,0.0,0.0,0.0,0.4819271051589705,0.007773017825143919,0.13358693865230428,2.7513192470903496,0.044376116888550726,-0.6350475041720576
22/04/2022,11:44:33,30.16258,-2.7249085882212967,23.104350340552628,2.907684326171875,2.907684326171875,-0.3422561585903168,1.7040462493896484,0.3808542490005493,0.03382997214794159,4.769243240356445,1.5739259719848633,47.64167618166983,-122.14019787725543,124.90882873535156,5.21465534812171,14.097273439483057,9.944045986242887,0.0,0.0,0.0,3.1734294809143835,0.05118434646635604,-0.15125546190558697,2.151018252724922,2.0936486065041358,0.033768525911355596,0.49231567382812624,0.0,0.0,0.0,0.4869997715331397,0.007854835024727726,0.11451664808108171,2.686429709381244,0.04332951144162832,-0.26577210998666867
22/04/2022,11:44:33,30.333577,-2.782577356440015,23.373022782616317,2.9570159912109375,2.9570159912109375,-0.2742931842803955,1.3433873653411865,0.18702979385852814,0.03382997214794159,4.769243240356445,1.5739259719848633,47.64167859484123,-122.14019860256602,124.95758056640625,4.766056462507387,10.638278358447925,13.361803696231338,0.0,0.0,0.0,3.1285223728490337,0.05046003827175425,0.1697315644573691,2.19246766898472,2.1469700768877003,0.03462854962721451,0.44298400878906374,0.0,0.0,0.0,0.49032229132522887,0.00790842405363125,0.10116812364928467,2.638200081523805,0.042551614218123,0.06856344080808442
22/04/2022,11:44:33,30.491579,-2.822170700528659,23.555116649717093,2.9774246215820312,2.9774246215820312,-0.22521108388900757,1.091863989830017,0.08905825018882751,0.03382997214794159,4.769243240356445,1.5739259719848633,47.64168023026785,-122.14019910079337,124.97769165039062,4.641418281543961,8.180648797561151,18.44400036041223,0.0,0.0,0.0,3.093896667906447,0.049901559159774345,0.33996499428045046,2.2244084816368703,2.183616889609806,0.03521962725177019,0.42257537841797,0.0,0.0,0.0,0.49194029089185387,0.007934520820836156,0.09520069915735911,2.6019563770145933,0.04196703833893819,0.24476429512309136
22/04/2022,11:44:34,30.66758,-2.860261217574589,23.728854668326676,2.9869232177734375,2.9869232177734375,-0.17607605457305908,0.8476621508598328,0.021305212751030922,0.03382997214794159,4.769243240356445,1.5739259719848633,47.64168179053853,-122.14019958024356,124.98699188232422,4.237953483483353,5.908937672551813,24.210313714397046,0.0,0.0,0.0,3.0587477458654577,0.04933464106234547,0.4654744444350455,2.257302090230838,2.2188960028401734,0.03578864520709857,0.41307678222656374,0.0,0.0,0.0,0.49316739192342646,0.00795431277295827,0.09180962023188126,2.5655803539420314,0.041380328289387196,0.3736648242031642
22/04/2022,11:44:34,30.820579,-2.8859480660175905,23.845456288196146,2.9876556396484375,2.9876556396484375,-0.14209170639514923,0.6818442344665527,-0.009988951496779919,0.03382997214794159,4.769243240356445,1.5739259719848633,47.64168281924604,-122.1401998979209,124.98765563964844,3.623098773194583,4.583722920634197,26.736815591764763,4.47211585917645,-0.013406793146989227,0.0,7.507762030541044,0.035555241875016935,0.5295048249854929,2.2805748440686084,2.2426959885314584,0.036172515944052464,0.41234436035156374,4.47211585917645,-0.013406793146989227,0.0,0.4938673894955124,0.007965603056378502,0.09080295941197612,2.5417787818690822,0.04099643196562766,0.43870186557351676
22/04/2022,11:44:34,31.010577,-2.893004569108598,23.95441329665482,3.0133285522460938,3.0133285522460938,0.2736048996448517,0.47425025701522827,0.5387327671051025,0.2736048996448517,4.769243240356445,1.5739259719848633,47.6416838130398,-122.1401999651292,125.0149154663086,18.245140542885178,-4.695457825469146,26.77615257846544,4.4721056006117434,-0.016477165322932752,0.0,7.2774103514585,0.02876968549716948,-0.8617109327614676,2.28129465742343,2.2479937423305207,0.03625796358597455,0.3866714477539075,4.4721056006117434,-0.016477165322932752,0.0,0.4948946128154133,0.007982171174441801,0.08512551117004384,2.3104101380313438,0.03726467964566043,-0.9468364439315115
22/04/2022,11:44:34,31.19958,-2.7458344420883805,24.02810958214104,3.1993637084960938,3.1993637084960938,1.3214161396026611,0.30025747418403625,1.3543447256088257,1.3214161396026611,4.769243240356445,1.5739259719848633,47.64168445667963,-122.14019795314746,125.20342254638672,21.61240146048896,-8.018581317938356,26.63418967539327,4.4721326990357655,-0.00539650026198446,0.0,4.412712242830234,-0.006354894716916111,-2.4834932158313188,2.1095096173106707,2.099673550401818,0.033865702425831756,0.2006362915039075,4.4721326990357655,-0.00539650026198446,0.0,0.49779935211703924,0.00802902180833839,0.04756768779732307,-0.5572198083225705,-0.008987416263270041,-2.531060903628642
22/04/2022,11:44:34,31.390581,-2.4322101352736354,24.080787466838956,3.4407730102539062,3.4407730102539062,1.9746766090393066,0.22718000411987305,1.1128615140914917,1.9746766090393066,4.769243240356445,1.5739259719848633,47.641684897324666,-122.14019374411887,125.44412231445312,19.262389678477557,-7.960155205478783,27.168802911866724,4.471887668845125,-0.04712406212238496,0.0,2.731781277284296,-0.07519029424433568,-2.349484862458552,1.7859790639602784,1.785281388048853,0.02879486109755902,-0.04077301025390501,4.471887668845125,-0.04712406212238496,0.0,0.49882474059546117,0.008045560332183985,-0.01139237007642164,-2.23893113215629,-0.0361117924541347,-2.3380924923821302
22/04/2022,11:44:35,31.580581,-2.003686491167173,24.124374599196017,3.618560791015625,3.618560791015625,2.4878947734832764,0.17765414714813232,0.7375895977020264,2.4878947734832764,4.769243240356445,1.5739259719848633,47.641685245370034,-122.14018801253184,125.62078094482422,15.750626979349766,-6.609860623158768,27.83928868682747,0.0,0.0,0.0,-5.422720536422696,-0.0874632344584312,-2.8293486255316047,1.3738393162296285,1.3561663581005097,0.021873650937102695,-0.21856079101562376,0.0,0.0,0.0,0.4693335209560066,0.007569895499289635,-0.07563814348998199,-5.892054057378703,-0.09503312995772083,-2.7537104820416225
22/04/2022,11:44:35,31.775578,-1.5075561406556517,24.16010295599699,3.7016754150390625,3.7016754150390625,2.653959035873413,0.14352905750274658,0.08138257265090942,2.653959035873413,4.769243240356445,1.5739259719848633,47.64168551638334,-122.14018139583645,125.70191955566406,-3.08381771175315,3.412185717865927,29.250495606501765,0.0,0.0,0.0,-10.036780036974253,-0.161883548983454,-1.047154140122978,0.9110946152926827,0.8595889262440863,0.013864337520061554,-0.30167541503906126,0.0,0.0,0.0,0.0,0.0,-0.0,-10.036780036974253,-0.161883548983454,-1.047154140122978
22/04/2022,11:44:35,31.962579,-1.035321160685271,24.187861339189112,3.7494659423828125,3.7494659423828125,2.2749905586242676,0.09656627476215363,0.4268772602081299,2.653959035873413,4.769243240356445,1.5739259719848633,47.64168571773791,-122.14017512030361,125.75074005126953,-10.737722060103486,7.240904253958543,29.079373471039467,0.0,0.0,-1.0,-8.521833683329778,-0.13744893037629044,-3.4619287213345658,0.5214949538779704,0.3870291647969979,0.006242405883817526,-0.34946594238281126,0.0,0.0,-1.0,0.0,0.0,-0.0,-8.521833683329778,-0.13744893037629044,-2.4619287213345658
22/04/2022,11:44:35,32.14358,-0.6460886485874653,24.207970212213695,3.781890869140625,3.781890869140625,2.0012869834899902,0.07917275279760361,-0.2664547264575958,2.653959035873413,4.769243240356445,1.5739259719848633,47.64168585934773,-122.14016994681342,125.78111267089844,-12.116189913063312,7.8170707546035025,29.107085572596755,0.0,0.0,-5.0,-6.554058502146135,-0.10571062100235883,-4.7529560694076265,0.38189857911495234,-0.0024263687872645434,-3.9134980443833456e-05,-0.38189086914062376,0.0,0.0,-5.0,-0.0,-0.0,-0.0,-6.554058502146135,-0.10571062100235883,0.2470439305923739
22/04/2022,11:44:35,32.300581,-0.3547053738730028,24.222531092353165,3.686859130859375,3.781890869140625,1.787554383277893,0.06847313046455383,-1.00537109375,2.653959035873413,4.769243240356445,1.5739259719848633,47.64168596098879,-122.14016607424225,125.6838607788086,-14.509663834926004,9.24254549891488,28.829730869854743,0.0,0.0,-5.0,-7.3983870304993316,-0.1193288230725682,-1.7047076424815915,0.4107653965789909,-0.2939686529409813,-0.004741429886145454,-0.28685913085937376,0.0,0.0,-5.0,-0.0,-0.0,-0.0,-7.3983870304993316,-0.1193288230725682,3.2952923575184085
22/04/2022,11:44:35,32.486578,-0.05341253208462149,24.237055619247258,3.4267730712890625,3.781890869140625,1.489221453666687,0.053156036883592606,-1.854404330253601,2.653959035873413,4.769243240356445,1.5739259719848633,47.64168606119669,-122.14016207315375,125.42122650146484,-14.435049835763168,9.2208857275551,28.88056032832545,0.0,0.0,0.0,-12.443725986599585,-0.20070525784840307,12.817008899453725,0.5960963297081598,-0.595417340717827,-0.009603505495448417,-0.026773071289061257,0.0,0.0,0.0,-0.0,-0.0,-0.0,-12.443725986599585,-0.20070525784840307,12.817008899453725
22/04/2022,11:44:36,32.674582,0.1808763868175447,24.247076525352895,3.1000823974609375,3.781890869140625,0.9055734872817993,0.022859636694192886,-1.1521885395050049,2.653959035873413,4.769243240356445,1.5739259719848633,47.64168612714203,-122.14015897605758,125.09659576416016,-7.70870592713826,4.923599341208052,29.77107383611022,0.0,0.0,0.0,-3.5585368215398585,-0.05739575518613226,3.5087869616337874,0.8824450181224873,-0.8298069117031264,-0.013383982446828924,0.29991760253906374,0.0,0.0,0.0,-0.0,-0.0,0.0,-3.5585368215398585,-0.05739575518613226,3.5087869616337874
22/04/2022,11:44:36,32.861579,0.3111824120860547,24.251243938691914,2.9900894165039062,3.781890869140625,0.5531315207481384,0.009184164926409721,-0.17465218901634216,2.653959035873413,4.769243240356445,1.5739259719848633,47.641686151281995,-122.14015725497242,124.98956298828125,-4.690274757786306,2.9175724061596346,30.03454375917205,-3.4628951809584194,2.0020881513297453,0.0,-6.192582158829562,1.9580609420092392,1.0254901355275676,1.0441012037519612,-0.9601462461008303,-0.015486229775820703,0.409910583496095,-3.4628951809584194,2.0020881513297453,0.0,-0.3794743199926857,-0.0061205535482694645,0.16200713231101924,-2.3502126578784566,-0.037906655772236404,0.8634830032165484
22/04/2022,11:44:36,33.051582,0.3844452939229086,24.261645294725895,3.0029296875,3.781890869140625,0.04488981515169144,0.18168580532073975,0.5325639843940735,2.653959035873413,4.769243240356445,1.5739259719848633,47.641686237289825,-122.14015630033748,125.0029296875,-18.68676806107432,1.9407946329996486,30.221033450042665,-0.8640900836115525,0.5033371905633244,0.0,-3.275757905433318,0.46443932246941916,-1.0362128695383657,1.1073321295681284,-1.0335577940475074,-0.01667028700076756,0.39707031250000124,-0.8640900836115525,0.5033371905633244,0.0,-0.4002945982215371,-0.006456364487444655,0.1537844348166004,-2.0113732236002284,-0.0324415036064606,-1.189997304354966
22/04/2022,11:44:36,33.236579,0.34858313808217645,24.31448587588966,3.0861358642578125,3.781890869140625,-0.3339233100414276,0.3546614944934845,0.14568635821342468,2.653959035873413,4.769243240356445,1.5739259719848633,47.641686725797,-122.14015678321621,125.08657836914062,-10.303440343933842,1.3568283496280575,30.390083431780084,-0.8626012389756259,0.5058844754662029,0.0,-1.2569373656915246,0.4995242153578802,0.12394682151014205,1.0468458316610278,-0.998557010947476,-0.016105758241092616,0.31386413574218874,-0.8626012389756259,0.5058844754662029,0.0,-0.3943361267158987,-0.006360260108322642,0.12394682151014205,-0.0,-0.0,0.0
22/04/2022,11:44:36,33.423627,0.2658826793776825,24.387374843470752,3.095489501953125,3.781890869140625,-0.5334733128547668,0.43317294120788574,-0.003611834952607751,2.653959035873413,4.769243240356445,1.5739259719848633,47.64168739194791,-122.1401578813963,125.0954818725586,-4.88347741866141,0.9504375081566834,30.44991617019423,-1.72414496911622,1.0135699904156734,0.0,-1.72414496911622,1.0135699904156734,0.0,0.9664017440219493,-0.9170533835690502,-0.014791183605954217,0.30451049804687624,-1.72414496911622,1.0135699904156734,0.0,-0.0,-0.0,0.0,0.0,0.0,0.0
22/04/2022,11:44:37,33.610616,0.15127609530463815,24.471957580186427,3.1019287109375,3.781890869140625,-0.7044743895530701,0.5022720694541931,0.08458826690912247,2.653959035873413,4.769243240356445,1.5739259719848633,47.64168816620146,-122.1401594013987,125.10218811035156,-6.631498217699653,0.6870680659262881,30.47885177863856,0.0,0.0,0.0,0.0,0.0,0.0,0.85742295326176,-0.8038404890305819,-0.012965169177917346,0.29807128906250124,0.0,0.0,0.0,-0.0,-0.0,0.0,0.0,0.0,0.0
22/04/2022,11:44:37,33.798622,0.01021562551613897,24.56675675045699,3.1006011962890625,3.781890869140625,-0.7863951325416565,0.5305388569831848,-0.045124318450689316,2.653959035873413,4.769243240356445,1.5739259719848633,47.64168903394073,-122.14016126857773,125.1004638671875,1.3187885855601789,0.5064383709347104,30.49174846889459,0.0,0.0,0.0,0.0,0.0,0.0,0.7287723745684186,-0.6643453271813711,-0.010715247212601753,0.29939880371093874,0.0,0.0,0.0,-0.0,-0.0,0.0,0.0,0.0,0.0
22/04/2022,11:44:37,33.98362,-0.13297690264880657,24.65969906374812,3.1003875732421875,3.781890869140625,-0.6974692344665527,0.46097829937934875,0.03173932805657387,2.653959035873413,4.769243240356445,1.5739259719848633,47.64168987010116,-122.14016312960045,125.10038757324219,4.561766688044383,0.37607800551105314,30.48676990724534,0.0,0.0,0.0,0.0,0.0,0.0,0.6025298141425856,-0.5226887199402785,-0.008430463224843976,0.29961242675781374,0.0,0.0,0.0,-0.0,-0.0,0.0,0.0,0.0,0.0
22/04/2022,11:44:37,34.171618,-0.25229062244761735,24.7361032506451,3.1075897216796875,3.781890869140625,-0.5693668723106384,0.3733580410480499,0.0389823354780674,2.653959035873413,4.769243240356445,1.5739259719848633,47.641690579477434,-122.14016472946459,125.10770416259766,4.813045537824079,0.2838101392053872,30.48032070028084,0.0,0.0,0.0,0.0,0.0,0.0,0.4992777836968995,-0.40463803611218596,-0.006526419937294747,0.29241027832031374,0.0,0.0,0.0,-0.0,-0.0,0.0,0.0,0.0,0.0
22/04/2022,11:44:37,34.358617,-0.34792452480178326,24.79700968414545,3.1137008666992188,3.781890869140625,-0.44901514053344727,0.29339802265167236,0.025344034656882286,2.653959035873413,4.769243240356445,1.5739259719848633,47.64169113481593,-122.14016598875148,125.11377716064453,4.183213887279452,0.21526220059671955,30.475456818850308,0.0,0.0,0.0,0.0,0.0,0.0,0.4220178732194231,-0.3100111123742426,-0.005000179231842594,0.2862991333007825,0.0,0.0,0.0,-0.0,-0.0,0.0,0.0,0.0,0.0
22/04/2022,11:44:38,34.543629,-0.42268622387200594,24.8444984536618,3.1171417236328125,3.781890869140625,-0.34820619225502014,0.22713619470596313,0.011933955363929272,2.653959035873413,4.769243240356445,1.5739259719848633,47.641691567747515,-122.14016697294446,125.11717987060547,3.3840548669356534,0.20770881049825438,29.744564037074188,0.0,0.0,1.0,0.0,0.0,1.0,0.36842317109562334,-0.23603460586815106,-0.0038070097720677154,0.28285827636718874,0.0,0.0,1.0,-0.0,-0.0,0.0,0.0,0.0,0.0
22/04/2022,11:44:38,34.692618,-0.46847777639050037,24.873547822237015,3.1431045532226562,3.781890869140625,-0.2634887993335724,0.17161552608013153,0.4989378750324249,2.653959035873413,4.769243240356445,1.5739259719848633,47.6416918321547,-122.14016757485848,125.14457702636719,2.6113087761662985,0.2629623047621741,27.508840957883393,0.0,0.0,0.0,0.0,0.0,0.0,0.3199689685030106,-0.19072337907246073,-0.0030761835334267573,0.256895446777345,0.0,0.0,0.0,-0.0,-0.0,0.0,0.0,0.0,-0.0
22/04/2022,11:44:38,34.882618,-0.5126758067635819,24.901534631848335,3.2149200439453125,3.781890869140625,-0.21391920745372772,0.13914340734481812,0.09923046827316284,2.653959035873413,4.769243240356445,1.5739259719848633,47.64169208746864,-122.14016815709927,125.21522521972656,2.056988891115053,0.4166234781570082,21.788845737144456,0.0,0.0,0.0,0.0,0.0,0.0,0.23635930278547795,-0.14698812639151826,-0.0023707762321194537,0.18507995605468874,0.0,0.0,0.0,-0.0,-0.0,0.0,0.0,0.0,-0.0
22/04/2022,11:44:38,35.065622,-0.5483283716021106,24.924076047725976,3.22491455078125,3.781890869140625,-0.1657319962978363,0.10757580399513245,0.03452804684638977,2.653959035873413,4.769243240356445,1.5739259719848633,47.64169229007313,-122.1401686198131,125.22491455078125,1.560682207820788,0.5398020029851913,14.177611967926268,0.0,0.0,0.0,0.0,0.0,0.0,0.20769426446728637,-0.11170831066852982,-0.0018017469462705549,0.17508544921875124,0.0,0.0,0.0,-0.0,-0.0,0.0,0.0,0.0,0.0
22/04/2022,11:44:38,35.218635,-0.5709931527962908,24.93837740086019,3.2294540405273438,3.781890869140625,-0.133681520819664,0.08657489717006683,0.026495613157749176,2.653959035873413,4.769243240356445,1.5739259719848633,47.64169242334497,-122.1401689247786,125.22953796386719,1.2087448486838446,0.5866237686916218,7.360708317732897,0.0,0.0,0.0,0.0,0.0,0.0,0.19250693972847308,-0.08928003108046556,-0.0014400005012973338,0.1705459594726575,0.0,0.0,0.0,-0.0,-0.0,0.0,0.0,0.0,0.0
22/04/2022,11:44:38,35.396618,-0.5921451186295599,24.951693491078913,3.23358154296875,3.781890869140625,-0.10351413488388062,0.06682343035936356,0.020190509036183357,2.653959035873413,4.769243240356445,1.5739259719848633,47.64169254470963,-122.14016920318291,125.233642578125,0.8637458595601576,0.5887375410770236,-1.0721186173952733,0.0,0.0,0.0,0.0,0.0,0.0,0.17991055092595637,-0.06834828619892441,-0.0011023917128873961,0.16641845703125124,0.0,0.0,0.0,-0.0,-0.0,0.0,0.0,0.0,0.0
22/04/2022,11:44:39,35.57462,-0.6080257793655619,24.96164490096271,3.23663330078125,3.781890869140625,-0.08077612519264221,0.05195902660489082,0.015582880936563015,2.653959035873413,4.769243240356445,1.5739259719848633,47.64169263543349,-122.14016941220858,125.23667907714844,0.6016398812345539,0.5524963561068752,-9.423956025469819,0.0,0.0,0.0,0.0,0.0,0.0,0.17163784458966666,-0.05263222054056382,-0.0008489067829167141,0.16336669921875124,0.0,0.0,0.0,-0.0,-0.0,0.0,0.0,0.0,0.0
22/04/2022,11:44:39,35.746618,-0.6209852048195899,24.969740471802652,3.2390975952148438,3.781890869140625,-0.062181949615478516,0.03983984515070915,0.01184078585356474,2.653959035873413,4.769243240356445,1.5739259719848633,47.64169270922155,-122.14016958278692,125.2391357421875,0.392519638986182,0.49112081180695855,-18.32178344492465,0.0,0.0,0.0,0.0,0.0,0.0,0.16575454706729462,-0.03980670531216146,-0.0006420436340697222,0.1609024047851575,0.0,0.0,0.0,-0.0,-0.0,0.0,0.0,0.0,0.0
22/04/2022,11:44:39,35.887618,-0.6288604100700468,24.974640153348446,3.2405776977539062,3.781890869140625,-0.05087197199463844,0.032492607831954956,0.009548247791826725,2.653959035873413,4.769243240356445,1.5739259719848633,47.641692753020166,-122.14016968440714,125.2405776977539,0.2712436165508898,0.43658584872953576,-25.18125111198099,0.0,0.0,0.0,0.0,0.0,0.0,0.16260547566545422,-0.0320125547980088,-0.000516331529002656,0.159422302246095,0.0,0.0,0.0,-0.0,-0.0,0.0,0.0,0.0,0.0
22/04/2022,11:44:39,36.037142,-0.6355547999264672,24.97879416216165,3.2418060302734375,3.781890869140625,-0.04125465452671051,0.026264354586601257,0.007568595930933952,2.653959035873413,4.769243240356445,1.5739259719848633,47.641692791764115,-122.14016977456475,125.24182891845703,0.17439217277354013,0.3781026946517337,-32.35748351075181,0.0,0.0,0.0,0.0,0.0,0.0,0.16021858144173495,-0.025386888722154,-0.00040946594713275886,0.15819396972656374,0.0,0.0,0.0,-0.0,-0.0,0.0,0.0,0.0,0.0
22/04/2022,11:44:39,36.207145,-0.641880567651242,24.982703196816146,3.2429428100585938,3.781890869140625,-0.0321660153567791,0.020399251952767372,0.005649636033922434,2.653959035873413,4.769243240356445,1.5739259719848633,47.64169282740748,-122.14016985783323,125.24295806884766,0.09113172614351753,0.311111887706104,-40.89265407175045,0.0,0.0,0.0,0.0,0.0,0.0,0.15821773683752938,-0.019125798738940603,-0.0003084806248239147,0.1570571899414075,0.0,0.0,0.0,-0.0,-0.0,0.0,0.0,0.0,0.0
22/04/2022,11:44:39,36.348143,-0.6459538618801162,24.985212348401546,3.2436294555664062,3.781890869140625,-0.026314156129956245,0.016636138781905174,0.004373981151729822,2.653959035873413,4.769243240356445,1.5739259719848633,47.641692850283874,-122.14016991145284,125.24364471435547,0.04377821259003695,0.2612371268817166,-47.78644297120762,0.0,0.0,0.0,0.0,0.0,0.0,0.1570975365247139,-0.015094023545833446,-0.00024345199267372664,0.156370544433595,0.0,0.0,0.0,-0.0,-0.0,0.0,0.0,0.0,0.0
