date,fly_time,fly_time_s,x,y,z,z_max,vx,vy,vz,vx_max,vy_max,vz_max,latitude,longitude,altitude,pitch,roll,yaw,cx,cy,cz,scx,scy,scz,d,dx,dy,dz,gc_pow_x,gc_pow_y,gc_pow_z,gpc_pow_x,gpc_pow_y,gpc_pow_z,gfc_pow_x,gfc_pow_y,gfc_pow_z
21/04/2022,17:08:07,26.974902,0.0,0.0,2.3197708129882812,2.3197708129882812,0.0,0.0,-0.0028520298656076193,0,0,0,47.641468,-122.140165,124.31976318359375,0.0,0.0,0.0,0.0,0.0,0.0,-0.5978790912974474,-0.009643211149959,2.5143178740139014,1.110619228387569,-0.25799739921976594,-0.004161248374512427,1.08022918701172,0.0,0.0,0.0,-0.09980794238175945,-0.0016098055222864712,0.417893563200309,-0.498071148915688,-0.008033405627672529,2.0964243108135925
21/04/2022,17:08:08,27.152903,0.0,0.0,2.3192596435546875,2.3197708129882812,0.0,0.0,-0.002882556524127722,0,0,0,47.641468,-122.140165,124.31925201416016,0.0,0.0,0.0,0.0,0.0,0.0,-0.5977641186912647,-0.009641356753085084,2.51513651666,1.1111164169616707,-0.25799739921976594,-0.004161248374512427,1.0807403564453137,0.0,0.0,0.0,-0.09979066139816885,-0.0016095267967446874,0.4180189230415625,-0.4979734572930958,-0.008031829956340397,2.0971175936184374
21/04/2022,17:08:08,27.304907,0.0,0.0,2.3188247680664062,2.3197708129882812,0.0,0.0,-0.0029034395702183247,0,0,0,47.641468,-122.140165,124.31881713867188,0.0,0.0,0.0,0.0,0.0,0.0,-0.5976679584098543,-0.009639805780804273,2.515819904576235,1.1115394082707373,-0.25799739921976594,-0.004161248374512427,1.081175231933595,0.0,0.0,0.0,-0.0997759473978234,-0.0016092894741584704,0.4181254671383185,-0.49789201101203096,-0.008030516306645802,2.0976944374379163
21/04/2022,17:08:08,27.488907,0.0,0.0,2.3182830810546875,2.3197708129882812,0.0,0.0,-0.0029253121465444565,0,0,0,47.641468,-122.140165,124.31826782226562,0.0,0.0,0.0,0.0,0.0,0.0,-0.597549488774472,-0.009637894980233591,2.516660195698889,1.112066305003771,-0.25799739921976594,-0.004161248374512427,1.0817169189453137,0.0,0.0,0.0,-0.09975760369449141,-0.0016089936079756964,0.41825804460088384,-0.4977918850799806,-0.008028901372257894,2.0984021510980053
21/04/2022,17:08:08,27.6419,0.0,0.0,2.317840576171875,2.3197708129882812,0.0,0.0,-0.002940045204013586,0,0,0,47.641468,-122.140165,124.31783294677734,0.0,0.0,0.0,0.0,0.0,0.0,-0.5974536979911228,-0.009636349967598925,2.517338305601197,1.112496738229924,-0.25799739921976594,-0.004161248374512427,1.0821594238281262,0.0,0.0,0.0,-0.09974260576895502,-0.0016087517059509156,0.41836623592513683,-0.4977110922221678,-0.00802759826164801,2.09897206967606
21/04/2022,17:08:08,27.827901,0.0,0.0,2.3172836303710938,2.3197708129882812,0.0,0.0,-0.0029555298388004303,0,0,0,47.641468,-122.140165,124.3172836303711,0.0,0.0,0.0,0.0,0.0,0.0,-0.5973340746557506,-0.00963442055896389,2.5181834672678276,1.113038503850877,-0.25799739921976594,-0.004161248374512427,1.0827163696289075,0.0,0.0,0.0,-0.09972371258461002,-0.0016084469771711577,0.4185022654571529,-0.49761036207114057,-0.008025973581792733,2.0996812018106747
21/04/2022,17:08:08,27.9829,0.0,0.0,2.3168411254882812,2.3197708129882812,0.0,0.0,-0.002965473337098956,0,0,0,47.641468,-122.140165,124.31683349609375,0.0,0.0,0.0,0.0,0.0,0.0,-0.5972397570664119,-0.009632899307522941,2.51884854374294,1.1134689584472903,-0.25799739921976594,-0.004161248374512427,1.08315887451172,0.0,0.0,0.0,-0.0997086884929802,-0.0016082046531126122,0.41861023069887554,-0.4975310685734316,-0.008024694654410329,2.1002383130440645
21/04/2022,17:08:09,28.132901,0.0,0.0,2.3163909912109375,2.3197708129882812,0.0,0.0,-0.0029740792233496904,0,0,0,47.641468,-122.140165,124.31639099121094,0.0,0.0,0.0,0.0,0.0,0.0,-0.5971442567217359,-0.009631358979383005,2.5195207961394823,1.1139068443640225,-0.25799739921976594,-0.004161248374512427,1.0836090087890637,0.0,0.0,0.0,-0.0996933935188465,-0.0016079579599814235,0.4187199547765787,-0.49745086320288934,-0.008023401019401582,2.100800841362904
21/04/2022,17:08:09,28.292902,0.0,0.0,2.3159408569335938,2.3197708129882812,0.0,0.0,-0.0029813270084559917,0,0,0,47.641468,-122.140165,124.31593322753906,0.0,0.0,0.0,0.0,0.0,0.0,-0.5970491486492943,-0.009629824978214595,2.520189125861397,1.114344740041461,-0.25799739921976594,-0.004161248374512427,1.0840591430664075,0.0,0.0,0.0,-0.09967808662185167,-0.001607711074546023,0.4188295753855223,-0.49737106202744263,-0.008022113903668571,2.1013595504758746
21/04/2022,17:08:09,28.476902,0.0,0.0,2.3153915405273438,2.3197708129882812,0.0,0.0,-0.0029886290431022644,0,0,0,47.641468,-122.140165,124.31537628173828,0.0,0.0,0.0,0.0,0.0,0.0,-0.5969335155808608,-0.009627959928723734,2.5210001282630046,1.1148791344140625,-0.25799739921976594,-0.004161248374512427,1.0846084594726575,0.0,0.0,0.0,-0.09965939090211141,-0.0016074095306792447,0.4189632095719252,-0.49727412467874943,-0.00802055039804449,2.1020369186910792
21/04/2022,17:08:09,28.661901,0.0,0.0,2.3148269653320312,2.3197708129882812,0.0,0.0,-0.0029947753064334393,0,0,0,47.641468,-122.140165,124.3148193359375,0.0,0.0,0.0,0.0,4.0,0.0,-0.596815025450667,3.9903739512024083,2.5218293994697274,1.1154283881821767,-0.25799739921976594,-0.004161248374512427,1.08517303466797,0.0,4.0,0.0,-0.09964015744057905,-0.0016070993135577551,0.4191003953977206,-0.4971748680100879,-0.008018949484033817,2.102729004072007
21/04/2022,17:08:09,28.859941,-0.00018311419989913702,0.01651147101074457,2.3464889526367188,2.3464889526367188,2.7968362001362657e-11,0.3556886315345764,0.6214860677719116,2.7968362001362657e-11,0.3556886315345764,0.6214860677719116,47.641468157976554,-122.140165,124.34832763671875,-5.825298031053653e-11,-15.935761841657321,7.407594446000087e-09,5.171476509405873e-10,4.0,0.0,-0.1007203624038469,3.9983754780174032,0.41115071923805546,1.0846697370712584,-0.258080577429975,-0.004162589958547902,1.0535110473632825,5.171476509405873e-10,4.0,0.0,-0.10072036292099454,-0.0016245219825966543,0.41115071923805546,-0.0,-0.0,-0.0
21/04/2022,17:08:10,29.01894,-0.0013814435806125402,0.12456524465233088,2.4932785034179688,2.4932785034179688,1.633009838464261e-10,1.0299941301345825,1.1130504608154297,1.633009838464261e-10,1.0299941301345825,1.1130504608154297,47.641469120818634,-122.140165,124.49327850341797,-9.30769773211433e-09,-20.156862848993043,4.492040939079758e-08,0.0,0.0,0.0,-0.5104550200484883,-0.00823314548465403,-2.3077011372015304,0.9428934809240933,-0.2586249092443615,-0.004171369503941369,0.9067214965820325,0.0,0.0,0.0,-0.0,-0.0,0.0,-0.5104550200484883,-0.00823314548465403,-2.3077011372015304
21/04/2022,17:08:10,29.17594,-0.003434940008446574,0.3097297241911292,2.635833740234375,2.635833740234375,3.7834077537546307e-10,1.30936598777771,0.5704172253608704,3.7834077537546307e-10,1.30936598777771,1.1130504608154297,47.64147082216613,-122.140165,124.63756561279297,1.1325828377843145e-08,-6.003487748996353,1.2262727303342325e-07,0.0,0.0,0.0,0.0,0.0,0.0,0.8070550137102952,-0.2595576940201252,-0.004186414419679485,0.7641662597656262,0.0,0.0,0.0,-0.0,-0.0,0.0,-0.0,-0.0,-0.0
21/04/2022,17:08:10,29.322938,-0.005719862296245992,0.515761936083436,2.671234130859375,2.671234130859375,8.495041892153665e-10,1.3094046115875244,-0.017699575051665306,8.495041892153665e-10,1.3094046115875244,1.1130504608154297,47.64147264074541,-122.140165,124.67123413085938,4.605273818881047e-08,3.487077884626614,2.2800055351687184e-07,0.0,0.0,0.0,0.0,0.0,0.0,0.7739686209876803,-0.26059560191687997,-0.004203154869627079,0.7287658691406262,0.0,0.0,0.0,-0.0,-0.0,0.0,-0.0,-0.0,0.0
21/04/2022,17:08:10,29.484942,-0.007833405397832394,0.7063408317044377,2.6706008911132812,2.671234130859375,1.838661556341492e-09,1.1657112836837769,0.024597659707069397,1.838661556341492e-09,1.3094046115875244,1.1130504608154297,47.64147438700651,-122.140165,124.67066955566406,8.34544453085995e-08,6.464578238125002,3.585686217863598e-07,0.0,0.0,0.0,0.0,0.0,0.0,0.7748885219194186,-0.26155566221493043,-0.00421863971314429,0.72939910888672,0.0,0.0,0.0,-0.0,-0.0,0.0,-0.0,-0.0,0.0
21/04/2022,17:08:10,29.64194,-0.009661148418672383,0.8711490351706743,2.6763687133789062,2.6763687133789062,3.206837018154829e-09,0.9844989776611328,0.04279720410704613,3.206837018154829e-09,1.3094046115875244,1.1130504608154297,47.64147583846308,-122.140165,124.6763687133789,1.2429065414519953e-07,6.817170071363223,5.199946671031001e-07,9.075619033760942e-09,1.0,0.0,9.075619033760942e-09,1.0,0.0,0.769744444345542,-0.2623859000414058,-0.004232030645829221,0.723631286621095,9.075619033760942e-09,1.0,0.0,-0.0,-0.0,0.0,-0.0,-0.0,0.0
21/04/2022,17:08:10,29.823937,-0.011519544757902622,1.0387214189395308,2.6723098754882812,2.6763687133789062,6.208859204548389e-09,0.8434885144233704,-0.0724170133471489,6.208859204548389e-09,1.3094046115875244,1.1130504608154297,47.64147736899932,-122.14016499999998,124.67208862304688,1.7611126402370052e-07,2.020754579575957,7.267700408301467e-07,5.0738120469358736e-08,3.9999999999999996,0.0,5.0738120469358736e-08,3.9999999999999996,0.0,0.7738481825717461,-0.26323006447981095,-0.004245646201287645,0.72769012451172,5.0738120469358736e-08,3.9999999999999996,0.0,-0.0,-0.0,0.0,-0.0,-0.0,0.0
21/04/2022,17:08:11,30.007937,-0.0133223170414567,1.2012781668454409,2.6808700561523438,2.6808700561523438,1.7283333875184326e-08,1.0665448904037476,0.38220664858818054,1.7283333875184326e-08,1.3094046115875244,1.1130504608154297,47.641478837539886,-122.14016499999995,124.68199920654297,2.273441049962407e-07,-12.282175448708799,8.036676092476917e-07,5.6106583492013795e-08,3.9999999999999996,0.0,5.6106583492013795e-08,3.9999999999999996,0.0,0.7660860711522967,-0.2640489621942933,-0.004258854228940567,0.7191299438476575,5.6106583492013795e-08,3.9999999999999996,0.0,-0.0,-0.0,0.0,-0.0,-0.0,-0.0
21/04/2022,17:08:11,30.166954,-0.01555515150539577,1.4026139257475734,2.7684860229492188,2.7684860229492188,3.226918821042091e-08,1.5346685647964478,0.6616548895835876,3.226918821042091e-08,1.5346685647964478,1.1130504608154297,47.641480661744026,-122.1401649999999,124.77046966552734,2.584514516219731e-07,-16.024705829950488,9.420352978851986e-07,6.576647047240917e-08,3.9999999999999996,0.0,6.576647047240917e-08,3.9999999999999996,0.0,0.6848990352689255,-0.2650632148269462,-0.004275213142370227,0.6315139770507825,6.576647047240917e-08,3.9999999999999996,0.0,-0.0,-0.0,0.0,-0.0,-0.0,-0.0
21/04/2022,17:08:11,30.318941,-0.018496558535844088,1.6678420696407557,2.8670120239257812,2.8670120239257812,4.6550429289027306e-08,1.943633794784546,0.5950637459754944,4.6550429289027306e-08,1.943633794784546,1.1130504608154297,47.64148305926385,-122.14016499999983,124.8687973022461,2.772239468703369e-07,-15.579480547401625,1.1223769686997163e-06,7.835669420945356e-08,3.999999999999999,0.0,7.835669420945356e-08,3.999999999999999,0.0,0.5958718399998538,-0.2663993334995948,-0.00429676344354224,0.53298797607422,7.835669420945356e-08,3.999999999999999,0.0,-0.0,-0.0,0.0,-0.0,-0.0,-0.0
21/04/2022,17:08:11,30.46394,-0.02208299608901143,1.9912329828366637,2.9472579956054688,2.9472579956054688,6.093184623523484e-08,2.295605421066284,0.44539231061935425,6.093184623523484e-08,2.295605421066284,1.1130504608154297,47.64148591680363,-122.14016499999973,124.94725799560547,2.8798773838884315e-07,-13.74135894590002,1.334040142404768e-06,9.313357135494889e-08,3.999999999999999,0.0,9.313357135494889e-08,3.999999999999999,0.0,0.5261494689670461,-0.268028454608508,-0.004323039590459654,0.4527420043945325,9.313357135494889e-08,3.999999999999999,0.0,-0.0,-0.0,0.0,-0.0,-0.0,-0.0
21/04/2022,17:08:11,30.649942,-0.0270941638154909,2.4430927680805326,3.0137481689453125,3.0137481689453125,7.853279981873129e-08,2.650827407836914,0.28325843811035156,7.853279981873129e-08,2.650827407836914,1.1130504608154297,47.64149005393726,-122.14016499999954,125.01460266113281,3.030594827509275e-07,-11.186828009371382,1.5832893456111268e-06,1.1053444837064236e-07,3.9999999999999987,0.0,1.1053444837064236e-07,3.9999999999999987,0.0,0.4714595904613695,-0.2703047557644333,-0.004359754125233373,0.38625183105468874,1.1053444837064236e-07,3.9999999999999987,0.0,-0.0,-0.0,0.0,-0.0,-0.0,-0.0
21/04/2022,17:08:11,30.837941,-0.032856197212822735,2.962658486329019,3.0552902221679688,3.0552902221679688,9.66280353509319e-08,2.943333864212036,0.1679646521806717,9.66280353509319e-08,2.943333864212036,1.1130504608154297,47.641494736804816,-122.14016499999931,125.05580139160156,3.2200194569688054e-07,-8.830198139104404,1.8220338070525211e-06,1.2720195606285427e-07,3.999999999999998,0.0,1.2720195606285427e-07,3.999999999999998,0.0,0.4396938700208464,-0.2729221336973494,-0.0044019698983448485,0.3447097778320325,1.2720195606285427e-07,3.999999999999998,0.0,-0.0,-0.0,0.0,-0.0,-0.0,0.0
21/04/2022,17:08:11,30.98794,-0.03779764880891889,3.4082320565357804,3.075469970703125,3.075469970703125,1.1088269502579351e-07,3.130228042602539,0.10793168097734451,1.1088269502579351e-07,3.130228042602539,1.1130504608154297,47.64149875105443,-122.14016499999912,125.07579040527344,3.421944350971217e-07,-7.266388630378924,1.9816660932743207e-06,1.3834639201107978e-07,3.999999999999998,0.0,1.3834639201107978e-07,3.999999999999998,0.0,0.4255069774679415,-0.2751667686563678,-0.00443817368800703,0.32453002929687624,1.3834639201107978e-07,3.999999999999998,0.0,-0.0,-0.0,0.0,-0.0,-0.0,0.0
21/04/2022,17:08:12,31.173939,-0.04444040870293975,4.007213759236038,3.0908050537109375,3.0908050537109375,1.2878793143045186e-07,3.318737268447876,0.05968145281076431,1.2878793143045186e-07,3.318737268447876,1.1130504608154297,47.64150405628397,-122.14016499999883,125.09080505371094,3.7288896423305095e-07,-5.665530660427337,2.151032996441346e-06,1.1262782432082287e-07,2.9999999999999982,0.0,1.1262782432082287e-07,2.9999999999999982,0.0,0.4159424314245458,-0.278184218990516,-0.004486842241782085,0.30919494628906374,1.1262782432082287e-07,2.9999999999999982,0.0,-0.0,-0.0,0.0,-0.0,-0.0,0.0
21/04/2022,17:08:12,31.351943,-0.05127291940152645,4.623305460438132,3.0912551879882812,3.0912551879882812,1.393776756231091e-07,3.398562431335449,-0.027489492669701576,1.393776756231091e-07,3.398562431335449,1.1130504608154297,47.64150959978091,-122.1401649999985,125.09125518798828,1.546528294757696e-07,-0.39540686282432835,2.305418037571586e-06,1.207114061714715e-07,2.999999999999998,0.0,1.207114061714715e-07,2.999999999999998,0.0,0.4176922368737113,-0.2812878638147455,-0.0045369010292706236,0.30874481201172,1.207114061714715e-07,2.999999999999998,0.0,-0.0,-0.0,0.0,-0.0,-0.0,0.0
21/04/2022,17:08:12,31.505938,-0.05690110079012811,5.130802059546113,3.08843994140625,3.0912551879882812,1.411432322129258e-07,3.369760513305664,-0.010152308270335197,1.411432322129258e-07,3.398562431335449,1.1130504608154297,47.64151416615608,-122.14016499999822,125.08843994140625,6.951291044041194e-08,1.4779472034271182,2.4067445485520906e-06,1.2601684987997548e-07,2.9999999999999973,0.0,1.2601684987997548e-07,2.9999999999999973,0.0,0.421495313344967,-0.28384444636010575,-0.004578136231614849,0.31156005859375124,1.2601684987997548e-07,2.9999999999999973,0.0,-0.0,-0.0,0.0,-0.0,-0.0,0.0
21/04/2022,17:08:12,31.686942,-0.06355282419826835,5.730592026375234,3.08746337890625,3.0912551879882812,1.3879542848371784e-07,3.300632953643799,-0.0027487187180668116,1.411432322129258e-07,3.398562431335449,1.1130504608154297,47.641519651940975,-122.14016499999789,125.08745574951172,-3.288724038637457e-08,1.9755981129492912,2.5147392196638484e-06,1.316714376365012e-07,2.999999999999997,0.0,1.316714376365012e-07,2.999999999999997,0.0,0.42425538466610757,-0.2868659686390431,-0.004626870461921229,0.31253662109375124,1.316714376365012e-07,2.999999999999997,0.0,-0.0,-0.0,0.0,-0.0,-0.0,0.0
21/04/2022,17:08:12,31.87094,-0.0701683359220624,6.327116723172367,3.0869598388671875,3.0912551879882812,1.329356820178873e-07,3.2280209064483643,-0.0033354663755744696,1.411432322129258e-07,3.398562431335449,1.1130504608154297,47.64152493040865,-122.14016499999755,125.08695983886719,-1.3701715649724256e-07,1.7857041024340141,2.624240786908728e-06,1.374049262900526e-07,2.999999999999997,0.0,1.374049262900526e-07,2.999999999999997,0.0,0.42666289014577874,-0.2898710412359633,-0.004675339374774268,0.31304016113281374,1.374049262900526e-07,2.999999999999997,0.0,-0.0,-0.0,0.0,-0.0,-0.0,0.0
21/04/2022,17:08:13,32.019939,-0.07548679551109672,6.80668533500284,3.0863494873046875,3.0912551879882812,1.2593632447988057e-07,3.175795078277588,-0.004864945076406002,1.411432322129258e-07,3.398562431335449,1.1130504608154297,47.64152933109617,-122.14016499999728,125.08633422851562,-2.211193599561941e-07,1.4855240413485398,2.7550489920521206e-06,1.4425402789518172e-07,2.9999999999999964,0.0,1.4425402789518172e-07,2.9999999999999964,0.0,0.4287546136078689,-0.2922869307738674,-0.004714305335063784,0.31365051269531374,1.4425402789518172e-07,2.9999999999999964,0.0,-0.0,-0.0,0.0,-0.0,-0.0,0.0
21/04/2022,17:08:13,32.166941,-0.08062099479138851,7.269639112986624,3.0855484008789062,3.0912551879882812,1.1725798287898215e-07,3.1326098442077637,-0.005905626807361841,1.411432322129258e-07,3.398562431335449,1.1130504608154297,47.64153341107793,-122.14016499999705,125.0855484008789,-3.0331935023729466e-07,1.1821253779163734,2.89149239339322e-06,1.5139818768324841e-07,2.9999999999999964,0.0,1.5139818768324841e-07,2.9999999999999964,0.0,0.4309324953221925,-0.29461912120340006,-0.00475192130973312,0.314451599121095,1.5139818768324841e-07,2.9999999999999964,0.0,-0.0,-0.0,0.0,-0.0,-0.0,0.0
21/04/2022,17:08:13,32.349938,-0.08692406897898763,7.837990770116448,3.08441162109375,3.0912551879882812,1.0396161087555811e-07,3.089294672012329,-0.0064852274954319,1.411432322129258e-07,3.398562431335449,1.1130504608154297,47.64153860828951,-122.14016499999677,125.08438873291016,-4.0624850792768384e-07,0.8465672178737557,3.0384587427322077e-06,1.5909332774005298e-07,2.9999999999999956,0.0,1.5909332774005298e-07,2.9999999999999956,0.0,0.4337219665900947,-0.2974822643932357,-0.004798101038600677,0.31558837890625124,1.5909332774005298e-07,2.9999999999999956,0.0,-0.0,-0.0,0.0,-0.0,-0.0,0.0
21/04/2022,17:08:13,32.52894,-0.09304783237166703,8.390173533931375,3.0832366943359375,3.0912551879882812,8.814751595309644e-08,3.0563058853149414,-0.006500731687992811,1.411432322129258e-07,3.398562431335449,1.1130504608154297,47.64154349347168,-122.14016499999654,125.08323669433594,-5.076423347383114e-07,0.5774083325436272,3.1758830551745858e-06,1.662888479132797e-07,2.9999999999999956,0.0,1.662888479132797e-07,2.9999999999999956,0.0,0.4364869830753972,-0.30026395096672487,-0.004842966951077443,0.31676330566406374,1.662888479132797e-07,2.9999999999999956,0.0,-0.0,-0.0,0.0,-0.0,-0.0,0.0
21/04/2022,17:08:13,32.712942,-0.0991134982323274,8.93711724691093,3.0820846557617188,3.0912551879882812,6.956056353146778e-08,3.0309462547302246,-0.006214941386133432,1.411432322129258e-07,3.398562431335449,1.1130504608154297,47.64154849647504,-122.14016499999636,125.08206939697266,-6.094387663661564e-07,0.3652961629805634,3.2713393566604595e-06,1.7128692817139423e-07,2.999999999999995,0.0,1.7128692817139423e-07,2.999999999999995,0.0,0.43922057481283966,-0.3030192411192226,-0.004887407114827269,0.3179153442382825,1.7128692817139423e-07,2.999999999999995,0.0,-0.0,-0.0,0.0,-0.0,-0.0,0.0
21/04/2022,17:08:13,32.888938,-0.10493458004202694,9.462006540969014,3.0810394287109375,3.0912551879882812,4.890288707315449e-08,3.0121095180511475,-0.005814746487885714,1.411432322129258e-07,3.398562431335449,1.1130504608154297,47.641553218838865,-122.14016499999622,125.08102416992188,-7.082788716768581e-07,0.2057796903576352,3.307752201516401e-06,1.731935002696564e-07,2.999999999999995,0.0,1.731935002696564e-07,2.999999999999995,0.0,0.4418034433675922,-0.30566342779155453,-0.004930055286960666,0.31896057128906374,1.731935002696564e-07,2.999999999999995,0.0,-0.0,-0.0,0.0,-0.0,-0.0,0.0
21/04/2022,17:08:14,33.066939,-0.11092265159823,10.001952779479325,3.0800323486328125,3.0912551879882812,2.468470050587257e-08,2.9971659183502197,-0.005370803643018007,1.411432322129258e-07,3.398562431335449,1.1130504608154297,47.64155799600961,-122.14016499999613,125.08003234863281,-8.105103960777569e-07,0.07842064265040126,3.3485567426910192e-06,1.7533002104944446e-07,2.999999999999995,0.0,1.7533002104944446e-07,2.999999999999995,0.0,0.44441466628608456,-0.30838345892955055,-0.004973926756928648,0.31996765136718874,1.7533002104944446e-07,2.999999999999995,0.0,-0.0,-0.0,0.0,-0.0,-0.0,0.0
21/04/2022,17:08:14,33.243943,-0.1167853472288698,10.53059346228838,3.0791168212890625,3.0912551879882812,1.888220690915432e-09,2.9859397411346436,-0.004954518750309944,1.411432322129258e-07,3.398562431335449,1.1130504608154297,47.64156283310057,-122.1401649999961,125.0791015625,-5.818459333139337e-07,-0.01758677022346789,3.3352336714786068e-06,0.0,0.0,0.0,0.0,0.0,0.0,0.4469240754727235,-0.3110465331376083,-0.005016879566735355,0.32088317871093874,0.0,0.0,0.0,-0.0,-0.0,0.0,-0.0,-0.0,0.0
21/04/2022,17:08:14,33.419939,-0.12241964403074235,11.038639165461063,3.0982284545898438,3.0982284545898438,-1.6625639531753222e-08,2.757056474685669,0.39715704321861267,1.411432322129258e-07,3.398562431335449,1.1130504608154297,47.641567398365154,-122.1401649999961,125.09941101074219,4.184473448185113e-07,11.70033159988682,3.310632347600278e-06,0.0,0.0,0.0,0.0,0.0,0.0,0.4352473820200151,-0.3136058560739694,-0.0050581589689358,0.3017715454101575,0.0,0.0,0.0,-0.0,-0.0,0.0,-0.0,-0.0,-0.0
21/04/2022,17:08:14,33.600942,-0.12734835734590888,11.483061878941953,3.1976470947265625,3.1976470947265625,-1.2723252673652041e-08,2.2586684226989746,0.6368814706802368,1.411432322129258e-07,3.398562431335449,1.1130504608154297,47.64157138377991,-122.14016499999616,125.19955444335938,1.3070195210833232e-06,15.22332852431533,3.360725614987944e-06,0.0,0.0,0.0,-0.7440169406752607,-0.0120002732366998,-2.0508772838644966,0.3751406463521245,-0.3158446686233361,-0.005094268848765182,0.20235290527343874,0.0,0.0,0.0,-0.0,-0.0,0.0,-0.7440169406752607,-0.0120002732366998,-2.0508772838644966
21/04/2022,17:08:14,33.785457,-0.13134755787905306,11.843670574948192,3.3031005859375,3.3031005859375,3.882488552875429e-09,1.8199490308761597,0.5258665084838867,1.411432322129258e-07,3.398562431335449,1.1130504608154297,47.641574616638586,-122.14016499999616,125.30467987060547,1.3761977610046696e-06,14.209901715777493,3.3410006534412267e-06,0.0,0.0,0.0,-0.7474991585486329,-0.012056438041109223,-1.8964518625412357,0.33215121038123696,-0.31766126480096435,-0.0051235687871145075,0.09689941406250124,0.0,0.0,0.0,-0.0,-0.0,0.0,-0.7474991585486329,-0.012056438041109223,-1.8964518625412357
21/04/2022,17:08:14,33.935978,-0.1341103462036699,12.092791722156107,3.3716812133789062,3.3716812133789062,1.4547962834399186e-08,1.502079963684082,0.3836880028247833,1.411432322129258e-07,3.398562431335449,1.1130504608154297,47.64157680905181,-122.14016499999616,125.3716812133789,1.0582081791315322e-06,12.312553582510962,3.332968153728302e-06,0.0,0.0,0.0,0.0,0.0,0.0,0.320212392239343,-0.3189162330212669,-0.005143810210022082,0.028318786621094993,0.0,0.0,0.0,-0.0,-0.0,0.0,-0.0,-0.0,-0.0
21/04/2022,17:08:15,34.086975,-0.13634068437386304,12.293902076780796,3.4193038940429688,3.4193038940429688,2.040520996615669e-08,1.234600305557251,0.2643449306488037,1.411432322129258e-07,3.398562431335449,1.1130504608154297,47.641578651948855,-122.1401649999961,125.42010498046875,7.484753535386384e-07,10.334949509997164,3.328993569712445e-06,0.0,0.0,-1.0,0.0,0.0,-1.0,0.3205527325655028,-0.31992934669110007,-0.005160150753082959,-0.019303894042967507,0.0,0.0,-1.0,-0.0,-0.0,-0.0,-0.0,-0.0,-0.0
21/04/2022,17:08:15,34.261971,-0.13856789958663285,12.494730819948018,3.4166641235351562,3.4193038940429688,2.0943682343954606e-08,1.0583006143569946,-0.4426826536655426,1.411432322129258e-07,3.398562431335449,1.1130504608154297,47.64158042563703,-122.14016499999606,125.41666412353516,3.786630349873213e-07,8.82822678944005,3.3366290257349935e-06,0.0,0.0,-2.0,0.0,0.0,-2.0,0.32141506032019995,-0.32094104156716785,-0.005176468412374291,-0.016664123535155007,0.0,0.0,-2.0,-0.0,-0.0,-0.0,-0.0,-0.0,0.0
21/04/2022,17:08:15,34.430974,-0.14045432524289936,12.664830341003835,3.2731399536132812,3.4193038940429688,1.6664252200371266e-08,0.9313967227935791,-1.2585123777389526,1.411432322129258e-07,3.398562431335449,1.1130504608154297,47.64158198128309,-122.14016499999603,125.2693862915039,3.787991616375157e-08,7.8293577148021685,3.3163347658131094e-06,0.0,0.0,-2.0,-0.34936905413584063,-0.005634984744127616,0.6253527508858148,0.3459397643770371,-0.32179793365631537,-0.005190289252521296,0.12686004638672,0.0,0.0,-2.0,-0.0,-0.0,0.0,-0.34936905413584063,-0.005634984744127616,2.6253527508858148
21/04/2022,17:08:15,34.603972,-0.1421641232445836,12.81900348328054,2.9817123413085938,3.4193038940429688,1.1130900645639485e-08,0.8101136088371277,-2.0345511436462402,1.411432322129258e-07,3.398562431335449,1.1130504608154297,47.641583365265056,-122.14016499999597,124.97561645507812,1.3969045792661102e-07,6.480499844942923,3.322516363578127e-06,0.0,0.0,-1.0,-0.7996111643635679,-0.012896954263938352,9.290111124523115,0.5282480529672211,-0.3225745971940739,-0.005202816083777151,0.4182876586914075,0.0,0.0,-1.0,-0.0,-0.0,0.0,-0.7996111643635679,-0.012896954263938352,10.290111124523115
21/04/2022,17:08:15,34.74997,-0.14332744490820915,12.923900407738984,2.7148208618164062,3.4193038940429688,5.624304133533542e-09,0.5965143442153931,-1.3481429815292358,1.411432322129258e-07,3.398562431335449,1.1130504608154297,47.64158428723793,-122.14016499999597,124.7148208618164,2.2255002401834258e-07,5.040598422447796,3.3111768251554685e-06,0.0,0.0,-2.0,-0.3896397408604782,-0.00628451194936369,1.8486637121880647,0.757557373099175,-0.3231030239408741,-0.005211339095822609,0.685179138183595,0.0,0.0,-2.0,-0.0,-0.0,0.0,-0.3896397408604782,-0.00628451194936369,3.8486637121880647
21/04/2022,17:08:15,34.895972,-0.14416503463871777,12.999426193535328,2.5182266235351562,3.4193038940429688,5.271535208350997e-09,0.5150901675224304,-1.7161720991134644,1.411432322129258e-07,3.398562431335449,1.1130504608154297,47.641584980707556,-122.14016499999596,124.51309204101562,3.0309239142873334e-07,4.283930783333435,3.332725279508398e-06,0.0,0.0,-2.0,-0.6919285797498738,-0.011160138383064849,6.777139618327105,0.9392513400483199,-0.32348349306838986,-0.005217475694653473,0.881773376464845,0.0,0.0,-2.0,-0.0,-0.0,0.0,-0.6919285797498738,-0.011160138383064849,8.777139618327105
21/04/2022,17:08:16,35.071971,-0.14511435013264418,13.085026142187417,2.156036376953125,3.4193038940429688,8.465796064172082e-09,0.42675116658210754,-2.1567399501800537,1.411432322129258e-07,3.398562431335449,1.1130504608154297,47.641585737022105,-122.14016499999596,124.15603637695312,4.098716070323758e-07,3.4294512425126253,3.3833170805797216e-06,0.0,0.0,0.0,-1.6455045396008203,-0.026540395800020093,25.60776436377164,1.2854546002560947,-0.32391470972840974,-0.005224430802071467,1.2439636230468762,0.0,0.0,0.0,-0.11679914898224458,-0.0018838572416492293,0.4485560185228027,-1.5287053906185757,-0.024656538558370862,25.15920834524884
21/04/2022,17:08:16,35.245973,-0.14580264105461538,13.147089790552855,1.8515472412109375,3.4193038940429688,2.1986956255659607e-08,0.29481959342956543,-1.189077615737915,1.411432322129258e-07,3.398562431335449,1.1130504608154297,47.641586303434,-122.1401649999959,123.84794616699219,5.103787556777284e-07,2.346164459926682,3.4104481194110123e-06,0.0,0.0,0.0,-0.6222314164915623,-0.010035990588574843,6.615154187676857,1.582041932819509,-0.3242273640573044,-0.005229473613828972,1.5484527587890637,0.0,0.0,0.0,-0.10097482795712254,-0.0016286262573734058,0.4822379855971168,-0.5212565885344398,-0.008407364331201437,6.13291620207974
21/04/2022,17:08:16,35.421974,-0.1462776141706854,13.18991872202605,1.7435379028320312,3.4193038940429688,4.4177202340733857e-08,0.1932719349861145,-0.03344268351793289,1.411432322129258e-07,3.398562431335449,1.1130504608154297,47.64158668082915,-122.14016499999583,123.74353790283203,6.112504183468091e-07,1.7010831451278687,3.3621918537753885e-06,0.0,0.0,0.0,-0.5652367589363771,-0.009116721918332125,2.93565190433325,1.6879447277347865,-0.3244431240295189,-0.005232953613381497,1.65646209716797,0.0,0.0,0.0,-0.09552188453008226,-0.0015406755569374463,0.48769220074375985,-0.46971487440629484,-0.007576046361394679,2.44795970358949
21/04/2022,17:08:16,35.594972,-0.14659964351449162,13.218956851400435,1.7600860595703125,3.4193038940429688,6.277852548919327e-08,0.14425818622112274,0.13222350180149078,1.411432322129258e-07,3.398562431335449,1.1130504608154297,47.64158694210972,-122.14016499999573,123.76008605957031,7.107622643311385e-07,1.2827005660724362,3.3262813559059513e-06,-1.9999999999999967,1.161091230165203e-07,0.0,-2.6549861583197627,-0.010564176767003953,2.8206285448424433,1.6717366502863955,-0.32458941355451787,-0.005235313121849217,1.6399139404296887,-1.9999999999999967,1.161091230165203e-07,0.0,-0.09639469772456782,-0.0015547531891065725,0.48701221290901375,-0.5585914605951985,-0.009009539687020398,2.3336163319334293
21/04/2022,17:08:16,35.786975,-0.15282261499669403,13.240844329819083,1.7916488647460938,3.4193038940429688,-0.12776553630828857,0.10754317790269852,0.29998713731765747,1.411432322129258e-07,3.398562431335449,1.1130504608154297,47.641587142551636,-122.14016508462458,123.79254150390625,-7.955303516752696,0.9777585908516895,0.017612263512543108,-0.9999999527550836,0.00030739198218183593,0.0,-1.2293717390260919,-0.0033921529576744066,2.4971765343893204,1.6396349812594289,-0.31872099256215636,-0.005140661170358385,1.6083511352539075,-0.9999999527550836,0.00030739198218183593,0.0,-0.09628298101048316,-0.0015529513066210056,0.48586960202704915,-0.13308880526052533,-0.002146593633235237,2.011306932362271
21/04/2022,17:08:16,35.970975,-0.19759766152128577,13.257349096238613,1.84051513671875,3.4193038940429688,-0.3564622104167938,0.08274899423122406,0.1922420859336853,1.411432322129258e-07,3.398562431335449,1.1130504608154297,47.64158729483069,-122.14016568741721,123.84109497070312,-6.490029174904823,0.7401311143742646,0.0483605165953341,-0.9999996437896151,0.0008440501423341152,0.0,-0.28831644734855777,0.012322811375250186,2.6340214286954753,1.5834175868204075,-0.2742237277188482,-0.004422963350306119,1.5594848632812512,-0.9999996437896151,0.0008440501423341152,0.0,-0.08534033567908376,-0.0013764570270826551,0.4853225606185376,0.7970235321201411,0.012855218259998726,2.148698868076938
21/04/2022,17:08:17,36.120974,-0.25875142437871546,13.267455825582147,1.8636093139648438,3.4193038940429688,-0.48971036076545715,0.067161425948143,0.13255999982357025,1.411432322129258e-07,3.398562431335449,1.1130504608154297,47.64158739144301,-122.14016650535963,123.86400604248047,-4.840435042292099,0.5912366854214031,0.06264085599244362,-0.9999994023594403,0.0010932889655377663,0.0,0.1843643942743387,0.020195930846726634,2.5700253908316353,1.551123218059695,-0.21324883897901453,-0.0034394974028870706,1.5363906860351575,-0.9999994023594403,0.0010932889655377663,0.0,-0.06749670372789772,-0.0010886565117402033,0.4862924808506068,1.2518605003616767,0.02019129839292907,2.0837329099810287
21/04/2022,17:08:17,36.276973,-0.3440229743719101,13.275912215001881,1.8812942504882812,3.4193038940429688,-0.5998033285140991,0.05354851856827736,0.09570720791816711,1.411432322129258e-07,3.398562431335449,1.1130504608154297,47.641587475666114,-122.14016764367655,123.88158416748047,-3.646160630485207,0.46408326441059056,0.07206561388026841,-0.9999992089920231,0.0012577819080429981,0.0,0.5192287590584088,0.02576145881208176,2.4240784546857155,1.5241030851969641,-0.12813582414681252,-0.0020667068410791245,1.51870574951172,-0.9999992089920231,0.0012577819080429981,0.0,-0.041130329841589396,-0.0006633924168003114,0.4874894965998402,1.5603582978920214,0.025167069320839074,1.9365889580858753
21/04/2022,17:08:17,36.421974,-0.4362486732425168,13.281870378181338,1.8934402465820312,3.4193038940429688,-0.6783275008201599,0.04350815713405609,0.07347726076841354,1.411432322129258e-07,3.398562431335449,1.1130504608154297,47.64158753819833,-122.14016887367052,123.89366149902344,-2.860762160446179,0.37182811615479333,0.07743940109428228,-0.9999990866260008,0.0013515721083706346,0.0,0.7284923091516251,0.029230465588654254,2.281785635123589,1.5069906444982326,-0.0360301855664521,-0.00058113202526755,1.50655975341797,-0.9999990866260008,0.0013515721083706346,0.0,-0.011667851562745704,-0.00018819115423854431,0.4878774643241058,1.7401592473403715,0.028067084634522163,1.793908170799483
21/04/2022,17:08:17,36.606974,-0.5655025974847376,13.287364310584962,1.9049072265625,3.4193038940429688,-0.7538163661956787,0.033659130334854126,0.05450969561934471,1.411432322129258e-07,3.398562431335449,1.1130504608154297,47.6415875993496,-122.14017056640732,123.9049072265625,-2.148049427853894,0.2826578897385843,0.08151747669607701,-0.9985762400074405,1.0014217357799873,0.0,0.9213626469814085,1.0323884920217432,2.1241627792466726,1.4979895031999526,0.09310153380365771,0.001501637641993625,1.4950927734375012,-0.9985762400074405,1.0014217357799873,0.0,0.030289199345318985,0.0004885354733113188,0.4864061976669087,1.88964968764353,0.030478220768444603,1.637756581579764
21/04/2022,17:08:17,36.755972,-0.680056314682588,13.29173397552222,1.9129486083984375,3.4193038940429688,-0.8022819757461548,0.062113989144563675,0.07183441519737244,1.411432322129258e-07,3.398562431335449,1.1130504608154297,47.64158765174633,-122.14017212279374,123.91316223144531,-1.7182150353552843,-3.200794197169935,0.19716770470092057,-0.9965528601551565,1.003435297822723,0.0,1.0846339878150997,1.0370028276286947,1.977806299251362,1.5014699881377438,0.20755499796033572,0.003347661257421919,1.4870513916015637,-0.9965528601551565,1.003435297822723,0.0,0.06740452879529962,0.0010871698192781002,0.482927413602697,2.0137823191749566,0.03248035998669368,1.4948788856486652
21/04/2022,17:08:17,36.924974,-0.8266173861920834,13.311698727309704,1.9293441772460938,3.4193038940429688,-0.8477849364280701,0.19507117569446564,0.10329408198595047,1.411432322129258e-07,3.398562431335449,1.1130504608154297,47.64158784433247,-122.14017403882143,123.9293441772461,-1.3138443780321103,-4.974342397529336,0.248109020265723,-0.9956603184079013,1.0043209299560956,0.0,1.2718988145197074,1.0408944643581528,1.8074719179327379,1.5126150960687625,0.35375602377871695,0.00570574231901233,1.4706558227539075,-0.9956603184079013,1.0043209299560956,0.0,0.11422759728018922,0.001842380601293622,0.47487383893816093,2.1533315356474194,0.03473115380076353,1.3325980789945768
21/04/2022,17:08:18,37.106972,-0.9830766335362568,13.35842771269381,1.9469833374023438,3.4193038940429688,-0.881615936756134,0.34825193881988525,0.0883183553814888,1.411432322129258e-07,3.398562431335449,1.1130504608154297,47.64158828970522,-122.14017614998946,123.94725036621094,-1.0017859365224964,-4.846386608393703,0.2474849909796937,-0.9956712567753457,1.0043100857959175,0.0,1.4358186763541305,1.0435276653625203,1.7437164882431473,1.5397515290325408,0.5094210822175176,0.008216469068024423,1.4530166625976575,-0.9956712567753457,1.0043100857959175,0.0,0.1621975987334822,0.0026160903021529218,0.4626345901649339,2.269292334395994,0.036601489264449893,1.2810818980782133
21/04/2022,17:08:18,37.286971,-1.142402057419531,13.43008317053318,1.9605484008789062,3.4193038940429688,-0.9065998196601868,0.4836505651473999,0.06416670978069305,1.411432322129258e-07,3.398562431335449,1.1130504608154297,47.641588940913245,-122.14017822512605,123.9605484008789,-0.77377643752034,-4.142050397913195,0.23723341359467734,-0.9958509357925468,1.004131920457222,0.0,1.6377203831655276,1.0466088772146076,1.7378259997727055,1.5867448913134514,0.6675496364493161,0.010766929620148247,1.439451599121095,-0.9958509357925468,1.004131920457222,0.0,0.20738276655273657,0.003344883331495126,0.447183907600193,2.4261885524053377,0.039132073425890486,1.2906420921725126
21/04/2022,17:08:18,37.466973,-1.3058701655827463,13.523699855431914,1.9700851440429688,3.4193038940429688,-0.9257124066352844,0.5961461663246155,0.04396587610244751,1.411432322129258e-07,3.398562431335449,1.1130504608154297,47.64158981550464,-122.14018042444324,123.97022247314453,-0.6028600439390962,-3.357616534190949,0.22792193178623918,-0.9960141101599392,1.0039700654712291,0.0,1.9058379979395088,1.0507741317308952,1.7667677281228418,1.6531330216217264,0.8294656763233544,0.013378478650377446,1.4299148559570325,-0.9960141101599392,1.0039700654712291,0.0,0.24878285644202075,0.004012626716807014,0.4288764592535015,2.6530692516574272,0.04279143954285895,1.3378912688693403
21/04/2022,17:08:18,37.646974,-1.4725310449721292,13.635209199041128,1.9765548706054688,3.4193038940429688,-0.9404309391975403,0.6862238049507141,0.0294776763767004,1.411432322129258e-07,3.398562431335449,1.1130504608154297,47.64159083780238,-122.14018262719144,123.97663879394531,-0.4732514977155527,-2.656508900293825,0.2212515568701654,-0.9961309856095466,1.0038541027004637,0.0,2.2525270809722517,1.0562518134517809,1.8259089399533734,1.7363917065223256,0.994285140840654,0.016036857110332647,1.4234451293945325,-0.9961309856095466,1.0038541027004637,0.0,0.28525893125713964,0.0046009505041472755,0.4083842950433265,2.9633991353246585,0.04779676024716985,1.417524644910047
21/04/2022,17:08:18,37.821973,-1.641658340813592,13.760916645638645,1.9808731079101562,3.4193038940429688,-0.95179283618927,0.7570087909698486,0.019674088805913925,1.411432322129258e-07,3.398562431335449,1.1130504608154297,47.64159198754861,-122.14018486054047,123.9809341430664,-0.3740658352264815,-2.078088527807329,0.21684342216134728,-0.9962082156468874,1.003777460933271,0.0,2.6889463518280436,1.0632154378280265,1.9155767392547265,1.8338445774239582,1.1613414382465155,0.01873131352010482,1.419126892089845,-0.9962082156468874,1.003777460933271,0.0,0.3163506879327008,0.005102430450527359,0.38657172971823484,3.3688038795422304,0.054335546444228076,1.5290050095364918
21/04/2022,17:08:19,37.998971,-1.8126917973859236,13.897722378373146,1.9837570190429688,3.4193038940429688,-0.9605684280395508,0.8120864629745483,0.01313270814716816,1.411432322129258e-07,3.398562431335449,1.1130504608154297,47.64159321501719,-122.14018707910526,123.98375701904297,-0.2977840667548571,-1.6175723835198517,0.21402488143857482,0.0,0.0,0.0,4.224090224516748,0.06813048749220074,2.0377167206434716,1.943047984907348,1.3301244425727843,0.02145362004149476,1.4162429809570325,0.0,0.0,0.0,0.3422651708229738,0.005520405981015254,0.36442503444753593,3.881825053693774,0.0626100815111855,1.6732916861959355
21/04/2022,17:08:19,38.17497,-1.9824495271313936,14.04055158700794,1.9873199462890625,3.4193038940429688,-0.9091473817825317,0.7979581952095032,0.0664215013384819,1.411432322129258e-07,3.398562431335449,1.1130504608154297,47.6415945384727,-122.14018935427104,123.98751068115234,3.729692547565452,2.712265267954622,0.3280858388529679,0.0,0.0,1.0,4.362762243245693,0.0703671329555741,2.8989366283046074,2.058848996199505,1.4975349242909193,0.02415378910146515,1.4126800537109387,0.0,0.0,1.0,0.36369737858527773,0.005866086751375134,0.34308918208211786,3.999064864660415,0.06450104620419897,1.5558474462224896
21/04/2022,17:08:19,38.352973,-2.1310230020899326,14.168980485759676,2.0675125122070312,3.4193038940429688,-0.7031115293502808,0.629665195941925,0.9847912192344666,1.411432322129258e-07,3.398562431335449,1.1130504608154297,47.64159568721576,-122.14019127674185,124.06751251220703,4.659873622670631,3.9523262670079764,0.3968372387191759,0.0,0.0,1.0,3.4791577488229883,0.056115447561659086,0.664966198531653,2.1163549494909395,1.6439988634373475,0.026516110700599782,1.33248748779297,0.0,0.0,1.0,0.38852575551051693,0.006266544443717402,0.3149063660668426,3.0906319933124715,0.049848903117941684,-0.6499401675351896
21/04/2022,17:08:19,38.531008,-2.2423070383956656,14.266529538668692,2.26763916015625,3.4193038940429688,-0.5492289662361145,0.4952812194824219,1.1627603769302368,1.411432322129258e-07,3.398562431335449,1.1627603769302368,47.64159657594199,-122.14019274377394,124.26763916015625,4.25389881324086,3.7390339836438566,0.36835503483942206,0.0,0.0,0.0,3.2998342763903032,0.05322313349016545,-0.9403902497860368,2.0876872739114263,1.7536809945892013,0.0282851773320818,1.1323608398437512,0.0,0.0,0.0,0.4200623087239982,0.006775198527805921,0.2712363937118651,2.879771967666305,0.04644793496235953,-1.211626643497902
21/04/2022,17:08:19,38.703002,-2.3305778119247407,14.344210526905954,2.419677734375,3.4193038940429688,-0.4788382053375244,0.4324899911880493,0.46958231925964355,1.411432322129258e-07,3.398562431335449,1.1627603769302368,47.64159729528402,-122.14019392655597,124.42110443115234,3.847995520417264,3.424858628027459,0.34027124259875396,0.0,0.0,0.0,3.1823717419494817,0.05132857648305533,0.27556413999360446,2.0856658598480515,1.8406762175215954,0.02968832608905636,0.9803222656250012,0.0,0.0,0.0,0.44132372516235063,0.007118124599392362,0.23504376815807104,2.741048016787131,0.04421045188366297,0.040520371835533434
21/04/2022,17:08:19,38.886997,-2.410262953606434,14.414397603832185,2.448486328125,3.4193038940429688,-0.40045875310897827,0.36187663674354553,0.01162619050592184,1.411432322129258e-07,3.398562431335449,1.1627603769302368,47.641597942531625,-122.14019498984024,124.44855499267578,3.2189201802872414,2.880200005888931,0.3033245392033102,0.005293987182401422,0.9999859867516707,0.0,3.1223687637376374,1.0502613863735264,1.136973276308666,2.1423583272576185,1.9192088796425324,0.030954981929715686,0.9515136718750012,0.005293987182401422,0.9999859867516707,0.0,0.4481781235898442,0.007228679412738821,0.2221996868368231,2.6688966529653917,0.043046720209116984,0.914773589471843
21/04/2022,17:08:20,39.063997,-2.475324895582162,14.474205188453197,2.4449462890625,3.4193038940429688,-0.31267136335372925,0.33766964077949524,-0.022275138646364212,1.411432322129258e-07,3.398562431335449,1.1627603769302368,47.64159846759385,-122.14019581509089,124.4449462890625,2.586561724192137,-1.6530599682367484,0.07205611044134906,0.0025152320837495547,1.9999984184012658,0.0,3.0111254141479713,2.04852438907972,1.2014192341234835,2.201496797478435,1.9832895128566272,0.03198854052994449,0.9550537109375012,0.0025152320837495547,1.9999984184012658,0.0,0.45117816180168324,0.007277067125833348,0.21726499077888678,2.5574320202625387,0.041248903552620474,0.9841542433445967
21/04/2022,17:08:20,39.237,-2.524053336586803,14.54140945430845,2.4518051147460938,3.4193038940429688,-0.23744548857212067,0.4829046428203583,0.1280384659767151,1.411432322129258e-07,3.398562431335449,1.1627603769302368,47.64159909003709,-122.14019646337175,124.45218658447266,2.046258672529779,-7.238580392140803,-0.16015308711927564,-0.002795195037588365,0.9999960934347203,0.0,2.956234419288943,1.0477223775367615,0.9082800380889111,2.241604154697146,2.030921622801703,0.032756800367767624,0.9481948852539075,-0.002795195037588365,0.9999960934347203,0.0,0.4542840577673538,0.0073271622220536965,0.21209573781245497,2.5047455565591776,0.04039912187998741,0.6961843002764562
21/04/2022,17:08:20,39.412517,-2.562628534156829,14.643500776030123,2.4665756225585938,3.4193038940429688,-0.18612618744373322,0.6646709442138672,0.020163146778941154,1.411432322129258e-07,3.398562431335449,1.1627603769302368,47.641599999412186,-122.1401969522999,124.4665756225586,1.5653403924919609,-4.61046153008632,-0.0847051879433003,-0.0014783838846000354,0.9999989071899478,0.0,2.8917018882690386,1.046663105127907,1.1059311341740048,2.268999364050422,2.0678405818426486,0.03335226744907338,0.9334243774414075,-0.0014783838846000354,0.9999989071899478,0.0,0.45744628802064835,0.007378165935816555,0.20649150633655966,2.43573398413299,0.03928603200214274,0.8994396278374451
21/04/2022,17:08:20,39.554038,-2.5876728541916236,14.743158873170614,2.467315673828125,3.4193038940429688,-0.1524789184331894,0.7524201273918152,-0.005289811175316572,1.411432322129258e-07,3.398562431335449,1.1627603769302368,47.64160091876646,-122.1401972770945,124.46730041503906,1.2751076255415486,-2.9341205480746786,-0.043234017794850185,-0.0015091517755571986,1.9999994306151485,0.0,2.858592809214864,2.0461301074053133,1.1595837158566173,2.290077273902902,2.091271417783101,0.0337301841577915,0.9326843261718762,-0.0015091517755571986,1.9999994306151485,0.0,0.45882302793823415,0.007400371418358516,0.2046300843619601,2.401278933052187,0.0387303053718063,0.9549536314946573
21/04/2022,17:08:20,39.70404,-2.608809454832226,14.85697281267494,2.4703140258789062,3.4193038940429688,-0.12258989363908768,0.8525954484939575,0.06480373442173004,1.411432322129258e-07,3.398562431335449,1.1627603769302368,47.64160194751307,-122.14019754047021,124.47050476074219,1.0383415592777339,-5.461133534527136,-0.09338564147507784,-0.0032597723923724503,1.999997343469223,0.0,2.867572411692585,2.0463010883738146,1.0311206227067862,2.306505823422247,2.1105672899841954,0.03404140790297028,0.929685974121095,-0.0032597723923724503,1.999997343469223,0.0,0.4601596927448105,0.0074219305281419705,0.20269622022045383,2.4106724913401467,0.03888181437644995,0.8284244024863324
21/04/2022,17:08:20,39.880034,-2.6301606916822493,15.026369927451015,2.4860687255859375,3.4193038940429688,-0.09405198693275452,1.0449857711791992,0.09555242210626602,1.411432322129258e-07,3.398562431335449,1.1627603769302368,47.641603450723146,-122.14019779477789,124.48606872558594,0.7928239209427395,-6.448491559264882,-0.11105806124023541,-0.0038766552315372006,1.9999962428825249,0.0,2.8711152648746823,2.0463670803035936,0.9621523109793806,2.317296585879308,2.129181472906269,0.03434163665977685,0.9139312744140637,-0.0038766552315372006,1.9999962428825249,0.0,0.46234578186586167,0.007457190030094179,0.19845761153644764,2.412646138240358,0.038913647390974755,0.763694699442933
21/04/2022,17:08:21,40.026036,-2.643996784812771,15.18357687909156,2.4986419677734375,3.4193038940429688,-0.07712649554014206,1.1948025226593018,0.0795929804444313,1.411432322129258e-07,3.398562431335449,1.1627603769302368,47.64160486645322,-122.14019795575828,124.49864196777344,0.6400294709553344,-6.043124267034998,-0.10652145805036486,-0.0037182981919948823,1.999996543561652,0.0,2.859789621761996,2.0461821551738075,0.984704712810801,2.3227760721027173,2.1404790310316293,0.0345238553392182,0.9013580322265637,-0.0037182981919948823,1.999996543561652,0.0,0.4638577004348192,0.007481575813464474,0.195330978736829,2.3996502195191716,0.03870403579869132,0.7893737340739719
21/04/2022,17:08:21,40.198035,-2.658454450778663,15.405098459683359,2.5101852416992188,3.4193038940429688,-0.06074485182762146,1.3580737113952637,0.05239810049533844,1.411432322129258e-07,3.398562431335449,1.1627603769302368,47.641606897435494,-122.1401981179548,124.51033782958984,0.49416255933725867,-5.121226792705703,-0.09758349478384344,0.0,0.0,0.0,2.8456714201833724,0.04589792613198844,1.030769204850856,2.3283745904223765,2.1513609373973503,0.03469936995801781,0.8898147583007825,0.0,0.0,0.0,0.4652593869035813,0.007504183659734324,0.192433850456362,2.380412033279791,0.03839374247225412,0.838335354394494
21/04/2022,17:08:21,40.350033,-2.6689213565550745,15.609697725623846,2.5090560913085938,3.4193038940429688,-0.05008292943239212,1.3966569900512695,-0.014314425177872181,1.411432322129258e-07,3.398562431335449,1.1627603769302368,47.641608740299944,-122.14019822665972,124.5090103149414,0.40414134077896124,2.6494448172749308,-0.03743235002043726,0.0,0.0,-2.0,2.803027971215653,0.04521012856799143,-0.8368182185581117,2.3354287790938653,2.1585259910556642,0.03481493533960389,0.8909439086914075,0.0,0.0,-2.0,0.4656143937589651,0.007509909576756725,0.19218499551896043,2.337413577456688,0.0377002189912347,0.9709967859229278
21/04/2022,17:08:21,40.531036,-2.6795177846215665,15.844376942142844,2.4697494506835938,3.4193038940429688,-0.042662300169467926,1.2998377084732056,-0.6328030824661255,1.411432322129258e-07,3.398562431335449,1.1627603769302368,47.64161085009892,-122.14019833277388,124.4678726196289,0.37169593523280253,7.5688830648343135,-0.003198625753703119,0.0,0.0,0.0,2.7274569074226336,0.043991240442296325,2.4498821391962817,2.3569606799946303,2.165335499004537,0.03492476611297235,0.9302505493164075,0.0,0.0,0.0,0.4635277233194294,0.007476253601925413,0.19913630910291535,2.2639291841032043,0.03651498684037091,2.2507458300933663
21/04/2022,17:08:21,40.701035,-2.688379760016687,16.05084603931755,2.375823974609375,3.4193038940429688,-0.030162421986460686,0.9952022433280945,-0.1545182466506958,1.411432322129258e-07,3.398562431335449,1.1627603769302368,47.641612673474164,-122.1401984185591,124.37582397460938,0.2702214379509444,7.378874032654758,-0.0031781807814358154,0.0,0.0,0.0,2.6755371771845398,0.043153825438458526,1.5604831284327694,2.4005876815196485,2.1708658889639683,0.035013965951026904,1.0241760253906262,0.0,0.0,0.0,0.4579661147066659,0.007386550237203269,0.21606029073850624,2.217571062477874,0.03576727520125526,1.344422837694263
21/04/2022,17:08:21,40.876034,-2.694766741245985,16.206940977834165,2.3598251342773438,3.4193038940429688,-0.02271396666765213,0.7771637439727783,-0.07143992185592651,1.411432322129258e-07,3.398562431335449,1.1627603769302368,47.64161409945695,-122.14019848144851,124.35961151123047,0.19592257915858213,6.143999282319294,-0.008036812029990348,0.0,0.0,0.0,2.71078125027556,0.043722278230248296,1.433254750180401,2.410946485999706,2.1747342035692716,0.03507635812208321,1.0401748657226575,0.0,0.0,0.0,0.45727254274255547,0.00737536359262148,0.218713351252419,2.2535087075330047,0.03634691463762681,1.2145413989279819
21/04/2022,17:08:22,41.051035,-2.6996097952360287,16.32744885608554,2.347015380859375,3.4193038940429688,-0.017573459073901176,0.6109667420387268,-0.07604902982711792,1.411432322129258e-07,3.398562431335449,1.1627603769302368,47.64161516311748,-122.14019852722099,124.34701538085938,0.14791646913560083,4.955949778588892,-0.011625103295655286,0.0,0.0,-2.0,2.703132469953282,0.043598910805696625,-0.5447591009866124,2.41911036845471,2.1776328280390094,0.03512311012966052,1.0529846191406262,0.0,0.0,-2.0,0.4567165558444413,0.007366396062006925,0.2208432488796328,2.246415914108841,0.0362325147436897,1.2343976501337548
21/04/2022,17:08:22,41.223034,-2.7034533087862656,16.423836389556527,2.28912353515625,3.4193038940429688,-0.015083437785506248,0.5268011689186096,-0.7480566501617432,1.411432322129258e-07,3.398562431335449,1.1627603769302368,47.641616044900346,-122.14019856476128,124.28689575195312,0.13300972647020243,4.592651863384817,-0.012572002955305271,0.0,0.0,-1.0,2.9590613577762004,0.04772679609316166,2.209603695258131,2.4469039186306594,2.179921108666294,0.03516001788171508,1.1108764648437512,0.0,0.0,-1.0,0.4533965869263298,0.0073128481762312625,0.23104854375445477,2.5056647708498705,0.0404139479169304,2.9785551515036763
21/04/2022,17:08:22,41.404035,-2.706898673204705,16.510417928919196,2.094940185546875,3.4193038940429688,-0.01264924556016922,0.4425446391105652,-1.3008211851119995,1.411432322129258e-07,3.398562431335449,1.1627603769302368,47.64161680996938,-122.14019859724047,124.09494018554688,0.10279239528785024,3.603913524481342,-0.014657989091894483,0.0,0.0,0.0,5.40067041987369,0.08710758741731592,9.09706805071583,2.5427171315972363,2.1819694637726648,0.035193055867299705,1.3050598144531262,0.0,0.0,0.0,0.44277994528765735,0.007141612020768395,0.26483153079583205,4.957890474586033,0.07996597539654753,8.832236519919999
21/04/2022,17:08:22,41.578038,-2.709457745659165,16.574790716171265,1.9312057495117188,3.4193038940429688,-0.008701207116246223,0.3048818111419678,-0.41391676664352417,1.411432322129258e-07,3.398562431335449,1.1627603769302368,47.641617397616194,-122.14019862215213,123.92993927001953,0.07388813583555262,2.6038196599546173,-0.0162633467811122,0.0,0.0,0.0,2.7202794464801316,0.043875474943229686,2.687725474803012,2.631772186232613,2.1834898699378966,0.035217578547381834,1.4687942504882825,0.0,0.0,0.0,0.43575370802009084,0.007028285613226554,0.293123659413663,2.284525738460041,0.03684718933000313,2.394601815389349
21/04/2022,17:08:22,41.752035,-2.711301840026863,16.62122019380331,1.8879318237304688,3.4193038940429688,-0.006456571631133556,0.22639793157577515,-0.17344775795936584,1.411432322129258e-07,3.398562431335449,1.1627603769302368,47.64161781337748,-122.1401986397573,123.88741302490234,0.0545278823499851,1.9273386160775103,-0.017079410089214542,0.0,0.0,0.0,2.5938569904917124,0.041836403072445495,2.1335451454306162,2.657066524206595,2.184584816917414,0.035235238982537,1.5120681762695325,0.0,0.0,0.0,0.43441313985834373,0.0070066635461019326,0.30068060486660386,2.1594438506333686,0.034829739526343564,1.8328645405640123
21/04/2022,17:08:22,41.928032,-2.7126828270265833,16.65601408854127,1.8607177734375,3.4193038940429688,-0.0049871886149048805,0.1749357432126999,-0.1416034996509552,1.411432322129258e-07,3.398562431335449,1.1627603769302368,47.641618120436874,-122.14019865274608,123.8607177734375,0.041525910414822724,1.4699232519462064,-0.01750126869390319,0.0,0.0,0.0,2.5903785401569097,0.04178029903478324,2.1004525004816212,2.673317155397803,2.1854043988558196,0.03524845804605903,1.5392822265625012,0.0,0.0,0.0,0.4336979559617467,0.006995128321963145,0.30547369432308275,2.156680584195163,0.03478517071282009,1.7949788061585386
21/04/2022,17:08:23,42.097034,-2.713736115139909,16.682541915215552,1.8384246826171875,3.4193038940429688,-0.0038838384207338095,0.1362629234790802,-0.11900627613067627,1.411432322129258e-07,3.398562431335449,1.1627603769302368,47.64161836289264,-122.14019866300609,123.83806610107422,0.032159714608590566,1.1392752411657294,-0.017737881478128367,0.0,0.0,0.0,2.5886291482532244,0.04175208303634006,2.081121272165934,2.68672408226481,2.186029656138998,0.03525854284094976,1.5615753173828137,0.0,0.0,0.0,0.433170597620681,0.006986622542268688,0.3094324505437577,2.1554585506325434,0.03476546049407137,1.7716888216221762
21/04/2022,17:08:23,42.241035,-2.7144139166921377,16.699621162377298,1.82305908203125,3.4193038940429688,-0.0031772947404533625,0.11148937791585922,-0.10331816226243973,1.411432322129258e-07,3.398562431335449,1.1627603769302368,47.64161851594031,-122.14019866947872,123.82274627685547,0.02627831700670595,0.9312820057257809,-0.01785649584322925,0.0,0.0,0.0,2.5877149185102177,0.04173733739532627,2.067802071152726,2.696010135887211,2.1864318813256656,0.03526503034395745,1.5769409179687512,0.0,0.0,0.0,0.4328379444062671,0.006981257167842048,0.31217979906599247,2.1548769741039506,0.03475608022748422,1.7556222720867332
21/04/2022,17:08:23,42.411032,-2.715096355881542,16.71680750977248,1.8065414428710938,3.4193038940429688,-0.0024678667541593313,0.08661571890115738,-0.0864078551530838,1.411432322129258e-07,3.398562431335449,1.1627603769302368,47.64161866762011,-122.14019867590059,123.8065414428711,0.0204222864770234,0.7239783260569055,-0.01795108132859644,0.0,0.0,0.0,2.58700139576054,0.041725828963878026,2.0535995174737196,2.7060322228279805,2.1868370159695067,0.03527156477369786,1.5934585571289075,0.0,0.0,0.0,0.4325088648464713,0.006975949433006837,0.3151514935456579,2.1544925309140686,0.034749879530871185,1.7384480239280617
21/04/2022,17:08:23,42.582032,-2.715626036049798,16.730156822130084,1.7927398681640625,3.4193038940429688,-0.0019170441664755344,0.0673016831278801,-0.07216580212116241,1.411432322129258e-07,3.398562431335449,1.1627603769302368,47.64161878777322,-122.14019868098106,123.79273986816406,0.01588884821761581,0.5634285304434608,-0.01800806286827535,0.0,0.0,0.0,2.5866186097968704,0.041719654996720035,2.041671776298502,2.714435557167156,2.18715130288774,0.035276633917543876,1.6072601318359387,0.0,0.0,0.0,0.43225653363340044,0.006971879574732203,0.31765003743329256,2.15436207616347,0.03474777542198783,1.7240217388652095
21/04/2022,17:08:23,42.754033,-2.7160185471875593,16.74005989637226,1.7817611694335938,3.4193038940429688,-0.0015086132334545255,0.052976902574300766,-0.06084534153342247,1.411432322129258e-07,3.398562431335449,1.1627603769302368,47.64161887835378,-122.1401986848047,123.78157806396484,0.012525774243803857,0.4442878064388219,-0.01804115306140641,0.0,0.0,0.0,2.586453407397884,0.04171699044190329,2.03230321588528,2.721137721210503,2.1873840264795574,0.03528038752386209,1.6182388305664075,0.0,0.0,0.0,0.43207049739553915,0.0069688789902502876,0.31964814955374166,2.154382910002345,0.034748111451653,1.7126550663315385
21/04/2022,17:08:23,42.927034,-2.716347622568719,16.74835201445967,1.7718887329101562,3.4193038940429688,-0.0011664862977340817,0.04097448289394379,-0.050712257623672485,1.411432322129258e-07,3.398562431335449,1.1627603769302368,47.64161895154257,-122.14019868790083,123.77188873291016,0.009703144833616072,0.3442694605897854,-0.018062960290765564,0.0,0.0,0.0,2.5864078300881927,0.04171625532400077,2.0240440834826785,2.7271770113794633,2.1875793072191563,0.035283537213210536,1.628111267089845,0.0,0.0,0.0,0.43191429694556577,0.006966359628153959,0.32145327529550277,2.154493533142627,0.034749895695846814,1.7025908081871757
21/04/2022,17:08:24,43.105033,-2.716594688827172,16.754570013843477,1.7639007568359375,3.4193038940429688,-0.0009096722351387143,0.03196243196725845,-0.042587824165821075,1.411432322129258e-07,3.398562431335449,1.1627603769302368,47.64161900835572,-122.14019869030571,123.76377868652344,0.007579420573461218,0.2689901784278438,-0.018075711564909006,0.0,0.0,0.0,2.58643797099109,0.041716741467597296,2.0175546040597587,2.7320708403031984,2.1877260449917695,0.03528590395147546,1.6360992431640637,0.0,0.0,0.0,0.4317954000244425,0.00696444193587718,0.3229198321238491,2.1546425709666472,0.03475229953172011,1.6946347719359096
21/04/2022,17:08:24,43.277037,-2.716789477155544,16.759495502337813,1.7570877075195312,3.4193038940429688,-0.000706173072103411,0.024819491431117058,-0.03572529926896095,1.411432322129258e-07,3.398562431335449,1.1627603769302368,47.64161905251912,-122.14019869216676,123.7569808959961,0.005892527270097342,0.20918194452290922,-0.018083548894098654,0.0,0.0,0.0,2.5865066955764195,0.04171784992865075,2.0121813724588904,2.736248498109787,2.1878413599586386,0.03528776387030064,1.64291229248047,0.0,0.0,0.0,0.43169899522324456,0.0069628870197297535,0.3241750516669748,2.154807700353175,0.034754962908920994,1.6880063207919158
21/04/2022,17:08:24,43.446035,-2.716936433687806,16.763202279806137,1.7515487670898438,3.4193038940429688,-0.0005529150366783142,0.019438548013567924,-0.030222102999687195,1.411432322129258e-07,3.398562431335449,1.1627603769302368,47.64161908573938,-122.14019869356864,123.75145721435547,0.004619201043503775,0.16402923834886857,-0.018088240661753085,-0.9999999501669589,-0.0003156993501966229,0.0,1.5865892768466763,0.04140348173066694,2.00797963593107,2.7396474125126034,2.187928507086592,0.03528916946913796,1.6484512329101575,-0.9999999501669589,-0.0003156993501966229,0.0,0.4316240444339182,0.006961678136030817,0.32519855465853276,2.154965182579717,0.03475750294483275,1.6827810812725372
21/04/2022,17:08:24,43.586041,-2.7181744179688394,16.765718260779977,1.74859619140625,3.4193038940429688,-0.03480331227183342,0.015672944486141205,0.006052115000784397,1.411432322129258e-07,3.398562431335449,1.1627603769302368,47.64161910796438,-122.14019870965572,123.74859619140625,-3.3881312935287142,0.13315506100990646,-0.017433179935491917,0.0,0.0,0.0,2.6547772748568286,0.04281898830413808,1.9394593816113737,2.742380739154741,2.189125599610887,0.03530847741307497,1.6514038085937512,0.0,0.0,0.0,0.4317891924116532,0.006964341813090421,0.3257274580247789,2.2229880824451755,0.03585464649104766,1.6137319235865948
21/04/2022,17:08:24,43.757032,-2.7315737940371037,16.767950222827494,1.7475967407226562,3.4193038940429688,-0.1095401719212532,0.01224338635802269,-0.02298225648701191,1.411432322129258e-07,3.398562431335449,1.1627603769302368,47.64161912938163,-122.14019888770122,123.74759674072266,-1.16543592807105,0.10385233485528224,-0.016176491497053944,0.0,0.0,0.0,2.840114857776276,0.04580830415768178,2.013460133978296,2.753659540336746,2.202485500770695,0.03552395968985067,1.652403259277345,0.0,0.0,0.0,0.43415929843229734,0.007002569329553332,0.3257257491702254,2.4059555593439788,0.03880573482812845,1.6877343848080706
